{
  "metadata": {
    "source_file": "data/FY25_detentionStats08142025.xlsx",
    "extraction_date": "2025-08-14",
    "last_checked_date": "2025-08-15T12:01:53.559732",
    "total_facilities": 181,
    "source_date": "2025-08-14"
  },
  "facilities": [
    {
      "Name": "ADAMS COUNTY DET CENTER",
      "Address": "20 HOBO FORK RD.",
      "City": "NATCHEZ",
      "State": "MS",
      "Zip": "39120",
      "Male Crim": 43.0,
      "Male Non-Crim": 2126.0,
      "Female Crim": 0.0,
      "Female Non-Crim": 0.0,
      "ICE Threat Level 1": 6.0,
      "ICE Threat Level 2": 9.0,
      "ICE Threat Level 3": 16.0,
      "No ICE Threat Level": 2139.0,
      "latitude": 31.5576266,
      "longitude": -91.221126
    },
    {
      "Name": "ADELANTO ICE PROCESSING CENTER",
      "Address": "10250 RANCHO ROAD",
      "City": "ADELANTO",
      "State": "CA",
      "Zip": "92301",
      "Male Crim": 229.0,
      "Male Non-Crim": 153.0,
      "Female Crim": 4.0,
      "Female Non-Crim": 24.0,
      "ICE Threat Level 1": 113.0,
      "ICE Threat Level 2": 43.0,
      "ICE Threat Level 3": 26.0,
      "No ICE Threat Level": 228.0,
      "latitude": 34.5599467,
      "longitude": -117.4421505
    },
    {
      "Name": "ALAMANCE COUNTY DETENTION FACILITY",
      "Address": "109 SOUTH MAPLE STREET",
      "City": "GRAHAM",
      "State": "NC",
      "Zip": "27253",
      "Male Crim": 13.0,
      "Male Non-Crim": 10.0,
      "Female Crim": 0.0,
      "Female Non-Crim": 1.0,
      "ICE Threat Level 1": 1.0,
      "ICE Threat Level 2": 0.0,
      "ICE Threat Level 3": 0.0,
      "No ICE Threat Level": 23.0,
      "latitude": 36.0684989,
      "longitude": -79.4030356
    },
    {
      "Name": "ALLEGANY COUNTY JAIL",
      "Address": "4884 STATE ROUTE 19",
      "City": "BELMONT",
      "State": "NY",
      "Zip": "14813",
      "Male Crim": 0.0,
      "Male Non-Crim": 1.0,
      "Female Crim": 0.0,
      "Female Non-Crim": 4.0,
      "ICE Threat Level 1": 0.0,
      "ICE Threat Level 2": 0.0,
      "ICE Threat Level 3": 0.0,
      "No ICE Threat Level": 5.0,
      "latitude": 42.212952098118315,
      "longitude": -78.01655374441145
    },
    {
      "Name": "ANCHORAGE CORRECTIONAL COMPLEX",
      "Address": "1400 E. 4TH AVE",
      "City": "ANCHORAGE",
      "State": "AK",
      "Zip": "99501",
      "Male Crim": 2.0,
      "Male Non-Crim": 2.0,
      "Female Crim": 0.0,
      "Female Non-Crim": 0.0,
      "ICE Threat Level 1": 0.0,
      "ICE Threat Level 2": 0.0,
      "ICE Threat Level 3": 0.0,
      "No ICE Threat Level": 3.0,
      "latitude": 61.2183804,
      "longitude": -149.857649
    },
    {
      "Name": "ALLEN PARISH PUBLIC SAFETY COMPLEX",
      "Address": "7340 HIGHWAY 26 WEST",
      "City": "OBERLIN",
      "State": "LA",
      "Zip": "70655",
      "Male Crim": 52.0,
      "Male Non-Crim": 122.0,
      "Female Crim": 0.0,
      "Female Non-Crim": 0.0,
      "ICE Threat Level 1": 14.0,
      "ICE Threat Level 2": 11.0,
      "ICE Threat Level 3": 3.0,
      "No ICE Threat Level": 146.0,
      "latitude": 30.624697320076855,
      "longitude": -92.78388873123045
    },
    {
      "Name": "BAKER COUNTY SHERIFF DEPT.",
      "Address": "1 SHERIFF OFFICE DRIVE",
      "City": "MACCLENNY",
      "State": "FL",
      "Zip": "32063",
      "Male Crim": 146.0,
      "Male Non-Crim": 59.0,
      "Female Crim": 25.0,
      "Female Non-Crim": 28.0,
      "ICE Threat Level 1": 25.0,
      "ICE Threat Level 2": 13.0,
      "ICE Threat Level 3": 15.0,
      "No ICE Threat Level": 205.0,
      "latitude": 30.296199564670268,
      "longitude": -82.12165470055466
    },
    {
      "Name": "SOUTH LOUISIANA ICE PROCESSING CENTER",
      "Address": "3843 STAGG AVENUE",
      "City": "BASILE",
      "State": "LA",
      "Zip": "70515",
      "Male Crim": 4.0,
      "Male Non-Crim": 5.0,
      "Female Crim": 135.0,
      "Female Non-Crim": 736.0,
      "ICE Threat Level 1": 54.0,
      "ICE Threat Level 2": 30.0,
      "ICE Threat Level 3": 29.0,
      "No ICE Threat Level": 767.0,
      "latitude": 30.4866896,
      "longitude": -92.5818666
    },
    {
      "Name": "BLUEBONNET DETENTION FACILITY",
      "Address": "400 2ND STREET",
      "City": "ANSON",
      "State": "TX",
      "Zip": "79501",
      "Male Crim": 344.0,
      "Male Non-Crim": 538.0,
      "Female Crim": 14.0,
      "Female Non-Crim": 60.0,
      "ICE Threat Level 1": 67.0,
      "ICE Threat Level 2": 47.0,
      "ICE Threat Level 3": 69.0,
      "No ICE Threat Level": 774.0,
      "latitude": 32.7667663,
      "longitude": -99.8888312
    },
    {
      "Name": "BOONE COUNTY JAIL",
      "Address": "3020 CONRAD LANE",
      "City": "BURLINGTON",
      "State": "KY",
      "Zip": "41005",
      "Male Crim": 114.0,
      "Male Non-Crim": 45.0,
      "Female Crim": 4.0,
      "Female Non-Crim": 1.0,
      "ICE Threat Level 1": 34.0,
      "ICE Threat Level 2": 15.0,
      "ICE Threat Level 3": 10.0,
      "No ICE Threat Level": 105.0,
      "latitude": 39.0373257,
      "longitude": -84.7236669
    },
    {
      "Name": "ATLANTA US PEN",
      "Address": "601 MCDONOUGH BOULEVARD, SE",
      "City": "ATLANTA",
      "State": "GA",
      "Zip": "30315",
      "Male Crim": 28.0,
      "Male Non-Crim": 54.0,
      "Female Crim": 0.0,
      "Female Non-Crim": 0.0,
      "ICE Threat Level 1": 1.0,
      "ICE Threat Level 2": 1.0,
      "ICE Threat Level 3": 2.0,
      "No ICE Threat Level": 79.0,
      "latitude": 33.71204679097549,
      "longitude": -84.37111710232016
    },
    {
      "Name": "BERLIN FED. CORR. INST.",
      "Address": "1 SUCCESS LOOP DR.",
      "City": "BERLIN",
      "State": "NH",
      "Zip": "03570",
      "Male Crim": 28.0,
      "Male Non-Crim": 90.0,
      "Female Crim": 0.0,
      "Female Non-Crim": 0.0,
      "ICE Threat Level 1": 8.0,
      "ICE Threat Level 2": 2.0,
      "ICE Threat Level 3": 6.0,
      "No ICE Threat Level": 102.0,
      "latitude": 44.519,
      "longitude": -71.13716
    },
    {
      "Name": "BROOKLYN MDC",
      "Address": "100 29TH STREET",
      "City": "BROOKLYN",
      "State": "NY",
      "Zip": "11232",
      "Male Crim": 3.0,
      "Male Non-Crim": 10.0,
      "Female Crim": 0.0,
      "Female Non-Crim": 0.0,
      "ICE Threat Level 1": 0.0,
      "ICE Threat Level 2": 1.0,
      "ICE Threat Level 3": 2.0,
      "No ICE Threat Level": 11.0,
      "latitude": 40.6597866,
      "longitude": -74.0029582
    },
    {
      "Name": "HONOLULU FEDERAL DETENTION CENTER",
      "Address": "351 ELLIOTT ST.",
      "City": "HONOLULU",
      "State": "HI",
      "Zip": "96819",
      "Male Crim": 21.0,
      "Male Non-Crim": 17.0,
      "Female Crim": 1.0,
      "Female Non-Crim": 5.0,
      "ICE Threat Level 1": 11.0,
      "ICE Threat Level 2": 5.0,
      "ICE Threat Level 3": 3.0,
      "No ICE Threat Level": 24.0,
      "latitude": 21.3332122,
      "longitude": -157.9283542
    },
    {
      "Name": "LEAVENWORTH US PENITENTIARY",
      "Address": "1300 METROPOLITAN AVE.",
      "City": "LEAVENWORTH",
      "State": "KS",
      "Zip": "66048",
      "Male Crim": 24.0,
      "Male Non-Crim": 12.0,
      "Female Crim": 0.0,
      "Female Non-Crim": 0.0,
      "ICE Threat Level 1": 9.0,
      "ICE Threat Level 2": 2.0,
      "ICE Threat Level 3": 2.0,
      "No ICE Threat Level": 23.0,
      "latitude": 39.3303867,
      "longitude": -94.9357354
    },
    {
      "Name": "MIAMI FEDERAL DETENTION",
      "Address": "33 NE 4 STREET",
      "City": "MIAMI",
      "State": "FL",
      "Zip": "33132",
      "Male Crim": 113.0,
      "Male Non-Crim": 97.0,
      "Female Crim": 0.0,
      "Female Non-Crim": 0.0,
      "ICE Threat Level 1": 27.0,
      "ICE Threat Level 2": 11.0,
      "ICE Threat Level 3": 10.0,
      "No ICE Threat Level": 162.0,
      "latitude": 25.778835871616227,
      "longitude": -80.19334441968891
    },
    {
      "Name": "FDC PHILADELPHIA",
      "Address": "700 ARCH ST.",
      "City": "PHILADELPHIA",
      "State": "PA",
      "Zip": "19106",
      "Male Crim": 22.0,
      "Male Non-Crim": 35.0,
      "Female Crim": 0.0,
      "Female Non-Crim": 0.0,
      "ICE Threat Level 1": 2.0,
      "ICE Threat Level 2": 1.0,
      "ICE Threat Level 3": 1.0,
      "No ICE Threat Level": 53.0,
      "latitude": 39.9525541,
      "longitude": -75.1520216
    },
    {
      "Name": "BOURBON CO DET CENTER",
      "Address": "BOURBON CO COURTHOUSE, MAIN STREET",
      "City": "PARIS",
      "State": "KY",
      "Zip": "40361",
      "Male Crim": 1.0,
      "Male Non-Crim": 1.0,
      "Female Crim": 0.0,
      "Female Non-Crim": 0.0,
      "ICE Threat Level 1": 0.0,
      "ICE Threat Level 2": 0.0,
      "ICE Threat Level 3": 0.0,
      "No ICE Threat Level": 2.0,
      "latitude": null,
      "longitude": null
    },
    {
      "Name": "BROOME COUNTY JAIL",
      "Address": "897 FRONT STREET",
      "City": "BINGHAMTON",
      "State": "NY",
      "Zip": "13905",
      "Male Crim": 1.0,
      "Male Non-Crim": 5.0,
      "Female Crim": 0.0,
      "Female Non-Crim": 0.0,
      "ICE Threat Level 1": 0.0,
      "ICE Threat Level 2": 0.0,
      "ICE Threat Level 3": 0.0,
      "No ICE Threat Level": 6.0,
      "latitude": 42.1155155,
      "longitude": -75.9082511
    },
    {
      "Name": "BUFFALO SERVICE PROCESSING CENTER",
      "Address": "4250 FEDERAL DRIVE",
      "City": "BATAVIA",
      "State": "NY",
      "Zip": "14020",
      "Male Crim": 252.0,
      "Male Non-Crim": 368.0,
      "Female Crim": 0.0,
      "Female Non-Crim": 0.0,
      "ICE Threat Level 1": 86.0,
      "ICE Threat Level 2": 18.0,
      "ICE Threat Level 3": 18.0,
      "No ICE Threat Level": 497.0,
      "latitude": 43.0203104,
      "longitude": -78.2024802
    },
    {
      "Name": "BURLEIGH COUNTY",
      "Address": "P.O. BOX 1416",
      "City": "BISMARCK",
      "State": "ND",
      "Zip": "58502",
      "Male Crim": 1.0,
      "Male Non-Crim": 3.0,
      "Female Crim": 0.0,
      "Female Non-Crim": 1.0,
      "ICE Threat Level 1": 0.0,
      "ICE Threat Level 2": 0.0,
      "ICE Threat Level 3": 0.0,
      "No ICE Threat Level": 4.0,
      "latitude": 46.11458,
      "longitude": -100.59055
    },
    {
      "Name": "BUTLER COUNTY JAIL",
      "Address": "705 HANOVER STREET",
      "City": "HAMILTON",
      "State": "OH",
      "Zip": "45011",
      "Male Crim": 32.0,
      "Male Non-Crim": 90.0,
      "Female Crim": 2.0,
      "Female Non-Crim": 11.0,
      "ICE Threat Level 1": 5.0,
      "ICE Threat Level 2": 5.0,
      "ICE Threat Level 3": 9.0,
      "No ICE Threat Level": 117.0,
      "latitude": 39.3881265,
      "longitude": -84.55588
    },
    {
      "Name": "MESA VERDE ICE PROCESSING CENTER",
      "Address": "425 GOLDEN STATE AVE",
      "City": "BAKERSFIELD",
      "State": "CA",
      "Zip": "93301",
      "Male Crim": 63.0,
      "Male Non-Crim": 27.0,
      "Female Crim": 2.0,
      "Female Non-Crim": 12.0,
      "ICE Threat Level 1": 34.0,
      "ICE Threat Level 2": 5.0,
      "ICE Threat Level 3": 4.0,
      "No ICE Threat Level": 61.0,
      "latitude": 35.380713,
      "longitude": -119.0060804
    },
    {
      "Name": "DESERT VIEW ANNEX",
      "Address": "10450 RANCHO ROAD",
      "City": "ADELANTO",
      "State": "CA",
      "Zip": "92301",
      "Male Crim": 134.0,
      "Male Non-Crim": 284.0,
      "Female Crim": 0.0,
      "Female Non-Crim": 1.0,
      "ICE Threat Level 1": 13.0,
      "ICE Threat Level 2": 7.0,
      "ICE Threat Level 3": 11.0,
      "No ICE Threat Level": 387.0,
      "latitude": 34.5599404,
      "longitude": -117.4372813
    },
    {
      "Name": "CALHOUN COUNTY CORRECTIONAL CENTER",
      "Address": "185 EAST MICHIGAN AVENUE",
      "City": "BATTLE CREEK",
      "State": "MI",
      "Zip": "49014",
      "Male Crim": 48.0,
      "Male Non-Crim": 91.0,
      "Female Crim": 4.0,
      "Female Non-Crim": 14.0,
      "ICE Threat Level 1": 10.0,
      "ICE Threat Level 2": 5.0,
      "ICE Threat Level 3": 12.0,
      "No ICE Threat Level": 129.0,
      "latitude": 42.3166739,
      "longitude": -85.1758915
    },
    {
      "Name": "CAROLINE DETENTION FACILITY",
      "Address": "11093 S.W. LEWIS MEMORIAL DRIVE",
      "City": "BOWLING GREEN",
      "State": "VA",
      "Zip": "22427",
      "Male Crim": 129.0,
      "Male Non-Crim": 155.0,
      "Female Crim": 8.0,
      "Female Non-Crim": 6.0,
      "ICE Threat Level 1": 33.0,
      "ICE Threat Level 2": 12.0,
      "ICE Threat Level 3": 13.0,
      "No ICE Threat Level": 239.0,
      "latitude": 38.111865502490836,
      "longitude": -77.26723215987357
    },
    {
      "Name": "CASS COUNTY JAIL",
      "Address": "336 MAIN STREET",
      "City": "PLATTSMOUTH",
      "State": "NE",
      "Zip": "68048",
      "Male Crim": 4.0,
      "Male Non-Crim": 1.0,
      "Female Crim": 0.0,
      "Female Non-Crim": 1.0,
      "ICE Threat Level 1": 1.0,
      "ICE Threat Level 2": 1.0,
      "ICE Threat Level 3": 1.0,
      "No ICE Threat Level": 4.0,
      "latitude": 41.0112468,
      "longitude": -95.8831012
    },
    {
      "Name": "COASTAL BEND DETENTION FACILITY",
      "Address": "4909 FM 2826",
      "City": "ROBSTOWN",
      "State": "TX",
      "Zip": "78380",
      "Male Crim": 6.0,
      "Male Non-Crim": 17.0,
      "Female Crim": 0.0,
      "Female Non-Crim": 2.0,
      "ICE Threat Level 1": 1.0,
      "ICE Threat Level 2": 1.0,
      "ICE Threat Level 3": 2.0,
      "No ICE Threat Level": 22.0,
      "latitude": 27.737232588266924,
      "longitude": -97.75467600061113
    },
    {
      "Name": "CCA, FLORENCE CORRECTIONAL CENTER",
      "Address": "1100 BOWLING ROAD",
      "City": "FLORENCE",
      "State": "AZ",
      "Zip": "85232",
      "Male Crim": 277.0,
      "Male Non-Crim": 174.0,
      "Female Crim": 0.0,
      "Female Non-Crim": 0.0,
      "ICE Threat Level 1": 49.0,
      "ICE Threat Level 2": 20.0,
      "ICE Threat Level 3": 24.0,
      "No ICE Threat Level": 358.0,
      "latitude": 33.0438338,
      "longitude": -111.371793
    },
    {
      "Name": "T DON HUTTO DETENTION CENTER",
      "Address": "1001 WELCH STREET",
      "City": "TAYLOR",
      "State": "TX",
      "Zip": "76574",
      "Male Crim": 235.0,
      "Male Non-Crim": 194.0,
      "Female Crim": 0.0,
      "Female Non-Crim": 0.0,
      "ICE Threat Level 1": 67.0,
      "ICE Threat Level 2": 52.0,
      "ICE Threat Level 3": 95.0,
      "No ICE Threat Level": 215.0,
      "latitude": 30.5647288,
      "longitude": -97.4194342
    },
    {
      "Name": "NORTHEAST OHIO CORRECTIONAL CENTER",
      "Address": "2240 HUBBARD ROAD",
      "City": "YOUNGSTOWN",
      "State": "OH",
      "Zip": "44505",
      "Male Crim": 32.0,
      "Male Non-Crim": 77.0,
      "Female Crim": 0.0,
      "Female Non-Crim": 0.0,
      "ICE Threat Level 1": 7.0,
      "ICE Threat Level 2": 4.0,
      "ICE Threat Level 3": 4.0,
      "No ICE Threat Level": 94.0,
      "latitude": 41.1288515,
      "longitude": -80.6267877
    },
    {
      "Name": "OTAY MESA DETENTION CENTER",
      "Address": "7488 CALZADA DE LA FUENTE",
      "City": "SAN DIEGO",
      "State": "CA",
      "Zip": "92154",
      "Male Crim": 195.0,
      "Male Non-Crim": 911.0,
      "Female Crim": 18.0,
      "Female Non-Crim": 243.0,
      "ICE Threat Level 1": 75.0,
      "ICE Threat Level 2": 32.0,
      "ICE Threat Level 3": 34.0,
      "No ICE Threat Level": 1225.0,
      "latitude": 32.5765248,
      "longitude": -116.9154777
    },
    {
      "Name": "CHASE COUNTY JAIL",
      "Address": "301 SOUTH WALNUT STREET",
      "City": "COTTONWOOD FALL",
      "State": "KS",
      "Zip": "66845",
      "Male Crim": 53.0,
      "Male Non-Crim": 44.0,
      "Female Crim": 4.0,
      "Female Non-Crim": 5.0,
      "ICE Threat Level 1": 9.0,
      "ICE Threat Level 2": 5.0,
      "ICE Threat Level 3": 6.0,
      "No ICE Threat Level": 85.0,
      "latitude": 38.36801388495829,
      "longitude": -96.53868750219544
    },
    {
      "Name": "CHIPPEWA COUNTY SSM",
      "Address": "325 COURT STREET",
      "City": "SAULT STE MARIE",
      "State": "MI",
      "Zip": "49783",
      "Male Crim": 11.0,
      "Male Non-Crim": 22.0,
      "Female Crim": 0.0,
      "Female Non-Crim": 0.0,
      "ICE Threat Level 1": 3.0,
      "ICE Threat Level 2": 1.0,
      "ICE Threat Level 3": 1.0,
      "No ICE Threat Level": 27.0,
      "latitude": 46.4977347,
      "longitude": -84.3459656
    },
    {
      "Name": "CIBOLA COUNTY CORRECTIONAL CENTER",
      "Address": "2000 CIBOLA LOOP",
      "City": "MILAN",
      "State": "NM",
      "Zip": "87021",
      "Male Crim": 36.0,
      "Male Non-Crim": 187.0,
      "Female Crim": 0.0,
      "Female Non-Crim": 0.0,
      "ICE Threat Level 1": 6.0,
      "ICE Threat Level 2": 3.0,
      "ICE Threat Level 3": 5.0,
      "No ICE Threat Level": 209.0,
      "latitude": 35.18004057943829,
      "longitude": -107.9072294599532
    },
    {
      "Name": "CLARK COUNTY JAIL (IN)",
      "Address": "501 EAST COURT AVE.",
      "City": "JEFFERSONVILLE",
      "State": "IN",
      "Zip": "47130",
      "Male Crim": 3.0,
      "Male Non-Crim": 7.0,
      "Female Crim": 7.0,
      "Female Non-Crim": 12.0,
      "ICE Threat Level 1": 2.0,
      "ICE Threat Level 2": 2.0,
      "ICE Threat Level 3": 2.0,
      "No ICE Threat Level": 23.0,
      "latitude": 38.277682,
      "longitude": -85.7375976
    },
    {
      "Name": "CLAY COUNTY JUSTICE CENTER",
      "Address": "611 EAST JACKSON STREET",
      "City": "BRAZIL",
      "State": "IN",
      "Zip": "47834",
      "Male Crim": 135.0,
      "Male Non-Crim": 107.0,
      "Female Crim": 8.0,
      "Female Non-Crim": 6.0,
      "ICE Threat Level 1": 25.0,
      "ICE Threat Level 2": 7.0,
      "ICE Threat Level 3": 12.0,
      "No ICE Threat Level": 211.0,
      "latitude": 39.5236693,
      "longitude": -87.1191065
    },
    {
      "Name": "CLINTON COUNTY JAIL",
      "Address": "25 MCCARTHY DRIVE",
      "City": "PLATTSBURGH",
      "State": "NY",
      "Zip": "12901",
      "Male Crim": 0.0,
      "Male Non-Crim": 1.0,
      "Female Crim": 1.0,
      "Female Non-Crim": 3.0,
      "ICE Threat Level 1": 0.0,
      "ICE Threat Level 2": 0.0,
      "ICE Threat Level 3": 1.0,
      "No ICE Threat Level": 4.0,
      "latitude": 44.7204627,
      "longitude": -73.467472
    },
    {
      "Name": "CLINTON COUNTY JAIL",
      "Address": "301 E WALNUT STREET",
      "City": "FRANKFORT",
      "State": "IN",
      "Zip": "46041",
      "Male Crim": 3.0,
      "Male Non-Crim": 3.0,
      "Female Crim": 0.0,
      "Female Non-Crim": 1.0,
      "ICE Threat Level 1": 1.0,
      "ICE Threat Level 2": 1.0,
      "ICE Threat Level 3": 0.0,
      "No ICE Threat Level": 5.0,
      "latitude": 40.2791153,
      "longitude": -86.5087576
    },
    {
      "Name": "CLINTON COUNTY CORRECTIONAL FACILITY",
      "Address": "58 PINE MOUNTAIN RD.",
      "City": "MCELHATTAN",
      "State": "PA",
      "Zip": "17748",
      "Male Crim": 67.0,
      "Male Non-Crim": 10.0,
      "Female Crim": 4.0,
      "Female Non-Crim": 3.0,
      "ICE Threat Level 1": 24.0,
      "ICE Threat Level 2": 6.0,
      "ICE Threat Level 3": 2.0,
      "No ICE Threat Level": 51.0,
      "latitude": 41.1511182,
      "longitude": -77.3493663
    },
    {
      "Name": "COLLIER COUNTY NAPLES JAIL CENTER",
      "Address": "3347 TAMIAMI TRAIL E",
      "City": "NAPLES",
      "State": "FL",
      "Zip": "34112",
      "Male Crim": 8.0,
      "Male Non-Crim": 7.0,
      "Female Crim": 0.0,
      "Female Non-Crim": 0.0,
      "ICE Threat Level 1": 0.0,
      "ICE Threat Level 2": 0.0,
      "ICE Threat Level 3": 0.0,
      "No ICE Threat Level": 14.0,
      "latitude": 26.1257654,
      "longitude": -81.7651214
    },
    {
      "Name": "CAMPBELL CO DET CTR",
      "Address": "601 CENTRAL AVE",
      "City": "NEWPORT",
      "State": "KY",
      "Zip": "41071",
      "Male Crim": 16.0,
      "Male Non-Crim": 19.0,
      "Female Crim": 0.0,
      "Female Non-Crim": 5.0,
      "ICE Threat Level 1": 2.0,
      "ICE Threat Level 2": 4.0,
      "ICE Threat Level 3": 3.0,
      "No ICE Threat Level": 30.0,
      "latitude": 39.0887186,
      "longitude": -84.4969756
    },
    {
      "Name": "NORTHWEST ICE PROCESSSING CENTER",
      "Address": "1623 E. J STREET",
      "City": "TACOMA",
      "State": "WA",
      "Zip": "98421",
      "Male Crim": 398.0,
      "Male Non-Crim": 617.0,
      "Female Crim": 45.0,
      "Female Non-Crim": 77.0,
      "ICE Threat Level 1": 150.0,
      "ICE Threat Level 2": 39.0,
      "ICE Threat Level 3": 30.0,
      "No ICE Threat Level": 918.0,
      "latitude": 47.2490423,
      "longitude": -122.4223947
    },
    {
      "Name": "CUMBERLAND COUNTY JAIL",
      "Address": "50 COUNTY WAY",
      "City": "PORTLAND",
      "State": "ME",
      "Zip": "04102",
      "Male Crim": 22.0,
      "Male Non-Crim": 21.0,
      "Female Crim": 4.0,
      "Female Non-Crim": 9.0,
      "ICE Threat Level 1": 9.0,
      "ICE Threat Level 2": 1.0,
      "ICE Threat Level 3": 4.0,
      "No ICE Threat Level": 42.0,
      "latitude": 43.6508623,
      "longitude": -70.2816197
    },
    {
      "Name": "DAKOTA COUNTY JAIL",
      "Address": "1601 BROADWAY",
      "City": "DAKOTA CITY",
      "State": "NE",
      "Zip": "68731",
      "Male Crim": 13.0,
      "Male Non-Crim": 7.0,
      "Female Crim": 1.0,
      "Female Non-Crim": 2.0,
      "ICE Threat Level 1": 2.0,
      "ICE Threat Level 2": 1.0,
      "ICE Threat Level 3": 1.0,
      "No ICE Threat Level": 18.0,
      "latitude": 42.416218260076164,
      "longitude": -96.4198282400598
    },
    {
      "Name": "DALLAS COUNTY JAIL - LEW STERRETT JUSTICE CENTER",
      "Address": "111 WEST COMMERCE STREET",
      "City": "DALLAS",
      "State": "TX",
      "Zip": "75202",
      "Male Crim": 3.0,
      "Male Non-Crim": 4.0,
      "Female Crim": 0.0,
      "Female Non-Crim": 0.0,
      "ICE Threat Level 1": 0.0,
      "ICE Threat Level 2": 0.0,
      "ICE Threat Level 3": 0.0,
      "No ICE Threat Level": 8.0,
      "latitude": 32.7746483,
      "longitude": -96.8243069
    },
    {
      "Name": "DENVER CONTRACT DETENTION FACILITY",
      "Address": "3130 OAKLAND ST",
      "City": "AURORA",
      "State": "CO",
      "Zip": "80010",
      "Male Crim": 323.0,
      "Male Non-Crim": 777.0,
      "Female Crim": 20.0,
      "Female Non-Crim": 53.0,
      "ICE Threat Level 1": 99.0,
      "ICE Threat Level 2": 46.0,
      "ICE Threat Level 3": 51.0,
      "No ICE Threat Level": 977.0,
      "latitude": 39.760875,
      "longitude": -104.849087
    },
    {
      "Name": "DELANEY HALL DETENTION FACILITY",
      "Address": "451 DOREMUS AVENUE",
      "City": "NEWARK",
      "State": "NJ",
      "Zip": "07105",
      "Male Crim": 24.0,
      "Male Non-Crim": 124.0,
      "Female Crim": 1.0,
      "Female Non-Crim": 13.0,
      "ICE Threat Level 1": 1.0,
      "ICE Threat Level 2": 2.0,
      "ICE Threat Level 3": 6.0,
      "No ICE Threat Level": 154.0,
      "latitude": 40.7187782,
      "longitude": -74.126752
    },
    {
      "Name": "DODGE COUNTY JAIL",
      "Address": "215 WEST CENTRAL STREET",
      "City": "JUNEAU",
      "State": "WI",
      "Zip": "53039",
      "Male Crim": 81.0,
      "Male Non-Crim": 26.0,
      "Female Crim": 0.0,
      "Female Non-Crim": 1.0,
      "ICE Threat Level 1": 17.0,
      "ICE Threat Level 2": 9.0,
      "ICE Threat Level 3": 5.0,
      "No ICE Threat Level": 78.0,
      "latitude": 43.40855649830141,
      "longitude": -88.70504618075388
    },
    {
      "Name": "DOUGLAS COUNTY",
      "Address": "1409 HAMMOND AVENUE",
      "City": "SUPERIOR",
      "State": "WI",
      "Zip": "54880",
      "Male Crim": 0.0,
      "Male Non-Crim": 1.0,
      "Female Crim": 0.0,
      "Female Non-Crim": 0.0,
      "ICE Threat Level 1": 0.0,
      "ICE Threat Level 2": 0.0,
      "ICE Threat Level 3": 0.0,
      "No ICE Threat Level": 1.0,
      "latitude": 46.7214838,
      "longitude": -92.0985348
    },
    {
      "Name": "ELOY FEDERAL CONTRACT FACILITY",
      "Address": "1705 EAST HANNA RD.",
      "City": "ELOY",
      "State": "AZ",
      "Zip": "85131",
      "Male Crim": 191.0,
      "Male Non-Crim": 559.0,
      "Female Crim": 98.0,
      "Female Non-Crim": 547.0,
      "ICE Threat Level 1": 111.0,
      "ICE Threat Level 2": 54.0,
      "ICE Threat Level 3": 83.0,
      "No ICE Threat Level": 1146.0,
      "latitude": 32.8176772,
      "longitude": -111.51927
    },
    {
      "Name": "EDEN DETENTION CTR",
      "Address": "702 E BROADWAY ST",
      "City": "EDEN",
      "State": "TX",
      "Zip": "76837",
      "Male Crim": 15.0,
      "Male Non-Crim": 100.0,
      "Female Crim": 0.0,
      "Female Non-Crim": 0.0,
      "ICE Threat Level 1": 2.0,
      "ICE Threat Level 2": 1.0,
      "ICE Threat Level 3": 2.0,
      "No ICE Threat Level": 110.0,
      "latitude": 31.2175083,
      "longitude": -99.8339599
    },
    {
      "Name": "EAST HIDALGO DETENTION CENTER",
      "Address": "1330 HIGHWAY 107",
      "City": "LA VILLA",
      "State": "TX",
      "Zip": "78562",
      "Male Crim": 5.0,
      "Male Non-Crim": 5.0,
      "Female Crim": 0.0,
      "Female Non-Crim": 1.0,
      "ICE Threat Level 1": 2.0,
      "ICE Threat Level 2": 1.0,
      "ICE Threat Level 3": 1.0,
      "No ICE Threat Level": 6.0,
      "latitude": 26.295748678577546,
      "longitude": -97.91819101612627
    },
    {
      "Name": "ELMORE COUNTY JAIL",
      "Address": "2255 E. 8TH NORTH",
      "City": "MOUNTAIN HOME",
      "State": "ID",
      "Zip": "83647",
      "Male Crim": 1.0,
      "Male Non-Crim": 0.0,
      "Female Crim": 0.0,
      "Female Non-Crim": 0.0,
      "ICE Threat Level 1": 0.0,
      "ICE Threat Level 2": 0.0,
      "ICE Threat Level 3": 0.0,
      "No ICE Threat Level": 1.0,
      "latitude": 43.1363262,
      "longitude": -115.6730371
    },
    {
      "Name": "EL VALLE DETENTION FACILITY",
      "Address": "1800 INDUSTRIAL DRIVE",
      "City": "RAYMONDVILLE",
      "State": "TX",
      "Zip": "78580",
      "Male Crim": 148.0,
      "Male Non-Crim": 287.0,
      "Female Crim": 26.0,
      "Female Non-Crim": 382.0,
      "ICE Threat Level 1": 37.0,
      "ICE Threat Level 2": 23.0,
      "ICE Threat Level 3": 26.0,
      "No ICE Threat Level": 757.0,
      "latitude": 26.467581958871495,
      "longitude": -97.76228788899171
    },
    {
      "Name": "ELIZABETH CONTRACT DETENTION FACILITY",
      "Address": "625 EVANS STREET",
      "City": "ELIZABETH",
      "State": "NJ",
      "Zip": "07201",
      "Male Crim": 64.0,
      "Male Non-Crim": 212.0,
      "Female Crim": 2.0,
      "Female Non-Crim": 17.0,
      "ICE Threat Level 1": 5.0,
      "ICE Threat Level 2": 9.0,
      "ICE Threat Level 3": 13.0,
      "No ICE Threat Level": 268.0,
      "latitude": 40.6662036,
      "longitude": -74.1896718
    },
    {
      "Name": "EL PASO SERVICE PROCESSING CENTER",
      "Address": "8915 MONTANA AVE.",
      "City": "EL PASO",
      "State": "TX",
      "Zip": "79925",
      "Male Crim": 292.0,
      "Male Non-Crim": 294.0,
      "Female Crim": 68.0,
      "Female Non-Crim": 156.0,
      "ICE Threat Level 1": 85.0,
      "ICE Threat Level 2": 63.0,
      "ICE Threat Level 3": 93.0,
      "No ICE Threat Level": 568.0,
      "latitude": 31.7934217,
      "longitude": -106.3691494
    },
    {
      "Name": "EL PASO SOFT SIDED FACILITY",
      "Address": "12501 GATEWAY BLVD S",
      "City": "EL PASO",
      "State": "TX",
      "Zip": "79934",
      "Male Crim": 47.0,
      "Male Non-Crim": 117.0,
      "Female Crim": 3.0,
      "Female Non-Crim": 11.0,
      "ICE Threat Level 1": 7.0,
      "ICE Threat Level 2": 8.0,
      "ICE Threat Level 3": 15.0,
      "No ICE Threat Level": 148.0,
      "latitude": 31.9432041,
      "longitude": -106.4039873
    },
    {
      "Name": "ERIE COUNTY JAIL",
      "Address": "DEPARTMENT OF CORRECTIONS 1618 ASH STREET",
      "City": "ERIE",
      "State": "PA",
      "Zip": "16503",
      "Male Crim": 2.0,
      "Male Non-Crim": 10.0,
      "Female Crim": 0.0,
      "Female Non-Crim": 0.0,
      "ICE Threat Level 1": 0.0,
      "ICE Threat Level 2": 0.0,
      "ICE Threat Level 3": 0.0,
      "No ICE Threat Level": 12.0,
      "latitude": 42.12425044860252,
      "longitude": -80.06653529654119
    },
    {
      "Name": "ETOWAH COUNTY JAIL (ALABAMA)",
      "Address": "827 FORREST AVENUE",
      "City": "GADSDEN",
      "State": "AL",
      "Zip": "35901",
      "Male Crim": 12.0,
      "Male Non-Crim": 18.0,
      "Female Crim": 1.0,
      "Female Non-Crim": 3.0,
      "ICE Threat Level 1": 0.0,
      "ICE Threat Level 2": 0.0,
      "ICE Threat Level 3": 0.0,
      "No ICE Threat Level": 34.0,
      "latitude": 34.0161208,
      "longitude": -86.012499
    },
    {
      "Name": "FAYETTE COUNTY DETENTION CENTER",
      "Address": "600 OLD FRANKFORD CR",
      "City": "LEXINGTON",
      "State": "KY",
      "Zip": "40510",
      "Male Crim": 1.0,
      "Male Non-Crim": 1.0,
      "Female Crim": 0.0,
      "Female Non-Crim": 0.0,
      "ICE Threat Level 1": 0.0,
      "ICE Threat Level 2": 0.0,
      "ICE Threat Level 3": 0.0,
      "No ICE Threat Level": 1.0,
      "latitude": 38.06555828124883,
      "longitude": -84.54565987336858
    },
    {
      "Name": "FOLKSTON ANNEX IPC",
      "Address": "3424 HIGHWAY 252 EAST",
      "City": "FOLKSTON",
      "State": "GA",
      "Zip": "31537",
      "Male Crim": 72.0,
      "Male Non-Crim": 214.0,
      "Female Crim": 0.0,
      "Female Non-Crim": 0.0,
      "ICE Threat Level 1": 6.0,
      "ICE Threat Level 2": 6.0,
      "ICE Threat Level 3": 10.0,
      "No ICE Threat Level": 264.0,
      "latitude": 30.875036792616953,
      "longitude": -81.98072458889538
    },
    {
      "Name": "FOLKSTON MAIN IPC",
      "Address": "3026 HWY 252 EAST",
      "City": "FOLKSTON",
      "State": "GA",
      "Zip": "31537",
      "Male Crim": 191.0,
      "Male Non-Crim": 480.0,
      "Female Crim": 0.0,
      "Female Non-Crim": 0.0,
      "ICE Threat Level 1": 17.0,
      "ICE Threat Level 2": 17.0,
      "ICE Threat Level 3": 26.0,
      "No ICE Threat Level": 611.0,
      "latitude": 30.876482215607357,
      "longitude": -81.9779839158829
    },
    {
      "Name": "FLORENCE SERVICE PROCESSING CENTER",
      "Address": "3250 NORTH PINAL PARKWAY",
      "City": "FLORENCE",
      "State": "AZ",
      "Zip": "85132",
      "Male Crim": 93.0,
      "Male Non-Crim": 291.0,
      "Female Crim": 0.0,
      "Female Non-Crim": 0.0,
      "ICE Threat Level 1": 2.0,
      "ICE Threat Level 2": 4.0,
      "ICE Threat Level 3": 30.0,
      "No ICE Threat Level": 348.0,
      "latitude": 33.0630048,
      "longitude": -111.3790857
    },
    {
      "Name": "FLOYD COUNTY JAIL",
      "Address": "2526 NEW CALHOUN HWY",
      "City": "ROME",
      "State": "GA",
      "Zip": "30161",
      "Male Crim": 1.0,
      "Male Non-Crim": 2.0,
      "Female Crim": 0.0,
      "Female Non-Crim": 0.0,
      "ICE Threat Level 1": 0.0,
      "ICE Threat Level 2": 0.0,
      "ICE Threat Level 3": 0.0,
      "No ICE Threat Level": 2.0,
      "latitude": 34.2803637,
      "longitude": -85.1428696
    },
    {
      "Name": "FREEBORN COUNTY ADULT DETENTION CENTER",
      "Address": "411 SOUTH BROADWAY AVENUE",
      "City": "ALBERT LEA",
      "State": "MN",
      "Zip": "56007",
      "Male Crim": 45.0,
      "Male Non-Crim": 36.0,
      "Female Crim": 0.0,
      "Female Non-Crim": 0.0,
      "ICE Threat Level 1": 12.0,
      "ICE Threat Level 2": 4.0,
      "ICE Threat Level 3": 3.0,
      "No ICE Threat Level": 62.0,
      "latitude": 43.6461475,
      "longitude": -93.3680658
    },
    {
      "Name": "PRINCE EDWARD COUNTY (FARMVILLE)",
      "Address": "508 WATERWORKS ROAD",
      "City": "FARMVILLE",
      "State": "VA",
      "Zip": "23901",
      "Male Crim": 293.0,
      "Male Non-Crim": 281.0,
      "Female Crim": 0.0,
      "Female Non-Crim": 0.0,
      "ICE Threat Level 1": 58.0,
      "ICE Threat Level 2": 23.0,
      "ICE Threat Level 3": 30.0,
      "No ICE Threat Level": 463.0,
      "latitude": 37.3193665,
      "longitude": -78.4382314
    },
    {
      "Name": "FLORENCE STAGING FACILITY",
      "Address": "3250 NORTH PINAL PARKWAY",
      "City": "FLORENCE",
      "State": "AZ",
      "Zip": "85232",
      "Male Crim": 67.0,
      "Male Non-Crim": 111.0,
      "Female Crim": 3.0,
      "Female Non-Crim": 5.0,
      "ICE Threat Level 1": 4.0,
      "ICE Threat Level 2": 3.0,
      "ICE Threat Level 3": 5.0,
      "No ICE Threat Level": 174.0,
      "latitude": 33.0640298,
      "longitude": -111.3825565
    },
    {
      "Name": "GEAUGA COUNTY JAIL",
      "Address": "12450 MERRITT DR",
      "City": "CHARDON",
      "State": "OH",
      "Zip": "44024",
      "Male Crim": 13.0,
      "Male Non-Crim": 20.0,
      "Female Crim": 1.0,
      "Female Non-Crim": 8.0,
      "ICE Threat Level 1": 2.0,
      "ICE Threat Level 2": 2.0,
      "ICE Threat Level 3": 1.0,
      "No ICE Threat Level": 37.0,
      "latitude": 41.504827833000164,
      "longitude": -81.19154084443294
    },
    {
      "Name": "GRAND FORKS COUNTY CORRECTIONAL FACILITY",
      "Address": "1701 NORTH WASHINGTON ST",
      "City": "GRAND FORKS",
      "State": "ND",
      "Zip": "58203",
      "Male Crim": 3.0,
      "Male Non-Crim": 4.0,
      "Female Crim": 0.0,
      "Female Non-Crim": 0.0,
      "ICE Threat Level 1": 0.0,
      "ICE Threat Level 2": 0.0,
      "ICE Threat Level 3": 0.0,
      "No ICE Threat Level": 6.0,
      "latitude": 47.935792,
      "longitude": -97.055851
    },
    {
      "Name": "GLADES COUNTY DETENTION CENTER",
      "Address": "1297 EAST SR 78",
      "City": "MOORE HAVEN",
      "State": "FL",
      "Zip": "33471",
      "Male Crim": 46.0,
      "Male Non-Crim": 52.0,
      "Female Crim": 1.0,
      "Female Non-Crim": 0.0,
      "ICE Threat Level 1": 8.0,
      "ICE Threat Level 2": 6.0,
      "ICE Threat Level 3": 6.0,
      "No ICE Threat Level": 78.0,
      "latitude": 26.83880034675664,
      "longitude": -81.12392113131328
    },
    {
      "Name": "GOLDEN STATE ANNEX",
      "Address": "611 FRONTAGE RD",
      "City": "MCFARLAND",
      "State": "CA",
      "Zip": "93250",
      "Male Crim": 299.0,
      "Male Non-Crim": 294.0,
      "Female Crim": 0.0,
      "Female Non-Crim": 0.0,
      "ICE Threat Level 1": 134.0,
      "ICE Threat Level 2": 24.0,
      "ICE Threat Level 3": 17.0,
      "No ICE Threat Level": 419.0,
      "latitude": 35.667329,
      "longitude": -119.225036
    },
    {
      "Name": "GRAYSON COUNTY JAIL",
      "Address": "320 SHAW STATION ROAD",
      "City": "LEITCHFIELD",
      "State": "KY",
      "Zip": "42754",
      "Male Crim": 5.0,
      "Male Non-Crim": 3.0,
      "Female Crim": 19.0,
      "Female Non-Crim": 34.0,
      "ICE Threat Level 1": 7.0,
      "ICE Threat Level 2": 4.0,
      "ICE Threat Level 3": 4.0,
      "No ICE Threat Level": 46.0,
      "latitude": 37.4890391,
      "longitude": -86.2702303
    },
    {
      "Name": "GREENE COUNTY JAIL",
      "Address": "1199 N HASELTINE RD",
      "City": "SPRINGFIELD",
      "State": "MO",
      "Zip": "65802",
      "Male Crim": 54.0,
      "Male Non-Crim": 63.0,
      "Female Crim": 4.0,
      "Female Non-Crim": 9.0,
      "ICE Threat Level 1": 7.0,
      "ICE Threat Level 2": 3.0,
      "ICE Threat Level 3": 5.0,
      "No ICE Threat Level": 114.0,
      "latitude": 37.2227197,
      "longitude": -93.385532
    },
    {
      "Name": "JTF CAMP SIX",
      "Address": "AVENUE C PSC 1005 BOX 55",
      "City": "FPO",
      "State": "FL",
      "Zip": "34009",
      "Male Crim": 11.0,
      "Male Non-Crim": 6.0,
      "Female Crim": 0.0,
      "Female Non-Crim": 0.0,
      "ICE Threat Level 1": 7.0,
      "ICE Threat Level 2": 2.0,
      "ICE Threat Level 3": 1.0,
      "No ICE Threat Level": 7.0,
      "latitude": 28.944465,
      "longitude": -82.03363
    },
    {
      "Name": "MIGRANT OPS CENTER MAIN A",
      "Address": "AVENUE C PSC 1005 BOX 55",
      "City": "FPO",
      "State": "FL",
      "Zip": "34009",
      "Male Crim": 1.0,
      "Male Non-Crim": 10.0,
      "Female Crim": 0.0,
      "Female Non-Crim": 0.0,
      "ICE Threat Level 1": 0.0,
      "ICE Threat Level 2": 0.0,
      "ICE Threat Level 3": 1.0,
      "No ICE Threat Level": 10.0,
      "latitude": 28.944465,
      "longitude": -82.03363
    },
    {
      "Name": "DEPARTMENT OF CORRECTIONS HAGATNA",
      "Address": "203 ASPINAL AVE. PO BOX 3236",
      "City": "HAGATNA",
      "State": "GU",
      "Zip": "96910",
      "Male Crim": 4.0,
      "Male Non-Crim": 3.0,
      "Female Crim": 0.0,
      "Female Non-Crim": 0.0,
      "ICE Threat Level 1": 3.0,
      "ICE Threat Level 2": 1.0,
      "ICE Threat Level 3": 0.0,
      "No ICE Threat Level": 3.0,
      "latitude": 13.474342702816681,
      "longitude": 144.75024740290328
    },
    {
      "Name": "HARDIN COUNTY JAIL",
      "Address": "1116 14TH AVENUE",
      "City": "ELDORA",
      "State": "IA",
      "Zip": "50627",
      "Male Crim": 4.0,
      "Male Non-Crim": 4.0,
      "Female Crim": 0.0,
      "Female Non-Crim": 1.0,
      "ICE Threat Level 1": 1.0,
      "ICE Threat Level 2": 0.0,
      "ICE Threat Level 3": 1.0,
      "No ICE Threat Level": 6.0,
      "latitude": 42.3598449,
      "longitude": -93.0973711
    },
    {
      "Name": "HANCOCK COUNTY PUBLIC SAFETY COMPLEX",
      "Address": "8450 HIGHWAY 90",
      "City": "BAY ST. LOUIS",
      "State": "MS",
      "Zip": "39520",
      "Male Crim": 5.0,
      "Male Non-Crim": 15.0,
      "Female Crim": 0.0,
      "Female Non-Crim": 2.0,
      "ICE Threat Level 1": 0.0,
      "ICE Threat Level 2": 0.0,
      "ICE Threat Level 3": 0.0,
      "No ICE Threat Level": 22.0,
      "latitude": 30.303815869350622,
      "longitude": -89.4759421177441
    },
    {
      "Name": "HENDERSON DETENTION",
      "Address": "18 E BASIC ROAD",
      "City": "HENDERSON",
      "State": "NV",
      "Zip": "89015",
      "Male Crim": 34.0,
      "Male Non-Crim": 24.0,
      "Female Crim": 10.0,
      "Female Non-Crim": 8.0,
      "ICE Threat Level 1": 11.0,
      "ICE Threat Level 2": 7.0,
      "ICE Threat Level 3": 6.0,
      "No ICE Threat Level": 52.0,
      "latitude": 36.0308679,
      "longitude": -114.9780973
    },
    {
      "Name": "HOUSTON CONTRACT DETENTION FACILITY",
      "Address": "15850 EXPORT PLAZA DRIVE",
      "City": "HOUSTON",
      "State": "TX",
      "Zip": "77032",
      "Male Crim": 64.0,
      "Male Non-Crim": 432.0,
      "Female Crim": 32.0,
      "Female Non-Crim": 309.0,
      "ICE Threat Level 1": 27.0,
      "ICE Threat Level 2": 26.0,
      "ICE Threat Level 3": 30.0,
      "No ICE Threat Level": 754.0,
      "latitude": 29.9508332,
      "longitude": -95.3121699
    },
    {
      "Name": "HOPKINS COUNTY JAIL",
      "Address": "2250 LAFOON TRAIL",
      "City": "MADISONVILLE",
      "State": "KY",
      "Zip": "42431",
      "Male Crim": 13.0,
      "Male Non-Crim": 19.0,
      "Female Crim": 0.0,
      "Female Non-Crim": 3.0,
      "ICE Threat Level 1": 5.0,
      "ICE Threat Level 2": 2.0,
      "ICE Threat Level 3": 4.0,
      "No ICE Threat Level": 25.0,
      "latitude": 37.337886976243404,
      "longitude": -87.54013518688257
    },
    {
      "Name": "IMPERIAL REGIONAL DETENTION FACILITY",
      "Address": "1572 GATEWAY",
      "City": "CALEXICO",
      "State": "CA",
      "Zip": "92231",
      "Male Crim": 94.0,
      "Male Non-Crim": 510.0,
      "Female Crim": 2.0,
      "Female Non-Crim": 58.0,
      "ICE Threat Level 1": 33.0,
      "ICE Threat Level 2": 14.0,
      "ICE Threat Level 3": 14.0,
      "No ICE Threat Level": 603.0,
      "latitude": 32.69032325025824,
      "longitude": -115.39756848885183
    },
    {
      "Name": "JOE CORLEY PROCESSING CTR",
      "Address": "500 HILBIG RD",
      "City": "CONROE",
      "State": "TX",
      "Zip": "77301",
      "Male Crim": 103.0,
      "Male Non-Crim": 745.0,
      "Female Crim": 0.0,
      "Female Non-Crim": 0.0,
      "ICE Threat Level 1": 29.0,
      "ICE Threat Level 2": 21.0,
      "ICE Threat Level 3": 38.0,
      "No ICE Threat Level": 761.0,
      "latitude": 30.3359939,
      "longitude": -95.4481982
    },
    {
      "Name": "JEFFERSON COUNTY JAIL",
      "Address": "219 EAST FREMONT AVENUE",
      "City": "RIGBY",
      "State": "ID",
      "Zip": "83442",
      "Male Crim": 4.0,
      "Male Non-Crim": 1.0,
      "Female Crim": 0.0,
      "Female Non-Crim": 0.0,
      "ICE Threat Level 1": 0.0,
      "ICE Threat Level 2": 0.0,
      "ICE Threat Level 3": 0.0,
      "No ICE Threat Level": 4.0,
      "latitude": 43.6733525,
      "longitude": -111.9115662
    },
    {
      "Name": "CENTRAL LOUISIANA ICE PROCESSING CENTER (CLIPC)",
      "Address": "830 PINEHILL ROAD",
      "City": "JENA",
      "State": "LA",
      "Zip": "71342",
      "Male Crim": 483.0,
      "Male Non-Crim": 689.0,
      "Female Crim": 0.0,
      "Female Non-Crim": 1.0,
      "ICE Threat Level 1": 99.0,
      "ICE Threat Level 2": 52.0,
      "ICE Threat Level 3": 67.0,
      "No ICE Threat Level": 956.0,
      "latitude": 31.7088575,
      "longitude": -92.1529335
    },
    {
      "Name": "ALEXANDRIA STAGING FACILI",
      "Address": "96 GEORGE THOMPSON DR.",
      "City": "ALEXANDRIA",
      "State": "LA",
      "Zip": "71303",
      "Male Crim": 138.0,
      "Male Non-Crim": 186.0,
      "Female Crim": 0.0,
      "Female Non-Crim": 0.0,
      "ICE Threat Level 1": 47.0,
      "ICE Threat Level 2": 28.0,
      "ICE Threat Level 3": 37.0,
      "No ICE Threat Level": 212.0,
      "latitude": 31.317855,
      "longitude": -92.536606
    },
    {
      "Name": "JACKSON PARISH CORRECTIONAL CENTER",
      "Address": "327 INDUSTRIAL DRIVE",
      "City": "JONESBORO",
      "State": "LA",
      "Zip": "71251",
      "Male Crim": 51.0,
      "Male Non-Crim": 998.0,
      "Female Crim": 1.0,
      "Female Non-Crim": 4.0,
      "ICE Threat Level 1": 6.0,
      "ICE Threat Level 2": 6.0,
      "ICE Threat Level 3": 19.0,
      "No ICE Threat Level": 1023.0,
      "latitude": 32.2158449,
      "longitude": -92.7178317
    },
    {
      "Name": "KANDIYOHI COUNTY JAIL",
      "Address": "2201 23RD ST NE",
      "City": "WILLMAR",
      "State": "MN",
      "Zip": "56201",
      "Male Crim": 70.0,
      "Male Non-Crim": 62.0,
      "Female Crim": 7.0,
      "Female Non-Crim": 5.0,
      "ICE Threat Level 1": 20.0,
      "ICE Threat Level 2": 11.0,
      "ICE Threat Level 3": 8.0,
      "No ICE Threat Level": 106.0,
      "latitude": 45.1458557,
      "longitude": -95.0144842
    },
    {
      "Name": "KAY CO JUSTICE FACILITY",
      "Address": "1101 WEST DRY ROAD",
      "City": "NEWKIRK",
      "State": "OK",
      "Zip": "74647",
      "Male Crim": 54.0,
      "Male Non-Crim": 58.0,
      "Female Crim": 0.0,
      "Female Non-Crim": 0.0,
      "ICE Threat Level 1": 10.0,
      "ICE Threat Level 2": 5.0,
      "ICE Threat Level 3": 7.0,
      "No ICE Threat Level": 90.0,
      "latitude": 36.86806507097945,
      "longitude": -97.06923720408514
    },
    {
      "Name": "KENTON COUNTY JAIL",
      "Address": "3000 DECKER CRANE LANE",
      "City": "COVINGTON",
      "State": "KY",
      "Zip": "41017",
      "Male Crim": 6.0,
      "Male Non-Crim": 9.0,
      "Female Crim": 0.0,
      "Female Non-Crim": 0.0,
      "ICE Threat Level 1": 1.0,
      "ICE Threat Level 2": 1.0,
      "ICE Threat Level 3": 3.0,
      "No ICE Threat Level": 11.0,
      "latitude": 39.002731,
      "longitude": -84.531531
    },
    {
      "Name": "KNOX COUNTY DETENTION FACILITY",
      "Address": "5001 MALONEYVILLE RD",
      "City": "KNOXVILLE",
      "State": "TN",
      "Zip": "37918",
      "Male Crim": 12.0,
      "Male Non-Crim": 11.0,
      "Female Crim": 1.0,
      "Female Non-Crim": 1.0,
      "ICE Threat Level 1": 0.0,
      "ICE Threat Level 2": 0.0,
      "ICE Threat Level 3": 0.0,
      "No ICE Threat Level": 24.0,
      "latitude": 36.0850476,
      "longitude": -83.841532
    },
    {
      "Name": "KARNES COUNTY IMMIGRATION PROCESSING CENTER",
      "Address": "409 FM 1144",
      "City": "KARNES CITY",
      "State": "TX",
      "Zip": "78118",
      "Male Crim": 52.0,
      "Male Non-Crim": 609.0,
      "Female Crim": 18.0,
      "Female Non-Crim": 251.0,
      "ICE Threat Level 1": 2.0,
      "ICE Threat Level 2": 7.0,
      "ICE Threat Level 3": 41.0,
      "No ICE Threat Level": 880.0,
      "latitude": 28.8849121,
      "longitude": -97.8977348
    },
    {
      "Name": "KROME NORTH SERVICE PROCESSING CENTER",
      "Address": "18201 SW 12TH ST",
      "City": "MIAMI",
      "State": "FL",
      "Zip": "33194",
      "Male Crim": 451.0,
      "Male Non-Crim": 463.0,
      "Female Crim": 1.0,
      "Female Non-Crim": 1.0,
      "ICE Threat Level 1": 80.0,
      "ICE Threat Level 2": 30.0,
      "ICE Threat Level 3": 27.0,
      "No ICE Threat Level": 777.0,
      "latitude": 25.7547717,
      "longitude": -80.4908502
    },
    {
      "Name": "LAKE COUNTY JAIL",
      "Address": "551 W. MAIN ST.",
      "City": "TAVARES",
      "State": "FL",
      "Zip": "32778",
      "Male Crim": 0.0,
      "Male Non-Crim": 1.0,
      "Female Crim": 0.0,
      "Female Non-Crim": 0.0,
      "ICE Threat Level 1": 0.0,
      "ICE Threat Level 2": 0.0,
      "ICE Threat Level 3": 0.0,
      "No ICE Threat Level": 1.0,
      "latitude": 28.8018772,
      "longitude": -81.7329614
    },
    {
      "Name": "LAUREL COUNTY CORRECTIONAL CENTER",
      "Address": "440 HAMMOCK ROAD",
      "City": "LONDON",
      "State": "KY",
      "Zip": "40744",
      "Male Crim": 1.0,
      "Male Non-Crim": 1.0,
      "Female Crim": 0.0,
      "Female Non-Crim": 1.0,
      "ICE Threat Level 1": 0.0,
      "ICE Threat Level 2": 0.0,
      "ICE Threat Level 3": 0.0,
      "No ICE Threat Level": 2.0,
      "latitude": 37.05739,
      "longitude": -84.070965
    },
    {
      "Name": "WINN CORRECTIONAL CENTER",
      "Address": "560 GUM SPRING ROAD",
      "City": "WINNFIELD",
      "State": "LA",
      "Zip": "71483",
      "Male Crim": 358.0,
      "Male Non-Crim": 1196.0,
      "Female Crim": 1.0,
      "Female Non-Crim": 0.0,
      "ICE Threat Level 1": 90.0,
      "ICE Threat Level 2": 56.0,
      "ICE Threat Level 3": 59.0,
      "No ICE Threat Level": 1350.0,
      "latitude": 31.8504715684334,
      "longitude": -92.78135647527058
    },
    {
      "Name": "LEXINGTON COUNTY JAIL",
      "Address": "521 GIBSON ROAD",
      "City": "LEXINGTON",
      "State": "SC",
      "Zip": "29072",
      "Male Crim": 2.0,
      "Male Non-Crim": 2.0,
      "Female Crim": 0.0,
      "Female Non-Crim": 1.0,
      "ICE Threat Level 1": 0.0,
      "ICE Threat Level 2": 0.0,
      "ICE Threat Level 3": 0.0,
      "No ICE Threat Level": 5.0,
      "latitude": 33.9784808,
      "longitude": -81.2508399
    },
    {
      "Name": "LIMESTONE COUNTY DETENTION CENTER",
      "Address": "910 NORTH TYUS STREET",
      "City": "GROESBECK",
      "State": "TX",
      "Zip": "76642",
      "Male Crim": 11.0,
      "Male Non-Crim": 29.0,
      "Female Crim": 0.0,
      "Female Non-Crim": 0.0,
      "ICE Threat Level 1": 1.0,
      "ICE Threat Level 2": 0.0,
      "ICE Threat Level 3": 1.0,
      "No ICE Threat Level": 38.0,
      "latitude": 31.5287835,
      "longitude": -96.512347
    },
    {
      "Name": "LINCOLN COUNTY JAIL",
      "Address": "3020 N JEFFERS",
      "City": "NORTH PLATTE",
      "State": "NE",
      "Zip": "69101",
      "Male Crim": 5.0,
      "Male Non-Crim": 4.0,
      "Female Crim": 0.0,
      "Female Non-Crim": 5.0,
      "ICE Threat Level 1": 1.0,
      "ICE Threat Level 2": 1.0,
      "ICE Threat Level 3": 1.0,
      "No ICE Threat Level": 11.0,
      "latitude": 41.1065398,
      "longitude": -100.7640382
    },
    {
      "Name": "LINN COUNTY JAIL",
      "Address": "53 3RD AVENUE BRIDGE",
      "City": "CEDAR RAPIDS",
      "State": "IA",
      "Zip": "52401",
      "Male Crim": 3.0,
      "Male Non-Crim": 3.0,
      "Female Crim": 0.0,
      "Female Non-Crim": 0.0,
      "ICE Threat Level 1": 1.0,
      "ICE Threat Level 2": 1.0,
      "ICE Threat Level 3": 1.0,
      "No ICE Threat Level": 4.0,
      "latitude": 41.9746012,
      "longitude": -91.6692502
    },
    {
      "Name": "LOGAN COUNTY JAIL",
      "Address": "216 S BROAD ST",
      "City": "GUTHRIE",
      "State": "OK",
      "Zip": "73044",
      "Male Crim": 0.0,
      "Male Non-Crim": 1.0,
      "Female Crim": 0.0,
      "Female Non-Crim": 0.0,
      "ICE Threat Level 1": 0.0,
      "ICE Threat Level 2": 0.0,
      "ICE Threat Level 3": 0.0,
      "No ICE Threat Level": 1.0,
      "latitude": 35.8763635,
      "longitude": -97.4223562
    },
    {
      "Name": "LAREDO PROCESSING CENTER",
      "Address": "4702 EAST SAUNDERS STREET",
      "City": "LAREDO",
      "State": "TX",
      "Zip": "78041",
      "Male Crim": 0.0,
      "Male Non-Crim": 4.0,
      "Female Crim": 26.0,
      "Female Non-Crim": 336.0,
      "ICE Threat Level 1": 6.0,
      "ICE Threat Level 2": 5.0,
      "ICE Threat Level 3": 12.0,
      "No ICE Threat Level": 342.0,
      "latitude": 27.5294764,
      "longitude": -99.4477731
    },
    {
      "Name": "LA SALLE COUNTY REGIONAL DETENTION CENTER",
      "Address": "832 EAST TEXAS STATE HIGHWAY 44",
      "City": "ENCINAL",
      "State": "TX",
      "Zip": "78019",
      "Male Crim": 8.0,
      "Male Non-Crim": 70.0,
      "Female Crim": 0.0,
      "Female Non-Crim": 0.0,
      "ICE Threat Level 1": 0.0,
      "ICE Threat Level 2": 0.0,
      "ICE Threat Level 3": 2.0,
      "No ICE Threat Level": 75.0,
      "latitude": 28.045392301310212,
      "longitude": -99.33614721779425
    },
    {
      "Name": "LUBBOCK COUNTY DETENTION CENTER",
      "Address": "811 MAIN STREET",
      "City": "LUBBOCK",
      "State": "TX",
      "Zip": "79401",
      "Male Crim": 1.0,
      "Male Non-Crim": 1.0,
      "Female Crim": 0.0,
      "Female Non-Crim": 0.0,
      "ICE Threat Level 1": 0.0,
      "ICE Threat Level 2": 0.0,
      "ICE Threat Level 3": 0.0,
      "No ICE Threat Level": 2.0,
      "latitude": 33.5854229,
      "longitude": -101.8434337
    },
    {
      "Name": "MADISON COUNTY JAIL",
      "Address": "2935 HIGHWAY 51",
      "City": "CANTON",
      "State": "MS",
      "Zip": "39046",
      "Male Crim": 2.0,
      "Male Non-Crim": 4.0,
      "Female Crim": 0.0,
      "Female Non-Crim": 0.0,
      "ICE Threat Level 1": 0.0,
      "ICE Threat Level 2": 0.0,
      "ICE Threat Level 3": 0.0,
      "No ICE Threat Level": 6.0,
      "latitude": 32.58677735093389,
      "longitude": -90.04526320050026
    },
    {
      "Name": "MAHONING COUNTY JAIL",
      "Address": "110 FIFTH AVENUE",
      "City": "YOUNGSTOWN",
      "State": "OH",
      "Zip": "44503",
      "Male Crim": 5.0,
      "Male Non-Crim": 23.0,
      "Female Crim": 1.0,
      "Female Non-Crim": 6.0,
      "ICE Threat Level 1": 1.0,
      "ICE Threat Level 2": 1.0,
      "ICE Threat Level 3": 1.0,
      "No ICE Threat Level": 33.0,
      "latitude": 41.103708,
      "longitude": -80.6545051
    },
    {
      "Name": "MARION COUNTY JAIL",
      "Address": "695 JUSTICE WAY",
      "City": "INDIANAPOLIS",
      "State": "IN",
      "Zip": "46203",
      "Male Crim": 22.0,
      "Male Non-Crim": 25.0,
      "Female Crim": 0.0,
      "Female Non-Crim": 0.0,
      "ICE Threat Level 1": 3.0,
      "ICE Threat Level 2": 2.0,
      "ICE Threat Level 3": 3.0,
      "No ICE Threat Level": 40.0,
      "latitude": 39.7550409,
      "longitude": -86.1144189
    },
    {
      "Name": "MILLER COUNTY JAIL",
      "Address": "2300 EAST STREET",
      "City": "TEXARKANA",
      "State": "AR",
      "Zip": "71854",
      "Male Crim": 1.0,
      "Male Non-Crim": 1.0,
      "Female Crim": 0.0,
      "Female Non-Crim": 0.0,
      "ICE Threat Level 1": 0.0,
      "ICE Threat Level 2": 0.0,
      "ICE Threat Level 3": 0.0,
      "No ICE Threat Level": 2.0,
      "latitude": 33.401201,
      "longitude": -94.0225542
    },
    {
      "Name": "MINNEHAHA COUNTY JAIL",
      "Address": "500 NORTH MINNESOTA AVENUE",
      "City": "SIOUX FALLS",
      "State": "SD",
      "Zip": "57104",
      "Male Crim": 0.0,
      "Male Non-Crim": 1.0,
      "Female Crim": 0.0,
      "Female Non-Crim": 0.0,
      "ICE Threat Level 1": 0.0,
      "ICE Threat Level 2": 0.0,
      "ICE Threat Level 3": 0.0,
      "No ICE Threat Level": 2.0,
      "latitude": 43.5524104,
      "longitude": -96.731237
    },
    {
      "Name": "MONROE COUNTY DETENTION-DORM",
      "Address": "7000 EAST DUNBAR ROAD",
      "City": "MONROE",
      "State": "MI",
      "Zip": "48161",
      "Male Crim": 16.0,
      "Male Non-Crim": 89.0,
      "Female Crim": 0.0,
      "Female Non-Crim": 0.0,
      "ICE Threat Level 1": 2.0,
      "ICE Threat Level 2": 2.0,
      "ICE Threat Level 3": 5.0,
      "No ICE Threat Level": 95.0,
      "latitude": 41.89347,
      "longitude": -83.396328
    },
    {
      "Name": "MONTGOMERY COUNTY JAIL",
      "Address": "PARK STREET",
      "City": "FONDA",
      "State": "NY",
      "Zip": "12068",
      "Male Crim": 0.0,
      "Male Non-Crim": 1.0,
      "Female Crim": 0.0,
      "Female Non-Crim": 0.0,
      "ICE Threat Level 1": 0.0,
      "ICE Threat Level 2": 0.0,
      "ICE Threat Level 3": 0.0,
      "No ICE Threat Level": 1.0,
      "latitude": 42.9531059,
      "longitude": -74.3729461
    },
    {
      "Name": "SAIPAN DEPARTMENT OF CORRECTIONS (SUSUPE)",
      "Address": "VICENTE T. SEMAN BLDG, CIVIC CENTER",
      "City": "SAIPAN",
      "State": "MP",
      "Zip": "96950",
      "Male Crim": 3.0,
      "Male Non-Crim": 3.0,
      "Female Crim": 0.0,
      "Female Non-Crim": 1.0,
      "ICE Threat Level 1": 2.0,
      "ICE Threat Level 2": 1.0,
      "ICE Threat Level 3": 0.0,
      "No ICE Threat Level": 5.0,
      "latitude": 15.158907917922077,
      "longitude": 145.70544921267373
    },
    {
      "Name": "MOSHANNON VALLEY PROCESSING CENTER",
      "Address": "555 GEO DRIVE",
      "City": "PHILIPSBURG",
      "State": "PA",
      "Zip": "16866",
      "Male Crim": 700.0,
      "Male Non-Crim": 625.0,
      "Female Crim": 26.0,
      "Female Non-Crim": 22.0,
      "ICE Threat Level 1": 202.0,
      "ICE Threat Level 2": 66.0,
      "ICE Threat Level 3": 81.0,
      "No ICE Threat Level": 1025.0,
      "latitude": 40.921386200722395,
      "longitude": -78.24213641561506
    },
    {
      "Name": "MONTGOMERY ICE PROCESSING CENTER",
      "Address": "806 HILBIG RD",
      "City": "CONROE",
      "State": "TX",
      "Zip": "77301",
      "Male Crim": 604.0,
      "Male Non-Crim": 497.0,
      "Female Crim": 45.0,
      "Female Non-Crim": 71.0,
      "ICE Threat Level 1": 209.0,
      "ICE Threat Level 2": 135.0,
      "ICE Threat Level 3": 152.0,
      "No ICE Threat Level": 722.0,
      "latitude": 30.3368088,
      "longitude": -95.4431046
    },
    {
      "Name": "MUSCATINE COUNTY JAIL",
      "Address": "400 WALNUT STREET",
      "City": "MUSCATINE",
      "State": "IA",
      "Zip": "52761",
      "Male Crim": 5.0,
      "Male Non-Crim": 4.0,
      "Female Crim": 0.0,
      "Female Non-Crim": 1.0,
      "ICE Threat Level 1": 1.0,
      "ICE Threat Level 2": 0.0,
      "ICE Threat Level 3": 0.0,
      "No ICE Threat Level": 8.0,
      "latitude": 41.4243549,
      "longitude": -91.0446662
    },
    {
      "Name": "NASSAU COUNTY CORRECTIONAL CENTER",
      "Address": "100 CARMAN AVENUE",
      "City": "EAST MEADOW",
      "State": "NY",
      "Zip": "11554",
      "Male Crim": 3.0,
      "Male Non-Crim": 8.0,
      "Female Crim": 0.0,
      "Female Non-Crim": 0.0,
      "ICE Threat Level 1": 0.0,
      "ICE Threat Level 2": 0.0,
      "ICE Threat Level 3": 0.0,
      "No ICE Threat Level": 11.0,
      "latitude": 40.727807,
      "longitude": -73.5561653
    },
    {
      "Name": "NATRONA COUNTY JAIL",
      "Address": "1100 BRUCE LANE",
      "City": "CASPER",
      "State": "WY",
      "Zip": "82601",
      "Male Crim": 1.0,
      "Male Non-Crim": 2.0,
      "Female Crim": 0.0,
      "Female Non-Crim": 0.0,
      "ICE Threat Level 1": 0.0,
      "ICE Threat Level 2": 0.0,
      "ICE Threat Level 3": 0.0,
      "No ICE Threat Level": 3.0,
      "latitude": 42.862486,
      "longitude": -106.344705
    },
    {
      "Name": "NIAGARA COUNTY JAIL",
      "Address": "5526 NIAGARA STREET EXTENTION",
      "City": "LOCKPORT",
      "State": "NY",
      "Zip": "14094",
      "Male Crim": 0.0,
      "Male Non-Crim": 0.0,
      "Female Crim": 0.0,
      "Female Non-Crim": 2.0,
      "ICE Threat Level 1": 0.0,
      "ICE Threat Level 2": 0.0,
      "ICE Threat Level 3": 0.0,
      "No ICE Threat Level": 2.0,
      "latitude": 43.18023,
      "longitude": -78.73694
    },
    {
      "Name": "NORTH LAKE CORRECTIONAL F",
      "Address": "1805 W 32ND ST",
      "City": "BALDWIN",
      "State": "MI",
      "Zip": "49304",
      "Male Crim": 8.0,
      "Male Non-Crim": 39.0,
      "Female Crim": 0.0,
      "Female Non-Crim": 0.0,
      "ICE Threat Level 1": 2.0,
      "ICE Threat Level 2": 1.0,
      "ICE Threat Level 3": 2.0,
      "No ICE Threat Level": 41.0,
      "latitude": 43.926459,
      "longitude": -85.836552
    },
    {
      "Name": "NEVADA SOUTHERN DETENTION CENTER",
      "Address": "2190 EAST MESQUITE AVENUE",
      "City": "PAHRUMP",
      "State": "NV",
      "Zip": "89060",
      "Male Crim": 212.0,
      "Male Non-Crim": 138.0,
      "Female Crim": 0.0,
      "Female Non-Crim": 0.0,
      "ICE Threat Level 1": 51.0,
      "ICE Threat Level 2": 27.0,
      "ICE Threat Level 3": 29.0,
      "No ICE Threat Level": 243.0,
      "latitude": 36.2520145,
      "longitude": -115.9770311
    },
    {
      "Name": "NEW HANOVER COUNTY JAIL",
      "Address": "3950 JUVENILE RD",
      "City": "CASTLE HAYNE",
      "State": "NC",
      "Zip": "28429",
      "Male Crim": 1.0,
      "Male Non-Crim": 1.0,
      "Female Crim": 0.0,
      "Female Non-Crim": 0.0,
      "ICE Threat Level 1": 0.0,
      "ICE Threat Level 2": 0.0,
      "ICE Threat Level 3": 0.0,
      "No ICE Threat Level": 2.0,
      "latitude": 34.325340041511325,
      "longitude": -77.89457245997536
    },
    {
      "Name": "NORTHWEST REGIONAL CORRECTIONS CENTER",
      "Address": "816 MARIN AVE., SUITE 110",
      "City": "CROOKSTON",
      "State": "MN",
      "Zip": "56716",
      "Male Crim": 0.0,
      "Male Non-Crim": 2.0,
      "Female Crim": 0.0,
      "Female Non-Crim": 0.0,
      "ICE Threat Level 1": 0.0,
      "ICE Threat Level 2": 0.0,
      "ICE Threat Level 3": 0.0,
      "No ICE Threat Level": 3.0,
      "latitude": 47.76885,
      "longitude": -96.62851
    },
    {
      "Name": "CORR. CTR OF NORTHWEST OHIO",
      "Address": "3151 ROAD 24.25, ROUTE 1",
      "City": "STRYKER",
      "State": "OH",
      "Zip": "43557",
      "Male Crim": 7.0,
      "Male Non-Crim": 17.0,
      "Female Crim": 1.0,
      "Female Non-Crim": 7.0,
      "ICE Threat Level 1": 2.0,
      "ICE Threat Level 2": 1.0,
      "ICE Threat Level 3": 1.0,
      "No ICE Threat Level": 28.0,
      "latitude": 41.46614644488944,
      "longitude": -84.35637935792789
    },
    {
      "Name": "CIMMARRON CORR FACILITY",
      "Address": "3700 S. KINGS HWY",
      "City": "CUSHING",
      "State": "OK",
      "Zip": "74023",
      "Male Crim": 37.0,
      "Male Non-Crim": 97.0,
      "Female Crim": 0.0,
      "Female Non-Crim": 0.0,
      "ICE Threat Level 1": 9.0,
      "ICE Threat Level 2": 2.0,
      "ICE Threat Level 3": 3.0,
      "No ICE Threat Level": 121.0,
      "latitude": 35.961173,
      "longitude": -96.7848408
    },
    {
      "Name": "OLDHAM COUNTY DETENTION CENTER",
      "Address": "3405 W HWY 146",
      "City": "LA GRANGE",
      "State": "KY",
      "Zip": "40031",
      "Male Crim": 25.0,
      "Male Non-Crim": 21.0,
      "Female Crim": 0.0,
      "Female Non-Crim": 2.0,
      "ICE Threat Level 1": 4.0,
      "ICE Threat Level 2": 3.0,
      "ICE Threat Level 3": 4.0,
      "No ICE Threat Level": 37.0,
      "latitude": 38.389361,
      "longitude": -85.423255
    },
    {
      "Name": "ORANGE COUNTY JAIL (FL)",
      "Address": "3855 SOUTH JOHN YOUNG PARKWAY",
      "City": "ORLANDO",
      "State": "FL",
      "Zip": "32839",
      "Male Crim": 5.0,
      "Male Non-Crim": 10.0,
      "Female Crim": 1.0,
      "Female Non-Crim": 2.0,
      "ICE Threat Level 1": 0.0,
      "ICE Threat Level 2": 0.0,
      "ICE Threat Level 3": 0.0,
      "No ICE Threat Level": 17.0,
      "latitude": 28.50402318562143,
      "longitude": -81.41636787360717
    },
    {
      "Name": "ORANGE COUNTY JAIL (NY)",
      "Address": "110 WELLS FARM ROAD",
      "City": "GOSHEN",
      "State": "NY",
      "Zip": "10924",
      "Male Crim": 76.0,
      "Male Non-Crim": 46.0,
      "Female Crim": 0.0,
      "Female Non-Crim": 0.0,
      "ICE Threat Level 1": 14.0,
      "ICE Threat Level 2": 14.0,
      "ICE Threat Level 3": 11.0,
      "No ICE Threat Level": 83.0,
      "latitude": 41.4042394,
      "longitude": -74.3606249
    },
    {
      "Name": "OTERO COUNTY PROCESSING CENTER",
      "Address": "26 MCGREGOR RANGE ROAD",
      "City": "CHAPARRAL",
      "State": "NM",
      "Zip": "88081",
      "Male Crim": 169.0,
      "Male Non-Crim": 537.0,
      "Female Crim": 10.0,
      "Female Non-Crim": 148.0,
      "ICE Threat Level 1": 27.0,
      "ICE Threat Level 2": 24.0,
      "ICE Threat Level 3": 47.0,
      "No ICE Threat Level": 765.0,
      "latitude": 32.0786798,
      "longitude": -106.2779169
    },
    {
      "Name": "OZARK COUNTY SHERIFF'S OFFICE",
      "Address": "1818 COUNTY ROAD 806",
      "City": "GAINESVILLE",
      "State": "MO",
      "Zip": "65655",
      "Male Crim": 2.0,
      "Male Non-Crim": 2.0,
      "Female Crim": 0.0,
      "Female Non-Crim": 0.0,
      "ICE Threat Level 1": 0.0,
      "ICE Threat Level 2": 0.0,
      "ICE Threat Level 3": 0.0,
      "No ICE Threat Level": 3.0,
      "latitude": 36.6014034,
      "longitude": -92.4516834
    },
    {
      "Name": "PICKENS COUNTY DET CTR",
      "Address": "188 CEMETERY ST",
      "City": "CARROLLTON",
      "State": "AL",
      "Zip": "35447",
      "Male Crim": 14.0,
      "Male Non-Crim": 20.0,
      "Female Crim": 3.0,
      "Female Non-Crim": 2.0,
      "ICE Threat Level 1": 0.0,
      "ICE Threat Level 2": 1.0,
      "ICE Threat Level 3": 1.0,
      "No ICE Threat Level": 36.0,
      "latitude": 33.2603007,
      "longitude": -88.0959216
    },
    {
      "Name": "PENNINGTON COUNTY JAIL (SOUTH DAKOTA)",
      "Address": "300 KANSAS CITY STREET NONE",
      "City": "RAPID CITY",
      "State": "SD",
      "Zip": "57701",
      "Male Crim": 1.0,
      "Male Non-Crim": 2.0,
      "Female Crim": 0.0,
      "Female Non-Crim": 0.0,
      "ICE Threat Level 1": 0.0,
      "ICE Threat Level 2": 0.0,
      "ICE Threat Level 3": 0.0,
      "No ICE Threat Level": 2.0,
      "latitude": 44.07844295797259,
      "longitude": -103.22212620387216
    },
    {
      "Name": "PHELPS COUNTY JAIL (MO)",
      "Address": "301 W. 2ND",
      "City": "ROLLA",
      "State": "MO",
      "Zip": "65401",
      "Male Crim": 6.0,
      "Male Non-Crim": 11.0,
      "Female Crim": 0.0,
      "Female Non-Crim": 2.0,
      "ICE Threat Level 1": 0.0,
      "ICE Threat Level 2": 0.0,
      "ICE Threat Level 3": 1.0,
      "No ICE Threat Level": 18.0,
      "latitude": 37.9454138,
      "longitude": -91.7739843
    },
    {
      "Name": "PHELPS COUNTY JAIL (NE)",
      "Address": "715 5TH AVENUE",
      "City": "HOLDREGE",
      "State": "NE",
      "Zip": "68949",
      "Male Crim": 24.0,
      "Male Non-Crim": 5.0,
      "Female Crim": 1.0,
      "Female Non-Crim": 0.0,
      "ICE Threat Level 1": 2.0,
      "ICE Threat Level 2": 2.0,
      "ICE Threat Level 3": 2.0,
      "No ICE Threat Level": 25.0,
      "latitude": 40.4390467,
      "longitude": -99.3704014
    },
    {
      "Name": "PORT ISABEL SPC",
      "Address": "27991 BUENA VISTA BOULEVARD",
      "City": "LOS FRESNOS",
      "State": "TX",
      "Zip": "78566",
      "Male Crim": 160.0,
      "Male Non-Crim": 896.0,
      "Female Crim": 1.0,
      "Female Non-Crim": 2.0,
      "ICE Threat Level 1": 30.0,
      "ICE Threat Level 2": 38.0,
      "ICE Threat Level 3": 69.0,
      "No ICE Threat Level": 922.0,
      "latitude": 26.1563622,
      "longitude": -97.337839
    },
    {
      "Name": "PIKE COUNTY JAIL",
      "Address": "175 PIKE COUNTY BOULEVARD",
      "City": "LORDS VALLEY",
      "State": "PA",
      "Zip": "18428",
      "Male Crim": 73.0,
      "Male Non-Crim": 115.0,
      "Female Crim": 0.0,
      "Female Non-Crim": 0.0,
      "ICE Threat Level 1": 13.0,
      "ICE Threat Level 2": 8.0,
      "ICE Threat Level 3": 11.0,
      "No ICE Threat Level": 155.0,
      "latitude": 41.3892641952419,
      "longitude": -75.071309115601
    },
    {
      "Name": "PINELLAS COUNTY JAIL",
      "Address": "14400 49TH STREET NORTH",
      "City": "CLEARWATER",
      "State": "FL",
      "Zip": "33762",
      "Male Crim": 5.0,
      "Male Non-Crim": 7.0,
      "Female Crim": 0.0,
      "Female Non-Crim": 1.0,
      "ICE Threat Level 1": 0.0,
      "ICE Threat Level 2": 0.0,
      "ICE Threat Level 3": 0.0,
      "No ICE Threat Level": 13.0,
      "latitude": 27.903511036240065,
      "longitude": -82.70346139830698
    },
    {
      "Name": "PINE PRAIRIE ICE PROCESSING CENTER",
      "Address": "1133 HAMPTON DUPRE ROAD",
      "City": "PINE PRAIRIE",
      "State": "LA",
      "Zip": "70576",
      "Male Crim": 284.0,
      "Male Non-Crim": 476.0,
      "Female Crim": 0.0,
      "Female Non-Crim": 1.0,
      "ICE Threat Level 1": 51.0,
      "ICE Threat Level 2": 31.0,
      "ICE Threat Level 3": 35.0,
      "No ICE Threat Level": 644.0,
      "latitude": 30.7884208,
      "longitude": -92.4227559
    },
    {
      "Name": "PLYMOUTH COUNTY CORRECTIONAL FACILITY",
      "Address": "26 LONG POND ROAD",
      "City": "PLYMOUTH",
      "State": "MA",
      "Zip": "02360",
      "Male Crim": 146.0,
      "Male Non-Crim": 296.0,
      "Female Crim": 0.0,
      "Female Non-Crim": 1.0,
      "ICE Threat Level 1": 37.0,
      "ICE Threat Level 2": 13.0,
      "ICE Threat Level 3": 14.0,
      "No ICE Threat Level": 381.0,
      "latitude": 41.9318079,
      "longitude": -70.6512992
    },
    {
      "Name": "IAH SECURE ADULT DETENTION FACILITY (POLK)",
      "Address": "3400 FM 350 SOUTH",
      "City": "LIVINGSTON",
      "State": "TX",
      "Zip": "77351",
      "Male Crim": 121.0,
      "Male Non-Crim": 691.0,
      "Female Crim": 0.0,
      "Female Non-Crim": 0.0,
      "ICE Threat Level 1": 31.0,
      "ICE Threat Level 2": 25.0,
      "ICE Threat Level 3": 47.0,
      "No ICE Threat Level": 711.0,
      "latitude": 30.6981513,
      "longitude": -95.0057915
    },
    {
      "Name": "POLK COUNTY JAIL",
      "Address": "1985 NE 51ST PLACE",
      "City": "DES MOINES",
      "State": "IA",
      "Zip": "50313",
      "Male Crim": 31.0,
      "Male Non-Crim": 10.0,
      "Female Crim": 0.0,
      "Female Non-Crim": 0.0,
      "ICE Threat Level 1": 2.0,
      "ICE Threat Level 2": 2.0,
      "ICE Threat Level 3": 3.0,
      "No ICE Threat Level": 35.0,
      "latitude": 41.6534505,
      "longitude": -93.5877727
    },
    {
      "Name": "POTTAWATTAMIE COUNTY JAIL",
      "Address": "1400 BIG LAKE ROAD",
      "City": "COUNCIL BLUFFS",
      "State": "IA",
      "Zip": "51501",
      "Male Crim": 29.0,
      "Male Non-Crim": 5.0,
      "Female Crim": 1.0,
      "Female Non-Crim": 1.0,
      "ICE Threat Level 1": 7.0,
      "ICE Threat Level 2": 2.0,
      "ICE Threat Level 3": 1.0,
      "No ICE Threat Level": 27.0,
      "latitude": 41.284196,
      "longitude": -95.864127
    },
    {
      "Name": "PRAIRIELAND DETENTION CENTER",
      "Address": "1209 SUNFLOWER LN",
      "City": "ALVARADO",
      "State": "TX",
      "Zip": "76009",
      "Male Crim": 280.0,
      "Male Non-Crim": 458.0,
      "Female Crim": 26.0,
      "Female Non-Crim": 45.0,
      "ICE Threat Level 1": 74.0,
      "ICE Threat Level 2": 45.0,
      "ICE Threat Level 3": 40.0,
      "No ICE Threat Level": 650.0,
      "latitude": 32.4217035,
      "longitude": -97.1958971
    },
    {
      "Name": "PUTNAM COUNTY SHERIFF",
      "Address": "421 E SPRING ST.",
      "City": "COOKEVILLE",
      "State": "TN",
      "Zip": "38501",
      "Male Crim": 2.0,
      "Male Non-Crim": 2.0,
      "Female Crim": 0.0,
      "Female Non-Crim": 0.0,
      "ICE Threat Level 1": 0.0,
      "ICE Threat Level 2": 0.0,
      "ICE Threat Level 3": 0.0,
      "No ICE Threat Level": 4.0,
      "latitude": 36.1617449,
      "longitude": -85.4983817
    },
    {
      "Name": "ROBERT A DEYTON DETENTION FACILITY",
      "Address": "11866 HASTINGS BRIDGE ROAD P.O. BOX 429",
      "City": "LOVEJOY",
      "State": "GA",
      "Zip": "30250",
      "Male Crim": 3.0,
      "Male Non-Crim": 3.0,
      "Female Crim": 0.0,
      "Female Non-Crim": 0.0,
      "ICE Threat Level 1": 0.0,
      "ICE Threat Level 2": 0.0,
      "ICE Threat Level 3": 0.0,
      "No ICE Threat Level": 7.0,
      "latitude": null,
      "longitude": null
    },
    {
      "Name": "RIO GRANDE DETENTION CENTER",
      "Address": "1001 SAN RIO BOULEVARD",
      "City": "LAREDO",
      "State": "TX",
      "Zip": "78046",
      "Male Crim": 45.0,
      "Male Non-Crim": 584.0,
      "Female Crim": 0.0,
      "Female Non-Crim": 0.0,
      "ICE Threat Level 1": 3.0,
      "ICE Threat Level 2": 10.0,
      "ICE Threat Level 3": 28.0,
      "No ICE Threat Level": 587.0,
      "latitude": 27.379978,
      "longitude": -99.486229
    },
    {
      "Name": "RIVER CORRECTIONAL CENTER",
      "Address": "26362 HIGHWAY 15",
      "City": "FERRIDAY",
      "State": "LA",
      "Zip": "71334",
      "Male Crim": 29.0,
      "Male Non-Crim": 526.0,
      "Female Crim": 0.0,
      "Female Non-Crim": 1.0,
      "ICE Threat Level 1": 3.0,
      "ICE Threat Level 2": 6.0,
      "ICE Threat Level 3": 11.0,
      "No ICE Threat Level": 535.0,
      "latitude": 31.597253400688896,
      "longitude": -91.55806052381577
    },
    {
      "Name": "RICHWOOD CORRECTIONAL CENTER",
      "Address": "180 PINE BAYOU CIRCLE",
      "City": "MONROE",
      "State": "LA",
      "Zip": "71202",
      "Male Crim": 61.0,
      "Male Non-Crim": 107.0,
      "Female Crim": 23.0,
      "Female Non-Crim": 730.0,
      "ICE Threat Level 1": 28.0,
      "ICE Threat Level 2": 16.0,
      "ICE Threat Level 3": 25.0,
      "No ICE Threat Level": 853.0,
      "latitude": 32.45717553802827,
      "longitude": -92.079859671668
    },
    {
      "Name": "SARPY COUNTY JAIL",
      "Address": "1208 GOLDEN GATE DRIVE",
      "City": "PAPILLION",
      "State": "NE",
      "Zip": "68046",
      "Male Crim": 3.0,
      "Male Non-Crim": 0.0,
      "Female Crim": 0.0,
      "Female Non-Crim": 0.0,
      "ICE Threat Level 1": 1.0,
      "ICE Threat Level 2": 1.0,
      "ICE Threat Level 3": 0.0,
      "No ICE Threat Level": 1.0,
      "latitude": 41.1434535,
      "longitude": -96.0419407
    },
    {
      "Name": "SAUK COUNTY SHERIFF",
      "Address": "1300 LANGE CT.",
      "City": "BARABOO",
      "State": "WI",
      "Zip": "53913",
      "Male Crim": 1.0,
      "Male Non-Crim": 1.0,
      "Female Crim": 0.0,
      "Female Non-Crim": 0.0,
      "ICE Threat Level 1": 0.0,
      "ICE Threat Level 2": 0.0,
      "ICE Threat Level 3": 0.0,
      "No ICE Threat Level": 1.0,
      "latitude": 43.4615055,
      "longitude": -89.7672991
    },
    {
      "Name": "SEBASTIAN COUNTY DETENTION CENTER",
      "Address": "801 SOUTH A STREET",
      "City": "FORT SMITH",
      "State": "AR",
      "Zip": "72901",
      "Male Crim": 1.0,
      "Male Non-Crim": 1.0,
      "Female Crim": 0.0,
      "Female Non-Crim": 0.0,
      "ICE Threat Level 1": 0.0,
      "ICE Threat Level 2": 0.0,
      "ICE Threat Level 3": 0.0,
      "No ICE Threat Level": 2.0,
      "latitude": 35.3822229,
      "longitude": -94.422565
    },
    {
      "Name": "SENECA COUNTY JAIL",
      "Address": "3040 SOUTH STATE HIGHWAY 100",
      "City": "TIFFIN",
      "State": "OH",
      "Zip": "44883",
      "Male Crim": 31.0,
      "Male Non-Crim": 25.0,
      "Female Crim": 2.0,
      "Female Non-Crim": 2.0,
      "ICE Threat Level 1": 7.0,
      "ICE Threat Level 2": 3.0,
      "ICE Threat Level 3": 4.0,
      "No ICE Threat Level": 46.0,
      "latitude": 41.079506331622774,
      "longitude": -83.15386397328119
    },
    {
      "Name": "SHERBURNE COUNTY JAIL",
      "Address": "13880 BUSINESS CENTER DRIVE",
      "City": "ELK RIVER",
      "State": "MN",
      "Zip": "55330",
      "Male Crim": 28.0,
      "Male Non-Crim": 26.0,
      "Female Crim": 2.0,
      "Female Non-Crim": 1.0,
      "ICE Threat Level 1": 8.0,
      "ICE Threat Level 2": 3.0,
      "ICE Threat Level 3": 3.0,
      "No ICE Threat Level": 43.0,
      "latitude": 45.3037535,
      "longitude": -93.6200234
    },
    {
      "Name": "SAN JUAN STAGING",
      "Address": "651 FEDERAL DRIVE, SUITE 104",
      "City": "GUAYNABO",
      "State": "PR",
      "Zip": "00965",
      "Male Crim": 2.0,
      "Male Non-Crim": 8.0,
      "Female Crim": 0.0,
      "Female Non-Crim": 1.0,
      "ICE Threat Level 1": 0.0,
      "ICE Threat Level 2": 0.0,
      "ICE Threat Level 3": 0.0,
      "No ICE Threat Level": 11.0,
      "latitude": 18.423606,
      "longitude": -66.113134
    },
    {
      "Name": "SAN LUIS REGIONAL DETENTION CENTER",
      "Address": "406 NORTH AVENUE D",
      "City": "SAN LUIS",
      "State": "AZ",
      "Zip": "85349",
      "Male Crim": 28.0,
      "Male Non-Crim": 134.0,
      "Female Crim": 2.0,
      "Female Non-Crim": 39.0,
      "ICE Threat Level 1": 11.0,
      "ICE Threat Level 2": 3.0,
      "ICE Threat Level 3": 3.0,
      "No ICE Threat Level": 186.0,
      "latitude": 32.483025880176186,
      "longitude": -114.68349442933823
    },
    {
      "Name": "SALT LAKE COUNTY METRO JAIL",
      "Address": "3415 SOUTH 900 WEST",
      "City": "SALT LAKE CITY",
      "State": "UT",
      "Zip": "84119",
      "Male Crim": 4.0,
      "Male Non-Crim": 2.0,
      "Female Crim": 0.0,
      "Female Non-Crim": 0.0,
      "ICE Threat Level 1": 1.0,
      "ICE Threat Level 2": 0.0,
      "ICE Threat Level 3": 0.0,
      "No ICE Threat Level": 6.0,
      "latitude": 40.7259591,
      "longitude": -111.9169442
    },
    {
      "Name": "SOUTH TEXAS ICE PROCESSING CENTER",
      "Address": "566 VETERANS DRIVE",
      "City": "PEARSALL",
      "State": "TX",
      "Zip": "78061",
      "Male Crim": 430.0,
      "Male Non-Crim": 1190.0,
      "Female Crim": 30.0,
      "Female Non-Crim": 30.0,
      "ICE Threat Level 1": 102.0,
      "ICE Threat Level 2": 88.0,
      "ICE Threat Level 3": 205.0,
      "No ICE Threat Level": 1283.0,
      "latitude": 28.8946514,
      "longitude": -99.1219428
    },
    {
      "Name": "ST. CLAIR COUNTY JAIL",
      "Address": "1170 MICHIGAN ROAD",
      "City": "PORT HURON",
      "State": "MI",
      "Zip": "48060",
      "Male Crim": 21.0,
      "Male Non-Crim": 48.0,
      "Female Crim": 0.0,
      "Female Non-Crim": 0.0,
      "ICE Threat Level 1": 5.0,
      "ICE Threat Level 2": 3.0,
      "ICE Threat Level 3": 4.0,
      "No ICE Threat Level": 56.0,
      "latitude": 42.9426053,
      "longitude": -82.4799303
    },
    {
      "Name": "DILLEY IMMIGRATION PROCESSING CENTER",
      "Address": "300 EL RANCHO WAY",
      "City": "DILLEY",
      "State": "TX",
      "Zip": "78017",
      "Male Crim": 1.0,
      "Male Non-Crim": 60.0,
      "Female Crim": 0.0,
      "Female Non-Crim": 75.0,
      "ICE Threat Level 1": 0.0,
      "ICE Threat Level 2": 0.0,
      "ICE Threat Level 3": 1.0,
      "No ICE Threat Level": 135.0,
      "latitude": 28.658091009808814,
      "longitude": -99.20042911778089
    },
    {
      "Name": "STE. GENEVIEVE COUNTY SHERIFF/JAIL",
      "Address": "5 BASLER DR.",
      "City": "STE. GENEVIEVE",
      "State": "MO",
      "Zip": "63670",
      "Male Crim": 11.0,
      "Male Non-Crim": 19.0,
      "Female Crim": 0.0,
      "Female Non-Crim": 2.0,
      "ICE Threat Level 1": 2.0,
      "ICE Threat Level 2": 1.0,
      "ICE Threat Level 3": 2.0,
      "No ICE Threat Level": 27.0,
      "latitude": 37.965677,
      "longitude": -90.0551125
    },
    {
      "Name": "STRAFFORD COUNTY CORRECTIONS",
      "Address": "266 COUNTY FARM ROAD",
      "City": "DOVER",
      "State": "NH",
      "Zip": "03820",
      "Male Crim": 45.0,
      "Male Non-Crim": 49.0,
      "Female Crim": 6.0,
      "Female Non-Crim": 9.0,
      "ICE Threat Level 1": 11.0,
      "ICE Threat Level 2": 6.0,
      "ICE Threat Level 3": 6.0,
      "No ICE Threat Level": 87.0,
      "latitude": 43.2192302,
      "longitude": -70.9386083
    },
    {
      "Name": "STEWART DETENTION CENTER",
      "Address": "146 CCA ROAD",
      "City": "LUMPKIN",
      "State": "GA",
      "Zip": "31815",
      "Male Crim": 745.0,
      "Male Non-Crim": 916.0,
      "Female Crim": 50.0,
      "Female Non-Crim": 182.0,
      "ICE Threat Level 1": 183.0,
      "ICE Threat Level 2": 118.0,
      "ICE Threat Level 3": 97.0,
      "No ICE Threat Level": 1495.0,
      "latitude": 32.036729905551354,
      "longitude": -84.77148464340088
    },
    {
      "Name": "SWEETWATER COUNTY JAIL",
      "Address": "50140 UNITED STATES HIGHWAY 191 SOUTH",
      "City": "ROCK SPRINGS",
      "State": "WY",
      "Zip": "82935",
      "Male Crim": 2.0,
      "Male Non-Crim": 1.0,
      "Female Crim": 0.0,
      "Female Non-Crim": 0.0,
      "ICE Threat Level 1": 1.0,
      "ICE Threat Level 2": 0.0,
      "ICE Threat Level 3": 0.0,
      "No ICE Threat Level": 3.0,
      "latitude": 41.5371934874891,
      "longitude": -109.30126553093841
    },
    {
      "Name": "TWO BRIDGES REGIONAL JAIL",
      "Address": "522 BATH RD",
      "City": "WISCASSET",
      "State": "ME",
      "Zip": "04578",
      "Male Crim": 5.0,
      "Male Non-Crim": 6.0,
      "Female Crim": 0.0,
      "Female Non-Crim": 0.0,
      "ICE Threat Level 1": 2.0,
      "ICE Threat Level 2": 0.0,
      "ICE Threat Level 3": 1.0,
      "No ICE Threat Level": 8.0,
      "latitude": 43.9781192,
      "longitude": -69.6989264
    },
    {
      "Name": "TOOELE COUNTY JAIL",
      "Address": "47 SOUTH MAIN STREET",
      "City": "TOOELE",
      "State": "UT",
      "Zip": "84074",
      "Male Crim": 1.0,
      "Male Non-Crim": 1.0,
      "Female Crim": 0.0,
      "Female Non-Crim": 0.0,
      "ICE Threat Level 1": 0.0,
      "ICE Threat Level 2": 0.0,
      "ICE Threat Level 3": 0.0,
      "No ICE Threat Level": 2.0,
      "latitude": 40.529621,
      "longitude": -112.297725
    },
    {
      "Name": "TORRANCE/ESTANCIA, NM",
      "Address": "209 COUNTY ROAD 49",
      "City": "ESTANCIA",
      "State": "NM",
      "Zip": "87016",
      "Male Crim": 66.0,
      "Male Non-Crim": 379.0,
      "Female Crim": 0.0,
      "Female Non-Crim": 0.0,
      "ICE Threat Level 1": 2.0,
      "ICE Threat Level 2": 4.0,
      "ICE Threat Level 3": 19.0,
      "No ICE Threat Level": 420.0,
      "latitude": 34.76832244015224,
      "longitude": -106.01873793112864
    },
    {
      "Name": "TULSA COUNTY JAIL (DAVID L. MOSS JUSTICE CTR)",
      "Address": "300 NORTH DENVER AVENUE",
      "City": "TULSA",
      "State": "OK",
      "Zip": "74103",
      "Male Crim": 15.0,
      "Male Non-Crim": 30.0,
      "Female Crim": 1.0,
      "Female Non-Crim": 4.0,
      "ICE Threat Level 1": 1.0,
      "ICE Threat Level 2": 1.0,
      "ICE Threat Level 3": 1.0,
      "No ICE Threat Level": 47.0,
      "latitude": 36.1572816,
      "longitude": -95.9990129
    },
    {
      "Name": "UINTA COUNTY JAIL",
      "Address": "77 COUNTY ROAD 109",
      "City": "EVANSTON",
      "State": "WY",
      "Zip": "82930",
      "Male Crim": 1.0,
      "Male Non-Crim": 2.0,
      "Female Crim": 0.0,
      "Female Non-Crim": 0.0,
      "ICE Threat Level 1": 0.0,
      "ICE Threat Level 2": 0.0,
      "ICE Threat Level 3": 0.0,
      "No ICE Threat Level": 3.0,
      "latitude": 41.269064,
      "longitude": -110.921015
    },
    {
      "Name": "CHITTENDEN REGIONAL CORRECTIONAL FACILITY",
      "Address": "7 FARRELL STREET",
      "City": "SOUTH BURLINGTON",
      "State": "VT",
      "Zip": "05403",
      "Male Crim": 0.0,
      "Male Non-Crim": 0.0,
      "Female Crim": 0.0,
      "Female Non-Crim": 3.0,
      "ICE Threat Level 1": 0.0,
      "ICE Threat Level 2": 0.0,
      "ICE Threat Level 3": 0.0,
      "No ICE Threat Level": 4.0,
      "latitude": 44.4464191,
      "longitude": -73.2054841
    },
    {
      "Name": "NORTHWEST STATE CORRECTIONAL CENTER",
      "Address": "3649 LOWER NEWTON ROAD",
      "City": "SWANTON",
      "State": "VT",
      "Zip": "05488",
      "Male Crim": 1.0,
      "Male Non-Crim": 8.0,
      "Female Crim": 0.0,
      "Female Non-Crim": 0.0,
      "ICE Threat Level 1": 0.0,
      "ICE Threat Level 2": 0.0,
      "ICE Threat Level 3": 0.0,
      "No ICE Threat Level": 9.0,
      "latitude": 44.850448,
      "longitude": -73.13328
    },
    {
      "Name": "WASHINGTON COUNTY JAIL (PURGATORY CORRECTIONAL FAC",
      "Address": "750 SOUTH 5300 WEST",
      "City": "HURRICANE",
      "State": "UT",
      "Zip": "84737",
      "Male Crim": 1.0,
      "Male Non-Crim": 1.0,
      "Female Crim": 0.0,
      "Female Non-Crim": 0.0,
      "ICE Threat Level 1": 0.0,
      "ICE Threat Level 2": 0.0,
      "ICE Threat Level 3": 0.0,
      "No ICE Threat Level": 2.0,
      "latitude": 37.159618,
      "longitude": -113.4122002
    },
    {
      "Name": "WASHINGTON COUNTY DETENTION CENTER",
      "Address": "1155 WEST CLYDESDALE DRIVE",
      "City": "FAYETTEVILLE",
      "State": "AR",
      "Zip": "72701",
      "Male Crim": 2.0,
      "Male Non-Crim": 3.0,
      "Female Crim": 0.0,
      "Female Non-Crim": 0.0,
      "ICE Threat Level 1": 0.0,
      "ICE Threat Level 2": 0.0,
      "ICE Threat Level 3": 0.0,
      "No ICE Threat Level": 4.0,
      "latitude": 36.0340715,
      "longitude": -94.175948
    },
    {
      "Name": "WASHOE COUNTY JAIL",
      "Address": "911 PARR BLVD 775 328 3308",
      "City": "RENO",
      "State": "NV",
      "Zip": "89506",
      "Male Crim": 8.0,
      "Male Non-Crim": 3.0,
      "Female Crim": 0.0,
      "Female Non-Crim": 0.0,
      "ICE Threat Level 1": 2.0,
      "ICE Threat Level 2": 0.0,
      "ICE Threat Level 3": 1.0,
      "No ICE Threat Level": 9.0,
      "latitude": 39.57445694817889,
      "longitude": -119.81272011554243
    },
    {
      "Name": "WAUKESHA COUNTY JAIL",
      "Address": "515 WEST MORELAND",
      "City": "WAUKESHA",
      "State": "WI",
      "Zip": "53186",
      "Male Crim": 1.0,
      "Male Non-Crim": 1.0,
      "Female Crim": 0.0,
      "Female Non-Crim": 0.0,
      "ICE Threat Level 1": 0.0,
      "ICE Threat Level 2": 0.0,
      "ICE Threat Level 3": 0.0,
      "No ICE Threat Level": 2.0,
      "latitude": 43.0236491,
      "longitude": -88.228229
    },
    {
      "Name": "BROWARD TRANSITIONAL CENTER",
      "Address": "3900 NORTH POWERLINE ROAD",
      "City": "POMPANO BEACH",
      "State": "FL",
      "Zip": "33073",
      "Male Crim": 113.0,
      "Male Non-Crim": 436.0,
      "Female Crim": 16.0,
      "Female Non-Crim": 80.0,
      "ICE Threat Level 1": 10.0,
      "ICE Threat Level 2": 14.0,
      "ICE Threat Level 3": 22.0,
      "No ICE Threat Level": 599.0,
      "latitude": 26.2759099,
      "longitude": -80.15197
    },
    {
      "Name": "WEBB COUNTY DETENTION CENTER (CCA)",
      "Address": "9998 SOUTH HIGHWAY 83",
      "City": "LAREDO",
      "State": "TX",
      "Zip": "78041",
      "Male Crim": 53.0,
      "Male Non-Crim": 294.0,
      "Female Crim": 6.0,
      "Female Non-Crim": 26.0,
      "ICE Threat Level 1": 21.0,
      "ICE Threat Level 2": 14.0,
      "ICE Threat Level 3": 18.0,
      "No ICE Threat Level": 326.0,
      "latitude": 27.377731,
      "longitude": -99.471644
    },
    {
      "Name": "WALTON COUNTY JAIL",
      "Address": "40 SHERIFF CIR",
      "City": "DEFUNIAK SPRINGS",
      "State": "FL",
      "Zip": "32433",
      "Male Crim": 2.0,
      "Male Non-Crim": 5.0,
      "Female Crim": 0.0,
      "Female Non-Crim": 0.0,
      "ICE Threat Level 1": 0.0,
      "ICE Threat Level 2": 0.0,
      "ICE Threat Level 3": 0.0,
      "No ICE Threat Level": 6.0,
      "latitude": 30.78363619823702,
      "longitude": -86.1039227599523
    },
    {
      "Name": "WOODBURY COUNTY JAIL",
      "Address": "407 7TH STREET",
      "City": "SIOUX CITY",
      "State": "IA",
      "Zip": "51101",
      "Male Crim": 11.0,
      "Male Non-Crim": 8.0,
      "Female Crim": 0.0,
      "Female Non-Crim": 2.0,
      "ICE Threat Level 1": 2.0,
      "ICE Threat Level 2": 1.0,
      "ICE Threat Level 3": 2.0,
      "No ICE Threat Level": 16.0,
      "latitude": 42.4975021,
      "longitude": -96.4062738
    },
    {
      "Name": "NORTHERN REGIONAL JAIL",
      "Address": "RD. 2, BOX 1",
      "City": "MOUNDSVILLE",
      "State": "WV",
      "Zip": "26041",
      "Male Crim": 1.0,
      "Male Non-Crim": 3.0,
      "Female Crim": 0.0,
      "Female Non-Crim": 0.0,
      "ICE Threat Level 1": 0.0,
      "ICE Threat Level 2": 0.0,
      "ICE Threat Level 3": 0.0,
      "No ICE Threat Level": 4.0,
      "latitude": 39.92221,
      "longitude": -80.74378
    },
    {
      "Name": "SOUTH CENTRAL REGIONAL JAIL",
      "Address": "1001 CENTER WAY",
      "City": "CHARLESTON",
      "State": "WV",
      "Zip": "25309",
      "Male Crim": 5.0,
      "Male Non-Crim": 8.0,
      "Female Crim": 0.0,
      "Female Non-Crim": 0.0,
      "ICE Threat Level 1": 0.0,
      "ICE Threat Level 2": 1.0,
      "ICE Threat Level 3": 1.0,
      "No ICE Threat Level": 11.0,
      "latitude": 38.31113857008232,
      "longitude": -81.71099978870323
    },
    {
      "Name": "WYATT DETENTION CENTER",
      "Address": "950 HIGH STREET",
      "City": "CENTRAL FALLS",
      "State": "RI",
      "Zip": "02863",
      "Male Crim": 53.0,
      "Male Non-Crim": 56.0,
      "Female Crim": 2.0,
      "Female Non-Crim": 2.0,
      "ICE Threat Level 1": 13.0,
      "ICE Threat Level 2": 2.0,
      "ICE Threat Level 3": 2.0,
      "No ICE Threat Level": 95.0,
      "latitude": 41.8928106,
      "longitude": -71.3831998
    }
  ]
}