{
  "metadata": {
    "source_file": "data/FY26_detentionStats12032025.xlsx",
    "extraction_date": "2025-12-03",
    "last_checked_date": "2025-12-09T12:40:53.589079",
    "total_facilities": 219,
    "source_date": "2025-12-03"
  },
  "facilities": [
    {
      "Name": "ADAMS COUNTY CORRECTIONAL CENTER",
      "Address": "20 HOBO FORK RD.",
      "City": "NATCHEZ",
      "State": "MS",
      "Zip": "39120",
      "Male Crim": 215.0,
      "Male Non-Crim": 2009.0,
      "Female Crim": 0.0,
      "Female Non-Crim": 0.0,
      "ICE Threat Level 1": 56.0,
      "ICE Threat Level 2": 64.0,
      "ICE Threat Level 3": 122.0,
      "No ICE Threat Level": 1982.0,
      "latitude": 31.5576266,
      "longitude": -91.221126
    },
    {
      "Name": "ADELANTO ICE PROCESSING CENTER",
      "Address": "10250 RANCHO ROAD",
      "City": "ADELANTO",
      "State": "CA",
      "Zip": "92301",
      "Male Crim": 730.0,
      "Male Non-Crim": 805.0,
      "Female Crim": 40.0,
      "Female Non-Crim": 209.0,
      "ICE Threat Level 1": 517.0,
      "ICE Threat Level 2": 186.0,
      "ICE Threat Level 3": 142.0,
      "No ICE Threat Level": 940.0,
      "latitude": 34.5599467,
      "longitude": -117.4421505
    },
    {
      "Name": "ALEXANDRIA STAGING FACILI",
      "Address": "96 GEORGE THOMPSON DR.",
      "City": "ALEXANDRIA",
      "State": "LA",
      "Zip": "71303",
      "Male Crim": 109.0,
      "Male Non-Crim": 319.0,
      "Female Crim": 0.0,
      "Female Non-Crim": 0.0,
      "ICE Threat Level 1": 57.0,
      "ICE Threat Level 2": 28.0,
      "ICE Threat Level 3": 41.0,
      "No ICE Threat Level": 304.0,
      "latitude": 31.317855,
      "longitude": -92.536606
    },
    {
      "Name": "ALLEGANY COUNTY JAIL",
      "Address": "4884 STATE ROUTE 19",
      "City": "BELMONT",
      "State": "NY",
      "Zip": "14813",
      "Male Crim": 0.0,
      "Male Non-Crim": 0.0,
      "Female Crim": 0.0,
      "Female Non-Crim": 5.0,
      "ICE Threat Level 1": 0.0,
      "ICE Threat Level 2": 0.0,
      "ICE Threat Level 3": 0.0,
      "No ICE Threat Level": 5.0,
      "latitude": 42.212952098118315,
      "longitude": -78.01655374441145
    },
    {
      "Name": "ALLEN PARISH PUBLIC SAFETY COMPLEX",
      "Address": "7340 HIGHWAY 26 WEST",
      "City": "OBERLIN",
      "State": "LA",
      "Zip": "70655",
      "Male Crim": 52.0,
      "Male Non-Crim": 94.0,
      "Female Crim": 0.0,
      "Female Non-Crim": 0.0,
      "ICE Threat Level 1": 34.0,
      "ICE Threat Level 2": 18.0,
      "ICE Threat Level 3": 3.0,
      "No ICE Threat Level": 90.0,
      "latitude": 30.624697320076855,
      "longitude": -92.78388873123045
    },
    {
      "Name": "ANCHORAGE CORRECTIONAL COMPLEX",
      "Address": "1400 E. 4TH AVE",
      "City": "ANCHORAGE",
      "State": "AK",
      "Zip": "99501",
      "Male Crim": 0.0,
      "Male Non-Crim": 3.0,
      "Female Crim": 0.0,
      "Female Non-Crim": 0.0,
      "ICE Threat Level 1": 0.0,
      "ICE Threat Level 2": 0.0,
      "ICE Threat Level 3": 0.0,
      "No ICE Threat Level": 3.0,
      "latitude": 61.2183804,
      "longitude": -149.857649
    },
    {
      "Name": "BAKER CORRECTIONAL INSTITUTION",
      "Address": "20706 US 90 W",
      "City": "SANDERSON",
      "State": "FL",
      "Zip": "32087",
      "Male Crim": 189.0,
      "Male Non-Crim": 569.0,
      "Female Crim": 0.0,
      "Female Non-Crim": 0.0,
      "ICE Threat Level 1": 107.0,
      "ICE Threat Level 2": 48.0,
      "ICE Threat Level 3": 68.0,
      "No ICE Threat Level": 535.0,
      "latitude": null,
      "longitude": null
    },
    {
      "Name": "BAKER COUNTY SHERIFF DEPT.",
      "Address": "1 SHERIFF OFFICE DRIVE",
      "City": "MACCLENNY",
      "State": "FL",
      "Zip": "32063",
      "Male Crim": 80.0,
      "Male Non-Crim": 100.0,
      "Female Crim": 30.0,
      "Female Non-Crim": 77.0,
      "ICE Threat Level 1": 59.0,
      "ICE Threat Level 2": 23.0,
      "ICE Threat Level 3": 35.0,
      "No ICE Threat Level": 170.0,
      "latitude": 30.296199564670268,
      "longitude": -82.12165470055466
    },
    {
      "Name": "BALDWIN COUNTY CORRECTIONAL CENTER",
      "Address": "200 HAND AVE.",
      "City": "BAY MINETTE",
      "State": "AL",
      "Zip": "36507",
      "Male Crim": 2.0,
      "Male Non-Crim": 12.0,
      "Female Crim": 0.0,
      "Female Non-Crim": 1.0,
      "ICE Threat Level 1": 1.0,
      "ICE Threat Level 2": 1.0,
      "ICE Threat Level 3": 1.0,
      "No ICE Threat Level": 12.0,
      "latitude": 30.88454,
      "longitude": -87.774769
    },
    {
      "Name": "BERLIN FED. CORR. INST.",
      "Address": "1 SUCCESS LOOP DR.",
      "City": "BERLIN",
      "State": "NH",
      "Zip": "03570",
      "Male Crim": 35.0,
      "Male Non-Crim": 166.0,
      "Female Crim": 0.0,
      "Female Non-Crim": 0.0,
      "ICE Threat Level 1": 17.0,
      "ICE Threat Level 2": 7.0,
      "ICE Threat Level 3": 14.0,
      "No ICE Threat Level": 164.0,
      "latitude": 44.519,
      "longitude": -71.13716
    },
    {
      "Name": "BLUEBONNET DETENTION FACILITY",
      "Address": "400 2ND STREET",
      "City": "ANSON",
      "State": "TX",
      "Zip": "79501",
      "Male Crim": 266.0,
      "Male Non-Crim": 660.0,
      "Female Crim": 7.0,
      "Female Non-Crim": 94.0,
      "ICE Threat Level 1": 122.0,
      "ICE Threat Level 2": 71.0,
      "ICE Threat Level 3": 101.0,
      "No ICE Threat Level": 733.0,
      "latitude": 32.7667663,
      "longitude": -99.8888312
    },
    {
      "Name": "BOONE COUNTY JAIL",
      "Address": "3020 CONRAD LANE",
      "City": "BURLINGTON",
      "State": "KY",
      "Zip": "41005",
      "Male Crim": 100.0,
      "Male Non-Crim": 93.0,
      "Female Crim": 0.0,
      "Female Non-Crim": 3.0,
      "ICE Threat Level 1": 38.0,
      "ICE Threat Level 2": 40.0,
      "ICE Threat Level 3": 32.0,
      "No ICE Threat Level": 86.0,
      "latitude": 39.0373257,
      "longitude": -84.7236669
    },
    {
      "Name": "BOURBON CO DET CENTER",
      "Address": "BOURBON CO COURTHOUSE, MAIN STREET",
      "City": "PARIS",
      "State": "KY",
      "Zip": "40361",
      "Male Crim": 1.0,
      "Male Non-Crim": 1.0,
      "Female Crim": 0.0,
      "Female Non-Crim": 0.0,
      "ICE Threat Level 1": 0.0,
      "ICE Threat Level 2": 0.0,
      "ICE Threat Level 3": 0.0,
      "No ICE Threat Level": 1.0,
      "latitude": 38.202541,
      "longitude": -84.261435
    },
    {
      "Name": "BROOKLYN MDC",
      "Address": "100 29TH STREET",
      "City": "BROOKLYN",
      "State": "NY",
      "Zip": "11232",
      "Male Crim": 30.0,
      "Male Non-Crim": 81.0,
      "Female Crim": 0.0,
      "Female Non-Crim": 0.0,
      "ICE Threat Level 1": 4.0,
      "ICE Threat Level 2": 12.0,
      "ICE Threat Level 3": 15.0,
      "No ICE Threat Level": 80.0,
      "latitude": 40.6597866,
      "longitude": -74.0029582
    },
    {
      "Name": "BROOKS COUNTY DETENTION CENTER",
      "Address": "901 COUNTY ROAD 201",
      "City": "FALFURRIAS",
      "State": "TX",
      "Zip": "78355",
      "Male Crim": 1.0,
      "Male Non-Crim": 14.0,
      "Female Crim": 0.0,
      "Female Non-Crim": 0.0,
      "ICE Threat Level 1": 0.0,
      "ICE Threat Level 2": 0.0,
      "ICE Threat Level 3": 1.0,
      "No ICE Threat Level": 14.0,
      "latitude": 27.2482748,
      "longitude": -98.1258468
    },
    {
      "Name": "BROOME COUNTY JAIL",
      "Address": "897 FRONT STREET",
      "City": "BINGHAMPTON",
      "State": "NY",
      "Zip": "13905",
      "Male Crim": 3.0,
      "Male Non-Crim": 43.0,
      "Female Crim": 0.0,
      "Female Non-Crim": 0.0,
      "ICE Threat Level 1": 1.0,
      "ICE Threat Level 2": 0.0,
      "ICE Threat Level 3": 3.0,
      "No ICE Threat Level": 42.0,
      "latitude": 42.13112754376308,
      "longitude": -75.91372588859112
    },
    {
      "Name": "BROWARD COUNTY JAIL",
      "Address": "555 SE 1ST AVENUE",
      "City": "FT.LAUDERDALE",
      "State": "FL",
      "Zip": "33301",
      "Male Crim": 0.0,
      "Male Non-Crim": 2.0,
      "Female Crim": 0.0,
      "Female Non-Crim": 0.0,
      "ICE Threat Level 1": 0.0,
      "ICE Threat Level 2": 0.0,
      "ICE Threat Level 3": 0.0,
      "No ICE Threat Level": 2.0,
      "latitude": 26.1162336,
      "longitude": -80.1423181
    },
    {
      "Name": "BROWARD TRANSITIONAL CENTER",
      "Address": "3900 NORTH POWERLINE ROAD",
      "City": "POMPANO BEACH",
      "State": " ",
      "Zip": "33073",
      "Male Crim": 70.0,
      "Male Non-Crim": 502.0,
      "Female Crim": 9.0,
      "Female Non-Crim": 94.0,
      "ICE Threat Level 1": 12.0,
      "ICE Threat Level 2": 22.0,
      "ICE Threat Level 3": 57.0,
      "No ICE Threat Level": 584.0,
      "latitude": 26.2772767,
      "longitude": -80.1509053
    },
    {
      "Name": "BUFFALO SERVICE PROCESSING CENTER",
      "Address": "4250 FEDERAL DRIVE",
      "City": "BATAVIA",
      "State": "NY",
      "Zip": "14020",
      "Male Crim": 152.0,
      "Male Non-Crim": 550.0,
      "Female Crim": 0.0,
      "Female Non-Crim": 0.0,
      "ICE Threat Level 1": 107.0,
      "ICE Threat Level 2": 24.0,
      "ICE Threat Level 3": 39.0,
      "No ICE Threat Level": 531.0,
      "latitude": 43.0203104,
      "longitude": -78.2024802
    },
    {
      "Name": "BURLEIGH COUNTY",
      "Address": "P.O. BOX 1416",
      "City": "BISMARCK",
      "State": "ND",
      "Zip": "58502",
      "Male Crim": 3.0,
      "Male Non-Crim": 10.0,
      "Female Crim": 0.0,
      "Female Non-Crim": 1.0,
      "ICE Threat Level 1": 1.0,
      "ICE Threat Level 2": 1.0,
      "ICE Threat Level 3": 1.0,
      "No ICE Threat Level": 10.0,
      "latitude": 46.11458,
      "longitude": -100.59055
    },
    {
      "Name": "BUTLER COUNTY JAIL",
      "Address": "705 HANOVER STREET",
      "City": "HAMILTON",
      "State": "OH",
      "Zip": "45011",
      "Male Crim": 65.0,
      "Male Non-Crim": 263.0,
      "Female Crim": 5.0,
      "Female Non-Crim": 22.0,
      "ICE Threat Level 1": 22.0,
      "ICE Threat Level 2": 19.0,
      "ICE Threat Level 3": 42.0,
      "No ICE Threat Level": 272.0,
      "latitude": 39.3881265,
      "longitude": -84.55588
    },
    {
      "Name": "CALHOUN COUNTY CORRECTIONAL CENTER",
      "Address": "185 EAST MICHIGAN AVENUE",
      "City": "BATTLE CREEK",
      "State": "MI",
      "Zip": "49014",
      "Male Crim": 22.0,
      "Male Non-Crim": 118.0,
      "Female Crim": 1.0,
      "Female Non-Crim": 16.0,
      "ICE Threat Level 1": 12.0,
      "ICE Threat Level 2": 4.0,
      "ICE Threat Level 3": 10.0,
      "No ICE Threat Level": 132.0,
      "latitude": 42.3166739,
      "longitude": -85.1758915
    },
    {
      "Name": "CALIFORNIA CITY IMMIGRATION PROCESSING CENTER",
      "Address": "22844 VIRGINIA BOULEVARD",
      "City": "CALIFORNIA CITY",
      "State": "CA",
      "Zip": "93505",
      "Male Crim": 252.0,
      "Male Non-Crim": 386.0,
      "Female Crim": 18.0,
      "Female Non-Crim": 145.0,
      "ICE Threat Level 1": 188.0,
      "ICE Threat Level 2": 41.0,
      "ICE Threat Level 3": 52.0,
      "No ICE Threat Level": 520.0,
      "latitude": 35.1531066,
      "longitude": -117.8591019
    },
    {
      "Name": "CAMBRIA COUNTY JAIL, PA",
      "Address": "425 MANOR DRIVE",
      "City": "EBENSBURG",
      "State": "PA",
      "Zip": "15931",
      "Male Crim": 1.0,
      "Male Non-Crim": 11.0,
      "Female Crim": 1.0,
      "Female Non-Crim": 4.0,
      "ICE Threat Level 1": 1.0,
      "ICE Threat Level 2": 1.0,
      "ICE Threat Level 3": 0.0,
      "No ICE Threat Level": 14.0,
      "latitude": 40.4843966,
      "longitude": -78.7012316
    },
    {
      "Name": "CAMPBELL CO DET CTR",
      "Address": "601 CENTRAL AVE",
      "City": "NEWPORT",
      "State": "KY",
      "Zip": "41071",
      "Male Crim": 28.0,
      "Male Non-Crim": 87.0,
      "Female Crim": 5.0,
      "Female Non-Crim": 18.0,
      "ICE Threat Level 1": 9.0,
      "ICE Threat Level 2": 11.0,
      "ICE Threat Level 3": 16.0,
      "No ICE Threat Level": 102.0,
      "latitude": 39.0887186,
      "longitude": -84.4969756
    },
    {
      "Name": "CAROLINE DETENTION FACILITY",
      "Address": "11093 S.W. LEWIS MEMORIAL DRIVE",
      "City": "BOWLING GREEN",
      "State": "VA",
      "Zip": "22427",
      "Male Crim": 114.0,
      "Male Non-Crim": 219.0,
      "Female Crim": 6.0,
      "Female Non-Crim": 7.0,
      "ICE Threat Level 1": 73.0,
      "ICE Threat Level 2": 29.0,
      "ICE Threat Level 3": 29.0,
      "No ICE Threat Level": 215.0,
      "latitude": 38.111865502490836,
      "longitude": -77.26723215987357
    },
    {
      "Name": "CASCADE COUNTY JAIL, MT",
      "Address": "3800 ULM NORTH FRONTAGE ROAD",
      "City": "GREAT FALLS",
      "State": "MT",
      "Zip": "59404",
      "Male Crim": 1.0,
      "Male Non-Crim": 2.0,
      "Female Crim": 0.0,
      "Female Non-Crim": 0.0,
      "ICE Threat Level 1": 1.0,
      "ICE Threat Level 2": 0.0,
      "ICE Threat Level 3": 1.0,
      "No ICE Threat Level": 1.0,
      "latitude": 47.4603145,
      "longitude": -111.404435
    },
    {
      "Name": "CCA, FLORENCE CORRECTIONAL CENTER",
      "Address": "1100 BOWLING ROAD",
      "City": "FLORENCE",
      "State": "AZ",
      "Zip": "85232",
      "Male Crim": 273.0,
      "Male Non-Crim": 301.0,
      "Female Crim": 0.0,
      "Female Non-Crim": 0.0,
      "ICE Threat Level 1": 149.0,
      "ICE Threat Level 2": 60.0,
      "ICE Threat Level 3": 80.0,
      "No ICE Threat Level": 286.0,
      "latitude": 33.0438338,
      "longitude": -111.371793
    },
    {
      "Name": "CENTRAL LOUISIANA ICE PROCESSING CENTER (CLIPC)",
      "Address": "830 PINEHILL ROAD",
      "City": "JENA",
      "State": " ",
      "Zip": "71342",
      "Male Crim": 262.0,
      "Male Non-Crim": 874.0,
      "Female Crim": 0.0,
      "Female Non-Crim": 0.0,
      "ICE Threat Level 1": 141.0,
      "ICE Threat Level 2": 60.0,
      "ICE Threat Level 3": 102.0,
      "No ICE Threat Level": 832.0,
      "latitude": 31.7088575,
      "longitude": -92.1529335
    },
    {
      "Name": "CHASE COUNTY JAIL",
      "Address": "301 SOUTH WALNUT STREET",
      "City": "COTTONWOOD FALL",
      "State": "KS",
      "Zip": "66845",
      "Male Crim": 36.0,
      "Male Non-Crim": 65.0,
      "Female Crim": 2.0,
      "Female Non-Crim": 9.0,
      "ICE Threat Level 1": 19.0,
      "ICE Threat Level 2": 7.0,
      "ICE Threat Level 3": 20.0,
      "No ICE Threat Level": 66.0,
      "latitude": 38.36801388495829,
      "longitude": -96.53868750219544
    },
    {
      "Name": "CHAVEZ DETENTION CENTER",
      "Address": "3701 S. ATKINSON",
      "City": "ROSWELL",
      "State": "NM",
      "Zip": "88201",
      "Male Crim": 0.0,
      "Male Non-Crim": 1.0,
      "Female Crim": 0.0,
      "Female Non-Crim": 0.0,
      "ICE Threat Level 1": 0.0,
      "ICE Threat Level 2": 0.0,
      "ICE Threat Level 3": 0.0,
      "No ICE Threat Level": 2.0,
      "latitude": 33.3516794,
      "longitude": -104.5055424
    },
    {
      "Name": "CHIPPEWA COUNTY SSM",
      "Address": "325 COURT STREET",
      "City": "SAULT STE MARIE",
      "State": "MI",
      "Zip": "49783",
      "Male Crim": 7.0,
      "Male Non-Crim": 31.0,
      "Female Crim": 0.0,
      "Female Non-Crim": 0.0,
      "ICE Threat Level 1": 3.0,
      "ICE Threat Level 2": 2.0,
      "ICE Threat Level 3": 3.0,
      "No ICE Threat Level": 31.0,
      "latitude": 46.4977347,
      "longitude": -84.3459656
    },
    {
      "Name": "CHITTENDEN REGIONAL CORRECTIONAL FACILITY",
      "Address": "7 FARRELL STREET",
      "City": "SOUTH BURLINGTON",
      "State": "VT",
      "Zip": "05403",
      "Male Crim": 0.0,
      "Male Non-Crim": 0.0,
      "Female Crim": 0.0,
      "Female Non-Crim": 6.0,
      "ICE Threat Level 1": 0.0,
      "ICE Threat Level 2": 0.0,
      "ICE Threat Level 3": 0.0,
      "No ICE Threat Level": 6.0,
      "latitude": 44.4464191,
      "longitude": -73.2054841
    },
    {
      "Name": "CHRISTIAN COUNTY JAIL",
      "Address": "410 WEST 7TH STREET,",
      "City": "HOPKINSVILLE",
      "State": "KY",
      "Zip": "42240",
      "Male Crim": 21.0,
      "Male Non-Crim": 68.0,
      "Female Crim": 0.0,
      "Female Non-Crim": 0.0,
      "ICE Threat Level 1": 13.0,
      "ICE Threat Level 2": 8.0,
      "ICE Threat Level 3": 6.0,
      "No ICE Threat Level": 61.0,
      "latitude": 36.8675054,
      "longitude": -87.4905017
    },
    {
      "Name": "CIBOLA COUNTY CORRECTIONAL CENTER",
      "Address": "2000 CIBOLA LOOP",
      "City": "MILAN",
      "State": "NM",
      "Zip": "87021",
      "Male Crim": 34.0,
      "Male Non-Crim": 183.0,
      "Female Crim": 0.0,
      "Female Non-Crim": 0.0,
      "ICE Threat Level 1": 12.0,
      "ICE Threat Level 2": 8.0,
      "ICE Threat Level 3": 16.0,
      "No ICE Threat Level": 181.0,
      "latitude": 35.18004057943829,
      "longitude": -107.9072294599532
    },
    {
      "Name": "CIMMARRON CORR FACILITY",
      "Address": "3700 S. KINGS HWY",
      "City": "CUSHING",
      "State": "OK",
      "Zip": "74023",
      "Male Crim": 174.0,
      "Male Non-Crim": 384.0,
      "Female Crim": 0.0,
      "Female Non-Crim": 0.0,
      "ICE Threat Level 1": 78.0,
      "ICE Threat Level 2": 45.0,
      "ICE Threat Level 3": 55.0,
      "No ICE Threat Level": 380.0,
      "latitude": 35.961173,
      "longitude": -96.7848408
    },
    {
      "Name": "CLARK COUNTY JAIL (IN)",
      "Address": "501 EAST COURT AVE.",
      "City": "JEFFERSONVILLE",
      "State": "IN",
      "Zip": "47130",
      "Male Crim": 7.0,
      "Male Non-Crim": 22.0,
      "Female Crim": 9.0,
      "Female Non-Crim": 55.0,
      "ICE Threat Level 1": 10.0,
      "ICE Threat Level 2": 3.0,
      "ICE Threat Level 3": 6.0,
      "No ICE Threat Level": 73.0,
      "latitude": 38.277682,
      "longitude": -85.7375976
    },
    {
      "Name": "CLAY COUNTY JUSTICE CENTER",
      "Address": "611 EAST JACKSON STREET",
      "City": "BRAZIL",
      "State": "IN",
      "Zip": "47834",
      "Male Crim": 70.0,
      "Male Non-Crim": 168.0,
      "Female Crim": 0.0,
      "Female Non-Crim": 1.0,
      "ICE Threat Level 1": 36.0,
      "ICE Threat Level 2": 22.0,
      "ICE Threat Level 3": 31.0,
      "No ICE Threat Level": 150.0,
      "latitude": 39.5236693,
      "longitude": -87.1191065
    },
    {
      "Name": "CLINTON COUNTY CORRECTIONAL FACILITY",
      "Address": "58 PINE MOUNTAIN RD.",
      "City": "MCELHATTAN",
      "State": "PA",
      "Zip": "17748",
      "Male Crim": 45.0,
      "Male Non-Crim": 30.0,
      "Female Crim": 4.0,
      "Female Non-Crim": 10.0,
      "ICE Threat Level 1": 39.0,
      "ICE Threat Level 2": 8.0,
      "ICE Threat Level 3": 3.0,
      "No ICE Threat Level": 38.0,
      "latitude": 41.1511182,
      "longitude": -77.3493663
    },
    {
      "Name": "CLINTON COUNTY JAIL",
      "Address": "25 MCCARTHY DRIVE",
      "City": "PLATTSBURGH",
      "State": "NY",
      "Zip": "12901",
      "Male Crim": 0.0,
      "Male Non-Crim": 1.0,
      "Female Crim": 0.0,
      "Female Non-Crim": 2.0,
      "ICE Threat Level 1": 0.0,
      "ICE Threat Level 2": 0.0,
      "ICE Threat Level 3": 0.0,
      "No ICE Threat Level": 3.0,
      "latitude": 44.7204627,
      "longitude": -73.467472
    },
    {
      "Name": "CLINTON COUNTY JAIL",
      "Address": "301 E WALNUT STREET",
      "City": "FRANKFORT",
      "State": "IN",
      "Zip": "46041",
      "Male Crim": 8.0,
      "Male Non-Crim": 11.0,
      "Female Crim": 3.0,
      "Female Non-Crim": 5.0,
      "ICE Threat Level 1": 6.0,
      "ICE Threat Level 2": 5.0,
      "ICE Threat Level 3": 2.0,
      "No ICE Threat Level": 15.0,
      "latitude": 40.2791153,
      "longitude": -86.5087576
    },
    {
      "Name": "COASTAL BEND DETENTION FACILITY",
      "Address": "4909 FM 2826",
      "City": "ROBSTOWN",
      "State": "TX",
      "Zip": "78380",
      "Male Crim": 8.0,
      "Male Non-Crim": 37.0,
      "Female Crim": 1.0,
      "Female Non-Crim": 4.0,
      "ICE Threat Level 1": 3.0,
      "ICE Threat Level 2": 2.0,
      "ICE Threat Level 3": 5.0,
      "No ICE Threat Level": 41.0,
      "latitude": 27.737232588266924,
      "longitude": -97.75467600061113
    },
    {
      "Name": "COLLIER COUNTY NAPLES JAIL CENTER",
      "Address": "3347 TAMIAMI TRAIL E",
      "City": "NAPLES",
      "State": "FL",
      "Zip": "34112",
      "Male Crim": 9.0,
      "Male Non-Crim": 17.0,
      "Female Crim": 1.0,
      "Female Non-Crim": 8.0,
      "ICE Threat Level 1": 3.0,
      "ICE Threat Level 2": 5.0,
      "ICE Threat Level 3": 8.0,
      "No ICE Threat Level": 19.0,
      "latitude": 26.1257654,
      "longitude": -81.7651214
    },
    {
      "Name": "CORR. CTR OF NORTHWEST OHIO",
      "Address": "3151 COUNTY ROAD 2425",
      "City": "STRYKER",
      "State": "OH",
      "Zip": "43557",
      "Male Crim": 5.0,
      "Male Non-Crim": 24.0,
      "Female Crim": 2.0,
      "Female Non-Crim": 38.0,
      "ICE Threat Level 1": 3.0,
      "ICE Threat Level 2": 0.0,
      "ICE Threat Level 3": 6.0,
      "No ICE Threat Level": 60.0,
      "latitude": null,
      "longitude": null
    },
    {
      "Name": "CROW WING COUNTY JAIL",
      "Address": "313 LAUREL ST",
      "City": "BRAINERD",
      "State": "MN",
      "Zip": "56401",
      "Male Crim": 1.0,
      "Male Non-Crim": 2.0,
      "Female Crim": 0.0,
      "Female Non-Crim": 0.0,
      "ICE Threat Level 1": 1.0,
      "ICE Threat Level 2": 0.0,
      "ICE Threat Level 3": 0.0,
      "No ICE Threat Level": 2.0,
      "latitude": 46.3567852,
      "longitude": -94.2052846
    },
    {
      "Name": "CUMBERLAND COUNTY JAIL",
      "Address": "50 COUNTY WAY",
      "City": "PORTLAND",
      "State": "ME",
      "Zip": "04102",
      "Male Crim": 20.0,
      "Male Non-Crim": 18.0,
      "Female Crim": 6.0,
      "Female Non-Crim": 18.0,
      "ICE Threat Level 1": 20.0,
      "ICE Threat Level 2": 6.0,
      "ICE Threat Level 3": 3.0,
      "No ICE Threat Level": 33.0,
      "latitude": 43.6508623,
      "longitude": -70.2816197
    },
    {
      "Name": "DAKOTA COUNTY JAIL",
      "Address": "1601 BROADWAY",
      "City": "DAKOTA CITY",
      "State": "NE",
      "Zip": "68731",
      "Male Crim": 9.0,
      "Male Non-Crim": 10.0,
      "Female Crim": 2.0,
      "Female Non-Crim": 2.0,
      "ICE Threat Level 1": 7.0,
      "ICE Threat Level 2": 4.0,
      "ICE Threat Level 3": 6.0,
      "No ICE Threat Level": 7.0,
      "latitude": 42.416218260076164,
      "longitude": -96.4198282400598
    },
    {
      "Name": "DALLAS COUNTY JAIL - LEW STERRETT JUSTICE CENTER",
      "Address": "111 WEST COMMERCE STREET",
      "City": "DALLAS",
      "State": "TX",
      "Zip": "75202",
      "Male Crim": 0.0,
      "Male Non-Crim": 1.0,
      "Female Crim": 0.0,
      "Female Non-Crim": 0.0,
      "ICE Threat Level 1": 0.0,
      "ICE Threat Level 2": 0.0,
      "ICE Threat Level 3": 0.0,
      "No ICE Threat Level": 1.0,
      "latitude": 32.7746483,
      "longitude": -96.8243069
    },
    {
      "Name": "DAVIESS COUNTY DETENTION",
      "Address": "3337 HIGHWAY 144",
      "City": "OWENSBORO",
      "State": "KY",
      "Zip": "42303",
      "Male Crim": 4.0,
      "Male Non-Crim": 11.0,
      "Female Crim": 0.0,
      "Female Non-Crim": 0.0,
      "ICE Threat Level 1": 2.0,
      "ICE Threat Level 2": 3.0,
      "ICE Threat Level 3": 5.0,
      "No ICE Threat Level": 6.0,
      "latitude": null,
      "longitude": null
    },
    {
      "Name": "DAVIS COUNTY",
      "Address": "800 WEST STATE STREET",
      "City": "FARMINGTON",
      "State": "UT",
      "Zip": "84025",
      "Male Crim": 1.0,
      "Male Non-Crim": 2.0,
      "Female Crim": 0.0,
      "Female Non-Crim": 0.0,
      "ICE Threat Level 1": 1.0,
      "ICE Threat Level 2": 1.0,
      "ICE Threat Level 3": 1.0,
      "No ICE Threat Level": 1.0,
      "latitude": null,
      "longitude": null
    },
    {
      "Name": "DELANEY HALL DETENTION FACILITY",
      "Address": "451 DOREMUS AVENUE",
      "City": "NEWARK",
      "State": "NJ",
      "Zip": "07105",
      "Male Crim": 71.0,
      "Male Non-Crim": 727.0,
      "Female Crim": 3.0,
      "Female Non-Crim": 54.0,
      "ICE Threat Level 1": 5.0,
      "ICE Threat Level 2": 27.0,
      "ICE Threat Level 3": 65.0,
      "No ICE Threat Level": 758.0,
      "latitude": 40.7187782,
      "longitude": -74.126752
    },
    {
      "Name": "DENVER CONTRACT DETENTION FACILITY",
      "Address": "3130 OAKLAND ST",
      "City": "AURORA",
      "State": "CO",
      "Zip": "80010",
      "Male Crim": 316.0,
      "Male Non-Crim": 685.0,
      "Female Crim": 28.0,
      "Female Non-Crim": 78.0,
      "ICE Threat Level 1": 162.0,
      "ICE Threat Level 2": 86.0,
      "ICE Threat Level 3": 112.0,
      "No ICE Threat Level": 747.0,
      "latitude": 39.760875,
      "longitude": -104.849087
    },
    {
      "Name": "DEPARTMENT OF CORRECTIONS HAGATNA",
      "Address": "203 ASPINAL AVE. PO BOX 3236",
      "City": "HAGATNA",
      "State": "GU",
      "Zip": "96910",
      "Male Crim": 4.0,
      "Male Non-Crim": 10.0,
      "Female Crim": 0.0,
      "Female Non-Crim": 1.0,
      "ICE Threat Level 1": 4.0,
      "ICE Threat Level 2": 0.0,
      "ICE Threat Level 3": 0.0,
      "No ICE Threat Level": 11.0,
      "latitude": 13.474342702816681,
      "longitude": 144.75024740290328
    },
    {
      "Name": "DESERT VIEW ANNEX",
      "Address": "10450 RANCHO ROAD",
      "City": "ADELANTO",
      "State": " ",
      "Zip": "92301",
      "Male Crim": 47.0,
      "Male Non-Crim": 353.0,
      "Female Crim": 0.0,
      "Female Non-Crim": 0.0,
      "ICE Threat Level 1": 8.0,
      "ICE Threat Level 2": 16.0,
      "ICE Threat Level 3": 29.0,
      "No ICE Threat Level": 346.0,
      "latitude": 34.557564,
      "longitude": -117.4431275
    },
    {
      "Name": "DILLEY IMMIGRATION PROCESSING CENTER",
      "Address": "300 EL RANCHO WAY",
      "City": "DILLEY",
      "State": "TX",
      "Zip": "78017",
      "Male Crim": 2.0,
      "Male Non-Crim": 170.0,
      "Female Crim": 5.0,
      "Female Non-Crim": 375.0,
      "ICE Threat Level 1": 1.0,
      "ICE Threat Level 2": 3.0,
      "ICE Threat Level 3": 7.0,
      "No ICE Threat Level": 541.0,
      "latitude": 28.658091009808814,
      "longitude": -99.20042911778089
    },
    {
      "Name": "DODGE COUNTY JAIL",
      "Address": "215 WEST CENTRAL STREET",
      "City": "JUNEAU",
      "State": "WI",
      "Zip": "53039",
      "Male Crim": 50.0,
      "Male Non-Crim": 46.0,
      "Female Crim": 0.0,
      "Female Non-Crim": 0.0,
      "ICE Threat Level 1": 21.0,
      "ICE Threat Level 2": 12.0,
      "ICE Threat Level 3": 20.0,
      "No ICE Threat Level": 44.0,
      "latitude": 43.40855649830141,
      "longitude": -88.70504618075388
    },
    {
      "Name": "DONA ANA COUNTY DETENTION CENTER",
      "Address": "1850 COPPER LOOP",
      "City": "LAS CRUCES",
      "State": "NM",
      "Zip": "88004",
      "Male Crim": 0.0,
      "Male Non-Crim": 0.0,
      "Female Crim": 1.0,
      "Female Non-Crim": 0.0,
      "ICE Threat Level 1": 0.0,
      "ICE Threat Level 2": 0.0,
      "ICE Threat Level 3": 0.0,
      "No ICE Threat Level": 1.0,
      "latitude": 32.3027055,
      "longitude": -106.8057985
    },
    {
      "Name": "DOUGLAS COUNTY",
      "Address": "1409 HAMMOND AVENUE",
      "City": "SUPERIOR",
      "State": "WI",
      "Zip": "54880",
      "Male Crim": 3.0,
      "Male Non-Crim": 19.0,
      "Female Crim": 0.0,
      "Female Non-Crim": 1.0,
      "ICE Threat Level 1": 0.0,
      "ICE Threat Level 2": 1.0,
      "ICE Threat Level 3": 3.0,
      "No ICE Threat Level": 18.0,
      "latitude": 46.7214838,
      "longitude": -92.0985348
    },
    {
      "Name": "EAST HIDALGO DETENTION CENTER",
      "Address": "1330 HIGHWAY 107",
      "City": "LA VILLA",
      "State": "TX",
      "Zip": "78562",
      "Male Crim": 2.0,
      "Male Non-Crim": 0.0,
      "Female Crim": 0.0,
      "Female Non-Crim": 0.0,
      "ICE Threat Level 1": 1.0,
      "ICE Threat Level 2": 1.0,
      "ICE Threat Level 3": 0.0,
      "No ICE Threat Level": 0.0,
      "latitude": 26.295748678577546,
      "longitude": -97.91819101612627
    },
    {
      "Name": "EASTERN REGIONAL JAIL",
      "Address": "94 GRAPEVINE RD",
      "City": "MARTINSBURG",
      "State": "WV",
      "Zip": "25401",
      "Male Crim": 1.0,
      "Male Non-Crim": 10.0,
      "Female Crim": 0.0,
      "Female Non-Crim": 0.0,
      "ICE Threat Level 1": 0.0,
      "ICE Threat Level 2": 0.0,
      "ICE Threat Level 3": 1.0,
      "No ICE Threat Level": 10.0,
      "latitude": 39.4358362,
      "longitude": -77.9563073
    },
    {
      "Name": "EDEN DETENTION CTR",
      "Address": "702 E BROADWAY ST",
      "City": "EDEN",
      "State": "TX",
      "Zip": "76837",
      "Male Crim": 55.0,
      "Male Non-Crim": 349.0,
      "Female Crim": 0.0,
      "Female Non-Crim": 0.0,
      "ICE Threat Level 1": 11.0,
      "ICE Threat Level 2": 14.0,
      "ICE Threat Level 3": 35.0,
      "No ICE Threat Level": 344.0,
      "latitude": 31.2175083,
      "longitude": -99.8339599
    },
    {
      "Name": "EL PASO COUNTY DETENTION FACILITY",
      "Address": "601 E. OVERLAND",
      "City": "EL PASO",
      "State": "TX",
      "Zip": "79901",
      "Male Crim": 0.0,
      "Male Non-Crim": 3.0,
      "Female Crim": 0.0,
      "Female Non-Crim": 0.0,
      "ICE Threat Level 1": 0.0,
      "ICE Threat Level 2": 0.0,
      "ICE Threat Level 3": 0.0,
      "No ICE Threat Level": 3.0,
      "latitude": 31.7585318,
      "longitude": -106.4831449
    },
    {
      "Name": "EL PASO SERVICE PROCESSING CENTER",
      "Address": "8915 MONTANA AVE.",
      "City": "EL PASO",
      "State": "TX",
      "Zip": "79925",
      "Male Crim": 218.0,
      "Male Non-Crim": 373.0,
      "Female Crim": 57.0,
      "Female Non-Crim": 168.0,
      "ICE Threat Level 1": 123.0,
      "ICE Threat Level 2": 60.0,
      "ICE Threat Level 3": 105.0,
      "No ICE Threat Level": 529.0,
      "latitude": 31.7934217,
      "longitude": -106.3691494
    },
    {
      "Name": "EL VALLE DETENTION FACILITY",
      "Address": "1800 INDUSTRIAL DRIVE",
      "City": "RAYMONDVILLE",
      "State": "TX",
      "Zip": "78580",
      "Male Crim": 135.0,
      "Male Non-Crim": 398.0,
      "Female Crim": 27.0,
      "Female Non-Crim": 350.0,
      "ICE Threat Level 1": 86.0,
      "ICE Threat Level 2": 46.0,
      "ICE Threat Level 3": 58.0,
      "No ICE Threat Level": 720.0,
      "latitude": 26.467581958871495,
      "longitude": -97.76228788899171
    },
    {
      "Name": "ELIZABETH CONTRACT DETENTION FACILITY",
      "Address": "625 EVANS STREET",
      "City": "ELIZABETH",
      "State": "NJ",
      "Zip": "07201",
      "Male Crim": 47.0,
      "Male Non-Crim": 220.0,
      "Female Crim": 3.0,
      "Female Non-Crim": 23.0,
      "ICE Threat Level 1": 26.0,
      "ICE Threat Level 2": 15.0,
      "ICE Threat Level 3": 19.0,
      "No ICE Threat Level": 232.0,
      "latitude": 40.6662036,
      "longitude": -74.1896718
    },
    {
      "Name": "ELMORE COUNTY JAIL",
      "Address": "2255 E. 8TH NORTH",
      "City": "MOUNTAIN HOME",
      "State": "ID",
      "Zip": "83647",
      "Male Crim": 3.0,
      "Male Non-Crim": 7.0,
      "Female Crim": 0.0,
      "Female Non-Crim": 1.0,
      "ICE Threat Level 1": 1.0,
      "ICE Threat Level 2": 2.0,
      "ICE Threat Level 3": 2.0,
      "No ICE Threat Level": 5.0,
      "latitude": 43.1363262,
      "longitude": -115.6730371
    },
    {
      "Name": "ELOY FEDERAL CONTRACT FACILITY",
      "Address": "1705 EAST HANNA RD.",
      "City": "ELOY",
      "State": "AZ",
      "Zip": "85131",
      "Male Crim": 211.0,
      "Male Non-Crim": 583.0,
      "Female Crim": 94.0,
      "Female Non-Crim": 428.0,
      "ICE Threat Level 1": 139.0,
      "ICE Threat Level 2": 82.0,
      "ICE Threat Level 3": 115.0,
      "No ICE Threat Level": 980.0,
      "latitude": 32.8176772,
      "longitude": -111.51927
    },
    {
      "Name": "ERIE COUNTY JAIL",
      "Address": "DEPARTMENT OF CORRECTIONS 1618 ASH STREET",
      "City": "ERIE",
      "State": "PA",
      "Zip": "16503",
      "Male Crim": 0.0,
      "Male Non-Crim": 11.0,
      "Female Crim": 0.0,
      "Female Non-Crim": 0.0,
      "ICE Threat Level 1": 0.0,
      "ICE Threat Level 2": 0.0,
      "ICE Threat Level 3": 1.0,
      "No ICE Threat Level": 11.0,
      "latitude": 42.12425044860252,
      "longitude": -80.06653529654119
    },
    {
      "Name": "ERO EL PASO CAMP EAST MONTANA",
      "Address": "6920 DIGITAL RD",
      "City": "EL PASO",
      "State": "TX",
      "Zip": "79936",
      "Male Crim": 509.0,
      "Male Non-Crim": 2026.0,
      "Female Crim": 26.0,
      "Female Non-Crim": 212.0,
      "ICE Threat Level 1": 217.0,
      "ICE Threat Level 2": 137.0,
      "ICE Threat Level 3": 225.0,
      "No ICE Threat Level": 2194.0,
      "latitude": 31.769428,
      "longitude": -106.303596
    },
    {
      "Name": "ETOWAH COUNTY JAIL",
      "Address": "827 FORREST AVENUE",
      "City": "GADSDEN",
      "State": "AL",
      "Zip": "35901",
      "Male Crim": 13.0,
      "Male Non-Crim": 53.0,
      "Female Crim": 2.0,
      "Female Non-Crim": 12.0,
      "ICE Threat Level 1": 8.0,
      "ICE Threat Level 2": 6.0,
      "ICE Threat Level 3": 7.0,
      "No ICE Threat Level": 59.0,
      "latitude": 34.0161208,
      "longitude": -86.012499
    },
    {
      "Name": "FARMVILLE DETENTION CENTER",
      "Address": "508 WATERWORKS ROAD",
      "City": "FARMVILLE",
      "State": "VA",
      "Zip": "23901",
      "Male Crim": 177.0,
      "Male Non-Crim": 536.0,
      "Female Crim": 0.0,
      "Female Non-Crim": 0.0,
      "ICE Threat Level 1": 93.0,
      "ICE Threat Level 2": 45.0,
      "ICE Threat Level 3": 66.0,
      "No ICE Threat Level": 509.0,
      "latitude": 37.3193665,
      "longitude": -78.4382314
    },
    {
      "Name": "FAYETTE COUNTY DETENTION CENTER",
      "Address": "600 OLD FRANKFORD CR",
      "City": "LEXINGTON",
      "State": "KY",
      "Zip": "40510",
      "Male Crim": 1.0,
      "Male Non-Crim": 1.0,
      "Female Crim": 0.0,
      "Female Non-Crim": 0.0,
      "ICE Threat Level 1": 1.0,
      "ICE Threat Level 2": 0.0,
      "ICE Threat Level 3": 0.0,
      "No ICE Threat Level": 1.0,
      "latitude": 38.06555828124883,
      "longitude": -84.54565987336858
    },
    {
      "Name": "FCI ATLANTA",
      "Address": "601 MCDONOUGH BOULEVARD, SE",
      "City": "ATLANTA",
      "State": "GA",
      "Zip": "30315",
      "Male Crim": 45.0,
      "Male Non-Crim": 70.0,
      "Female Crim": 0.0,
      "Female Non-Crim": 0.0,
      "ICE Threat Level 1": 14.0,
      "ICE Threat Level 2": 18.0,
      "ICE Threat Level 3": 17.0,
      "No ICE Threat Level": 67.0,
      "latitude": 33.71204679097549,
      "longitude": -84.37111710232016
    },
    {
      "Name": "FDC PHILADELPHIA",
      "Address": "700 ARCH ST.",
      "City": "PHILADELPHIA",
      "State": "PA",
      "Zip": "19106",
      "Male Crim": 8.0,
      "Male Non-Crim": 86.0,
      "Female Crim": 0.0,
      "Female Non-Crim": 0.0,
      "ICE Threat Level 1": 5.0,
      "ICE Threat Level 2": 2.0,
      "ICE Threat Level 3": 4.0,
      "No ICE Threat Level": 83.0,
      "latitude": 39.9525541,
      "longitude": -75.1520216
    },
    {
      "Name": "FINNEY COUNTY JAIL",
      "Address": "304 N. 9TH STREET",
      "City": "GARDEN CITY",
      "State": "KS",
      "Zip": "67846",
      "Male Crim": 1.0,
      "Male Non-Crim": 1.0,
      "Female Crim": 0.0,
      "Female Non-Crim": 0.0,
      "ICE Threat Level 1": 0.0,
      "ICE Threat Level 2": 0.0,
      "ICE Threat Level 3": 0.0,
      "No ICE Threat Level": 1.0,
      "latitude": 37.9674162,
      "longitude": -100.876362
    },
    {
      "Name": "FLORENCE SERVICE PROCESSING CENTER",
      "Address": "3250 NORTH PINAL PARKWAY",
      "City": "FLORENCE",
      "State": "AZ",
      "Zip": "85132",
      "Male Crim": 60.0,
      "Male Non-Crim": 261.0,
      "Female Crim": 0.0,
      "Female Non-Crim": 1.0,
      "ICE Threat Level 1": 10.0,
      "ICE Threat Level 2": 10.0,
      "ICE Threat Level 3": 53.0,
      "No ICE Threat Level": 249.0,
      "latitude": 33.0630048,
      "longitude": -111.3790857
    },
    {
      "Name": "FLORENCE STAGING FACILITY",
      "Address": "3250 NORTH PINAL PARKWAY",
      "City": "FLORENCE",
      "State": "AZ",
      "Zip": "85232",
      "Male Crim": 82.0,
      "Male Non-Crim": 169.0,
      "Female Crim": 3.0,
      "Female Non-Crim": 16.0,
      "ICE Threat Level 1": 55.0,
      "ICE Threat Level 2": 23.0,
      "ICE Threat Level 3": 36.0,
      "No ICE Threat Level": 156.0,
      "latitude": 33.0640298,
      "longitude": -111.3825565
    },
    {
      "Name": "FLORIDA SOFT-SIDED FACILITY",
      "Address": "54575 TAMIAMI TRL E",
      "City": "OCHOPEE",
      "State": "FL",
      "Zip": "34141",
      "Male Crim": 297.0,
      "Male Non-Crim": 928.0,
      "Female Crim": 0.0,
      "Female Non-Crim": 0.0,
      "ICE Threat Level 1": 214.0,
      "ICE Threat Level 2": 51.0,
      "ICE Threat Level 3": 90.0,
      "No ICE Threat Level": 870.0,
      "latitude": 25.8988938,
      "longitude": -81.2883856
    },
    {
      "Name": "FOLKSTON ANNEX IPC",
      "Address": "3424 HWY 252 EAST",
      "City": "FOLKSTON",
      "State": "GA",
      "Zip": "31537",
      "Male Crim": 79.0,
      "Male Non-Crim": 200.0,
      "Female Crim": 0.0,
      "Female Non-Crim": 0.0,
      "ICE Threat Level 1": 38.0,
      "ICE Threat Level 2": 27.0,
      "ICE Threat Level 3": 20.0,
      "No ICE Threat Level": 194.0,
      "latitude": null,
      "longitude": null
    },
    {
      "Name": "FOLKSTON D RAY ICE PROCESSING CTR",
      "Address": "3262 HIGHWAY 252",
      "City": "FOLKSTON",
      "State": "GA",
      "Zip": "31537",
      "Male Crim": 121.0,
      "Male Non-Crim": 654.0,
      "Female Crim": 0.0,
      "Female Non-Crim": 0.0,
      "ICE Threat Level 1": 34.0,
      "ICE Threat Level 2": 33.0,
      "ICE Threat Level 3": 72.0,
      "No ICE Threat Level": 635.0,
      "latitude": 30.874568,
      "longitude": -81.978308
    },
    {
      "Name": "FOLKSTON MAIN IPC",
      "Address": "3026 HWY 252 EAST",
      "City": "FOLKSTON",
      "State": "GA",
      "Zip": "31537",
      "Male Crim": 204.0,
      "Male Non-Crim": 471.0,
      "Female Crim": 0.0,
      "Female Non-Crim": 0.0,
      "ICE Threat Level 1": 75.0,
      "ICE Threat Level 2": 63.0,
      "ICE Threat Level 3": 83.0,
      "No ICE Threat Level": 454.0,
      "latitude": 30.876482215607357,
      "longitude": -81.9779839158829
    },
    {
      "Name": "FRANKLIN COUNTY JAIL",
      "Address": "625 FRANKLIN FARM LN",
      "City": "CHAMBERSBURG",
      "State": "PA",
      "Zip": "17201",
      "Male Crim": 0.0,
      "Male Non-Crim": 1.0,
      "Female Crim": 0.0,
      "Female Non-Crim": 0.0,
      "ICE Threat Level 1": 0.0,
      "ICE Threat Level 2": 0.0,
      "ICE Threat Level 3": 0.0,
      "No ICE Threat Level": 1.0,
      "latitude": null,
      "longitude": null
    },
    {
      "Name": "FREEBORN COUNTY ADULT DETENTION CENTER",
      "Address": "411 SOUTH BROADWAY AVENUE",
      "City": "ALBERT LEA",
      "State": "MN",
      "Zip": "56007",
      "Male Crim": 39.0,
      "Male Non-Crim": 42.0,
      "Female Crim": 0.0,
      "Female Non-Crim": 0.0,
      "ICE Threat Level 1": 25.0,
      "ICE Threat Level 2": 7.0,
      "ICE Threat Level 3": 12.0,
      "No ICE Threat Level": 37.0,
      "latitude": 43.6461475,
      "longitude": -93.3680658
    },
    {
      "Name": "FULTON CO JAIL INDIANA",
      "Address": "2006 SWEETGUM RD",
      "City": "ROCHESTER",
      "State": "IN",
      "Zip": "46975",
      "Male Crim": 2.0,
      "Male Non-Crim": 2.0,
      "Female Crim": 0.0,
      "Female Non-Crim": 0.0,
      "ICE Threat Level 1": 1.0,
      "ICE Threat Level 2": 0.0,
      "ICE Threat Level 3": 1.0,
      "No ICE Threat Level": 2.0,
      "latitude": 41.0519841,
      "longitude": -86.2318261
    },
    {
      "Name": "GEAUGA COUNTY JAIL",
      "Address": "12450 MERRITT DR",
      "City": "CHARDON",
      "State": "OH",
      "Zip": "44024",
      "Male Crim": 2.0,
      "Male Non-Crim": 13.0,
      "Female Crim": 2.0,
      "Female Non-Crim": 7.0,
      "ICE Threat Level 1": 3.0,
      "ICE Threat Level 2": 0.0,
      "ICE Threat Level 3": 0.0,
      "No ICE Threat Level": 21.0,
      "latitude": 41.504827833000164,
      "longitude": -81.19154084443294
    },
    {
      "Name": "GLADES COUNTY DETENTION CENTER",
      "Address": "1297 EAST SR 78",
      "City": "MOORE HAVEN",
      "State": "FL",
      "Zip": "33471",
      "Male Crim": 50.0,
      "Male Non-Crim": 416.0,
      "Female Crim": 0.0,
      "Female Non-Crim": 0.0,
      "ICE Threat Level 1": 10.0,
      "ICE Threat Level 2": 17.0,
      "ICE Threat Level 3": 34.0,
      "No ICE Threat Level": 405.0,
      "latitude": 26.83880034675664,
      "longitude": -81.12392113131328
    },
    {
      "Name": "GOLDEN STATE ANNEX",
      "Address": "611 FRONTAGE RD",
      "City": "MCFARLAND",
      "State": "CA",
      "Zip": "93250",
      "Male Crim": 263.0,
      "Male Non-Crim": 357.0,
      "Female Crim": 0.0,
      "Female Non-Crim": 0.0,
      "ICE Threat Level 1": 179.0,
      "ICE Threat Level 2": 48.0,
      "ICE Threat Level 3": 52.0,
      "No ICE Threat Level": 341.0,
      "latitude": 35.667329,
      "longitude": -119.225036
    },
    {
      "Name": "GRAND FORKS COUNTY CORRECTIONAL FACILITY",
      "Address": "1701 NORTH WASHINGTON ST",
      "City": "GRAND FORKS",
      "State": "ND",
      "Zip": "58203",
      "Male Crim": 6.0,
      "Male Non-Crim": 9.0,
      "Female Crim": 1.0,
      "Female Non-Crim": 2.0,
      "ICE Threat Level 1": 0.0,
      "ICE Threat Level 2": 4.0,
      "ICE Threat Level 3": 4.0,
      "No ICE Threat Level": 11.0,
      "latitude": 47.935792,
      "longitude": -97.055851
    },
    {
      "Name": "GRAYSON COUNTY JAIL",
      "Address": "320 SHAW STATION ROAD",
      "City": "LEITCHFIELD",
      "State": "KY",
      "Zip": "42754",
      "Male Crim": 4.0,
      "Male Non-Crim": 3.0,
      "Female Crim": 25.0,
      "Female Non-Crim": 121.0,
      "ICE Threat Level 1": 12.0,
      "ICE Threat Level 2": 10.0,
      "ICE Threat Level 3": 10.0,
      "No ICE Threat Level": 121.0,
      "latitude": 37.4890391,
      "longitude": -86.2702303
    },
    {
      "Name": "GREENE COUNTY JAIL",
      "Address": "1199 N HASELTINE RD",
      "City": "SPRINGFIELD",
      "State": "MO",
      "Zip": "65802",
      "Male Crim": 56.0,
      "Male Non-Crim": 187.0,
      "Female Crim": 7.0,
      "Female Non-Crim": 23.0,
      "ICE Threat Level 1": 24.0,
      "ICE Threat Level 2": 15.0,
      "ICE Threat Level 3": 35.0,
      "No ICE Threat Level": 199.0,
      "latitude": 37.2227197,
      "longitude": -93.385532
    },
    {
      "Name": "HALL COUNTY DEPARTMENT OF CORRECTIONS",
      "Address": "110 PUBLIC SAFETY DRIVE",
      "City": "GRAND ISLAND",
      "State": "NE",
      "Zip": "68801",
      "Male Crim": 6.0,
      "Male Non-Crim": 8.0,
      "Female Crim": 0.0,
      "Female Non-Crim": 0.0,
      "ICE Threat Level 1": 2.0,
      "ICE Threat Level 2": 3.0,
      "ICE Threat Level 3": 4.0,
      "No ICE Threat Level": 6.0,
      "latitude": 40.92663,
      "longitude": -98.32841
    },
    {
      "Name": "HANCOCK COUNTY PUBLIC SAFETY COMPLEX",
      "Address": "8450 HIGHWAY 90",
      "City": "BAY ST. LOUIS",
      "State": "MS",
      "Zip": "39520",
      "Male Crim": 4.0,
      "Male Non-Crim": 21.0,
      "Female Crim": 0.0,
      "Female Non-Crim": 3.0,
      "ICE Threat Level 1": 1.0,
      "ICE Threat Level 2": 1.0,
      "ICE Threat Level 3": 2.0,
      "No ICE Threat Level": 23.0,
      "latitude": 30.303815869350622,
      "longitude": -89.4759421177441
    },
    {
      "Name": "HARDIN COUNTY JAIL",
      "Address": "1116 14TH AVENUE",
      "City": "ELDORA",
      "State": "IA",
      "Zip": "50627",
      "Male Crim": 25.0,
      "Male Non-Crim": 11.0,
      "Female Crim": 0.0,
      "Female Non-Crim": 0.0,
      "ICE Threat Level 1": 11.0,
      "ICE Threat Level 2": 8.0,
      "ICE Threat Level 3": 8.0,
      "No ICE Threat Level": 10.0,
      "latitude": 42.3598449,
      "longitude": -93.0973711
    },
    {
      "Name": "HENDERSON DETENTION",
      "Address": "18 E BASIC ROAD",
      "City": "HENDERSON",
      "State": "NV",
      "Zip": "89015",
      "Male Crim": 28.0,
      "Male Non-Crim": 47.0,
      "Female Crim": 4.0,
      "Female Non-Crim": 14.0,
      "ICE Threat Level 1": 16.0,
      "ICE Threat Level 2": 7.0,
      "ICE Threat Level 3": 13.0,
      "No ICE Threat Level": 57.0,
      "latitude": 36.0308679,
      "longitude": -114.9780973
    },
    {
      "Name": "HONOLULU FEDERAL DETENTION CENTER",
      "Address": "351 ELLIOTT ST.",
      "City": "HONOLULU",
      "State": "HI",
      "Zip": "96819",
      "Male Crim": 19.0,
      "Male Non-Crim": 51.0,
      "Female Crim": 0.0,
      "Female Non-Crim": 11.0,
      "ICE Threat Level 1": 11.0,
      "ICE Threat Level 2": 6.0,
      "ICE Threat Level 3": 5.0,
      "No ICE Threat Level": 60.0,
      "latitude": 21.3332122,
      "longitude": -157.9283542
    },
    {
      "Name": "HOPKINS COUNTY JAIL",
      "Address": "2250 LAFOON TRAIL",
      "City": "MADISONVILLE",
      "State": "KY",
      "Zip": "42431",
      "Male Crim": 47.0,
      "Male Non-Crim": 115.0,
      "Female Crim": 0.0,
      "Female Non-Crim": 4.0,
      "ICE Threat Level 1": 23.0,
      "ICE Threat Level 2": 13.0,
      "ICE Threat Level 3": 14.0,
      "No ICE Threat Level": 115.0,
      "latitude": 37.337886976243404,
      "longitude": -87.54013518688257
    },
    {
      "Name": "HOUSTON CONTRACT DETENTION FACILITY",
      "Address": "15850 EXPORT PLAZA DRIVE",
      "City": "HOUSTON",
      "State": "TX",
      "Zip": "77032",
      "Male Crim": 148.0,
      "Male Non-Crim": 414.0,
      "Female Crim": 57.0,
      "Female Non-Crim": 262.0,
      "ICE Threat Level 1": 97.0,
      "ICE Threat Level 2": 47.0,
      "ICE Threat Level 3": 77.0,
      "No ICE Threat Level": 661.0,
      "latitude": 29.9508332,
      "longitude": -95.3121699
    },
    {
      "Name": "IAH SECURE ADULT DETENTION FACILITY (POLK)",
      "Address": "3400 FM 350 SOUTH",
      "City": "LIVINGSTON",
      "State": "TX",
      "Zip": "77351",
      "Male Crim": 263.0,
      "Male Non-Crim": 593.0,
      "Female Crim": 0.0,
      "Female Non-Crim": 0.0,
      "ICE Threat Level 1": 92.0,
      "ICE Threat Level 2": 73.0,
      "ICE Threat Level 3": 114.0,
      "No ICE Threat Level": 576.0,
      "latitude": 30.6981513,
      "longitude": -95.0057915
    },
    {
      "Name": "IMPERIAL REGIONAL DETENTION FACILITY",
      "Address": "1572 GATEWAY",
      "City": "CALEXICO",
      "State": "CA",
      "Zip": "92231",
      "Male Crim": 92.0,
      "Male Non-Crim": 494.0,
      "Female Crim": 2.0,
      "Female Non-Crim": 54.0,
      "ICE Threat Level 1": 39.0,
      "ICE Threat Level 2": 27.0,
      "ICE Threat Level 3": 36.0,
      "No ICE Threat Level": 539.0,
      "latitude": 32.69032325025824,
      "longitude": -115.39756848885183
    },
    {
      "Name": "IRWIN COUNTY DETENTION CENTER",
      "Address": "132 COTTON DRIVE",
      "City": "OCILLA",
      "State": "GA",
      "Zip": "31772",
      "Male Crim": 22.0,
      "Male Non-Crim": 51.0,
      "Female Crim": 0.0,
      "Female Non-Crim": 5.0,
      "ICE Threat Level 1": 10.0,
      "ICE Threat Level 2": 9.0,
      "ICE Threat Level 3": 13.0,
      "No ICE Threat Level": 46.0,
      "latitude": 31.5825364,
      "longitude": -83.2566799
    },
    {
      "Name": "JACKSON PARISH CORRECTIONAL CENTER",
      "Address": "327 INDUSTRIAL DRIVE",
      "City": "JONESBORO",
      "State": "LA",
      "Zip": "71251",
      "Male Crim": 174.0,
      "Male Non-Crim": 1031.0,
      "Female Crim": 0.0,
      "Female Non-Crim": 1.0,
      "ICE Threat Level 1": 71.0,
      "ICE Threat Level 2": 40.0,
      "ICE Threat Level 3": 84.0,
      "No ICE Threat Level": 1011.0,
      "latitude": 32.2158449,
      "longitude": -92.7178317
    },
    {
      "Name": "JEFFERSON COUNTY JAIL",
      "Address": "219 EAST FREMONT AVENUE",
      "City": "RIGBY",
      "State": "ID",
      "Zip": "83442",
      "Male Crim": 1.0,
      "Male Non-Crim": 6.0,
      "Female Crim": 0.0,
      "Female Non-Crim": 0.0,
      "ICE Threat Level 1": 0.0,
      "ICE Threat Level 2": 1.0,
      "ICE Threat Level 3": 2.0,
      "No ICE Threat Level": 5.0,
      "latitude": 43.6733525,
      "longitude": -111.9115662
    },
    {
      "Name": "JOE CORLEY PROCESSING CTR",
      "Address": "500 HILBIG RD",
      "City": "CONROE",
      "State": "TX",
      "Zip": "77301",
      "Male Crim": 163.0,
      "Male Non-Crim": 752.0,
      "Female Crim": 0.0,
      "Female Non-Crim": 0.0,
      "ICE Threat Level 1": 61.0,
      "ICE Threat Level 2": 40.0,
      "ICE Threat Level 3": 76.0,
      "No ICE Threat Level": 737.0,
      "latitude": 30.3359939,
      "longitude": -95.4481982
    },
    {
      "Name": "KANDIYOHI COUNTY JAIL",
      "Address": "2201 23RD ST NE",
      "City": "WILLMAR",
      "State": "MN",
      "Zip": "56201",
      "Male Crim": 44.0,
      "Male Non-Crim": 57.0,
      "Female Crim": 3.0,
      "Female Non-Crim": 6.0,
      "ICE Threat Level 1": 24.0,
      "ICE Threat Level 2": 13.0,
      "ICE Threat Level 3": 12.0,
      "No ICE Threat Level": 60.0,
      "latitude": 45.1458557,
      "longitude": -95.0144842
    },
    {
      "Name": "KANSAS CITY HOLDROOM",
      "Address": "9747 NW CONANT AVENUE",
      "City": "KANSAS CITY",
      "State": "MO",
      "Zip": "64153",
      "Male Crim": 1.0,
      "Male Non-Crim": 1.0,
      "Female Crim": 0.0,
      "Female Non-Crim": 0.0,
      "ICE Threat Level 1": 1.0,
      "ICE Threat Level 2": 0.0,
      "ICE Threat Level 3": 0.0,
      "No ICE Threat Level": 2.0,
      "latitude": 39.2449827,
      "longitude": -94.6754297
    },
    {
      "Name": "KARNES COUNTY CORRECTIONAL CENTER",
      "Address": "810 COMMERCE STREET",
      "City": "KARNES CITY",
      "State": "TX",
      "Zip": "78118",
      "Male Crim": 2.0,
      "Male Non-Crim": 0.0,
      "Female Crim": 0.0,
      "Female Non-Crim": 0.0,
      "ICE Threat Level 1": 0.0,
      "ICE Threat Level 2": 2.0,
      "ICE Threat Level 3": 0.0,
      "No ICE Threat Level": 0.0,
      "latitude": 28.883485,
      "longitude": -97.9118481
    },
    {
      "Name": "KARNES COUNTY IMMIGRATION PROCESSING CENTER",
      "Address": "409 FM 1144",
      "City": "KARNES CITY",
      "State": "TX",
      "Zip": "78118",
      "Male Crim": 35.0,
      "Male Non-Crim": 784.0,
      "Female Crim": 39.0,
      "Female Non-Crim": 328.0,
      "ICE Threat Level 1": 1.0,
      "ICE Threat Level 2": 6.0,
      "ICE Threat Level 3": 73.0,
      "No ICE Threat Level": 1105.0,
      "latitude": 28.8849121,
      "longitude": -97.8977348
    },
    {
      "Name": "KAY CO JUSTICE FACILITY",
      "Address": "1101 WEST DRY ROAD",
      "City": "NEWKIRK",
      "State": "OK",
      "Zip": "74647",
      "Male Crim": 56.0,
      "Male Non-Crim": 107.0,
      "Female Crim": 0.0,
      "Female Non-Crim": 0.0,
      "ICE Threat Level 1": 26.0,
      "ICE Threat Level 2": 18.0,
      "ICE Threat Level 3": 20.0,
      "No ICE Threat Level": 99.0,
      "latitude": 36.86806507097945,
      "longitude": -97.06923720408514
    },
    {
      "Name": "KENTON COUNTY JAIL",
      "Address": "3000 DECKER CRANE LANE",
      "City": "COVINGTON",
      "State": "KY",
      "Zip": "41017",
      "Male Crim": 38.0,
      "Male Non-Crim": 63.0,
      "Female Crim": 0.0,
      "Female Non-Crim": 0.0,
      "ICE Threat Level 1": 9.0,
      "ICE Threat Level 2": 16.0,
      "ICE Threat Level 3": 19.0,
      "No ICE Threat Level": 56.0,
      "latitude": 39.002731,
      "longitude": -84.531531
    },
    {
      "Name": "KNOX COUNTY DETENTION FACILITY",
      "Address": "5001 MALONEYVILLE RD",
      "City": "KNOXVILLE",
      "State": "TN",
      "Zip": "37918",
      "Male Crim": 5.0,
      "Male Non-Crim": 17.0,
      "Female Crim": 1.0,
      "Female Non-Crim": 7.0,
      "ICE Threat Level 1": 2.0,
      "ICE Threat Level 2": 3.0,
      "ICE Threat Level 3": 5.0,
      "No ICE Threat Level": 20.0,
      "latitude": 36.0850476,
      "longitude": -83.841532
    },
    {
      "Name": "KROME NORTH SERVICE PROCESSING CENTER",
      "Address": "18201 SW 12TH ST",
      "City": "MIAMI",
      "State": "FL",
      "Zip": "33194",
      "Male Crim": 372.0,
      "Male Non-Crim": 471.0,
      "Female Crim": 0.0,
      "Female Non-Crim": 0.0,
      "ICE Threat Level 1": 224.0,
      "ICE Threat Level 2": 86.0,
      "ICE Threat Level 3": 87.0,
      "No ICE Threat Level": 445.0,
      "latitude": 25.7547717,
      "longitude": -80.4908502
    },
    {
      "Name": "LA SALLE COUNTY REGIONAL DETENTION CENTER",
      "Address": "832 EAST TEXAS STATE HIGHWAY 44",
      "City": "ENCINAL",
      "State": "TX",
      "Zip": "78019",
      "Male Crim": 21.0,
      "Male Non-Crim": 264.0,
      "Female Crim": 0.0,
      "Female Non-Crim": 2.0,
      "ICE Threat Level 1": 1.0,
      "ICE Threat Level 2": 2.0,
      "ICE Threat Level 3": 21.0,
      "No ICE Threat Level": 263.0,
      "latitude": 28.045392301310212,
      "longitude": -99.33614721779425
    },
    {
      "Name": "LAKE COUNTY JAIL",
      "Address": "551 W. MAIN ST.",
      "City": "TAVARES",
      "State": "FL",
      "Zip": "32778",
      "Male Crim": 1.0,
      "Male Non-Crim": 1.0,
      "Female Crim": 0.0,
      "Female Non-Crim": 0.0,
      "ICE Threat Level 1": 1.0,
      "ICE Threat Level 2": 0.0,
      "ICE Threat Level 3": 0.0,
      "No ICE Threat Level": 1.0,
      "latitude": 28.8018772,
      "longitude": -81.7329614
    },
    {
      "Name": "LARAMIE COUNTY JAIL",
      "Address": "1910 PIONEER AVENUE",
      "City": "CHEYENNE",
      "State": "WY",
      "Zip": "82001",
      "Male Crim": 1.0,
      "Male Non-Crim": 4.0,
      "Female Crim": 0.0,
      "Female Non-Crim": 0.0,
      "ICE Threat Level 1": 0.0,
      "ICE Threat Level 2": 0.0,
      "ICE Threat Level 3": 1.0,
      "No ICE Threat Level": 4.0,
      "latitude": 41.1348377,
      "longitude": -104.8201959
    },
    {
      "Name": "LAREDO PROCESSING CENTER",
      "Address": "4702 EAST SAUNDERS STREET",
      "City": "LAREDO",
      "State": "TX",
      "Zip": "78041",
      "Male Crim": 0.0,
      "Male Non-Crim": 4.0,
      "Female Crim": 21.0,
      "Female Non-Crim": 331.0,
      "ICE Threat Level 1": 7.0,
      "ICE Threat Level 2": 7.0,
      "ICE Threat Level 3": 14.0,
      "No ICE Threat Level": 328.0,
      "latitude": 27.5294764,
      "longitude": -99.4477731
    },
    {
      "Name": "LAUREL COUNTY CORRECTIONAL CENTER",
      "Address": "440 HAMMOCK ROAD",
      "City": "LONDON",
      "State": "KY",
      "Zip": "40744",
      "Male Crim": 1.0,
      "Male Non-Crim": 1.0,
      "Female Crim": 0.0,
      "Female Non-Crim": 0.0,
      "ICE Threat Level 1": 1.0,
      "ICE Threat Level 2": 0.0,
      "ICE Threat Level 3": 0.0,
      "No ICE Threat Level": 0.0,
      "latitude": 37.05739,
      "longitude": -84.070965
    },
    {
      "Name": "LAWRENCE COUNTY",
      "Address": "80 SHERMAN STREET",
      "City": "DEADWOOD",
      "State": "SD",
      "Zip": "57732",
      "Male Crim": 1.0,
      "Male Non-Crim": 8.0,
      "Female Crim": 0.0,
      "Female Non-Crim": 0.0,
      "ICE Threat Level 1": 0.0,
      "ICE Threat Level 2": 1.0,
      "ICE Threat Level 3": 0.0,
      "No ICE Threat Level": 8.0,
      "latitude": 44.3767227,
      "longitude": -103.7289672
    },
    {
      "Name": "LEAVENWORTH US PENITENTIARY",
      "Address": "1300 METROPOLITAN AVE.",
      "City": "LEAVENWORTH",
      "State": "KS",
      "Zip": "66048",
      "Male Crim": 45.0,
      "Male Non-Crim": 12.0,
      "Female Crim": 0.0,
      "Female Non-Crim": 0.0,
      "ICE Threat Level 1": 32.0,
      "ICE Threat Level 2": 6.0,
      "ICE Threat Level 3": 7.0,
      "No ICE Threat Level": 12.0,
      "latitude": 39.3303867,
      "longitude": -94.9357354
    },
    {
      "Name": "LEXINGTON COUNTY JAIL",
      "Address": "521 GIBSON ROAD",
      "City": "LEXINGTON",
      "State": "SC",
      "Zip": "29072",
      "Male Crim": 2.0,
      "Male Non-Crim": 3.0,
      "Female Crim": 0.0,
      "Female Non-Crim": 1.0,
      "ICE Threat Level 1": 1.0,
      "ICE Threat Level 2": 0.0,
      "ICE Threat Level 3": 1.0,
      "No ICE Threat Level": 3.0,
      "latitude": 33.9784808,
      "longitude": -81.2508399
    },
    {
      "Name": "LIMESTONE COUNTY DETENTION CENTER",
      "Address": "910 NORTH TYUS STREET",
      "City": "GROESBECK",
      "State": "TX",
      "Zip": "76642",
      "Male Crim": 39.0,
      "Male Non-Crim": 204.0,
      "Female Crim": 0.0,
      "Female Non-Crim": 0.0,
      "ICE Threat Level 1": 7.0,
      "ICE Threat Level 2": 9.0,
      "ICE Threat Level 3": 27.0,
      "No ICE Threat Level": 200.0,
      "latitude": 31.5287835,
      "longitude": -96.512347
    },
    {
      "Name": "LINCOLN COUNTY JAIL",
      "Address": "3020 N JEFFERS",
      "City": "NORTH PLATTE",
      "State": "NE",
      "Zip": "69101",
      "Male Crim": 10.0,
      "Male Non-Crim": 6.0,
      "Female Crim": 2.0,
      "Female Non-Crim": 2.0,
      "ICE Threat Level 1": 3.0,
      "ICE Threat Level 2": 6.0,
      "ICE Threat Level 3": 3.0,
      "No ICE Threat Level": 7.0,
      "latitude": 41.1065398,
      "longitude": -100.7640382
    },
    {
      "Name": "LINN COUNTY JAIL",
      "Address": "53 3RD AVENUE BRIDGE",
      "City": "CEDAR RAPIDS",
      "State": "IA",
      "Zip": "52401",
      "Male Crim": 17.0,
      "Male Non-Crim": 19.0,
      "Female Crim": 2.0,
      "Female Non-Crim": 4.0,
      "ICE Threat Level 1": 8.0,
      "ICE Threat Level 2": 4.0,
      "ICE Threat Level 3": 8.0,
      "No ICE Threat Level": 22.0,
      "latitude": 41.9746012,
      "longitude": -91.6692502
    },
    {
      "Name": "LOGAN COUNTY JAIL",
      "Address": "216 S BROAD ST",
      "City": "GUTHRIE",
      "State": "OK",
      "Zip": "73044",
      "Male Crim": 1.0,
      "Male Non-Crim": 4.0,
      "Female Crim": 0.0,
      "Female Non-Crim": 0.0,
      "ICE Threat Level 1": 0.0,
      "ICE Threat Level 2": 1.0,
      "ICE Threat Level 3": 0.0,
      "No ICE Threat Level": 5.0,
      "latitude": 35.8763635,
      "longitude": -97.4223562
    },
    {
      "Name": "LOUISIANA ICE PROCESSING",
      "Address": "18198 TUNICA TRACE BLDG E",
      "City": "ANGOLA",
      "State": "LA",
      "Zip": "70712",
      "Male Crim": 164.0,
      "Male Non-Crim": 13.0,
      "Female Crim": 0.0,
      "Female Non-Crim": 0.0,
      "ICE Threat Level 1": 147.0,
      "ICE Threat Level 2": 14.0,
      "ICE Threat Level 3": 4.0,
      "No ICE Threat Level": 13.0,
      "latitude": 30.940215,
      "longitude": -91.568424
    },
    {
      "Name": "MAHONING COUNTY JAIL",
      "Address": "110 FIFTH AVENUE",
      "City": "YOUNGSTOWN",
      "State": "OH",
      "Zip": "44503",
      "Male Crim": 10.0,
      "Male Non-Crim": 44.0,
      "Female Crim": 4.0,
      "Female Non-Crim": 33.0,
      "ICE Threat Level 1": 3.0,
      "ICE Threat Level 2": 7.0,
      "ICE Threat Level 3": 6.0,
      "No ICE Threat Level": 75.0,
      "latitude": 41.103708,
      "longitude": -80.6545051
    },
    {
      "Name": "MARION COUNTY JAIL",
      "Address": "695 JUSTICE WAY",
      "City": "INDIANAPOLIS",
      "State": "IN",
      "Zip": "46203",
      "Male Crim": 9.0,
      "Male Non-Crim": 57.0,
      "Female Crim": 0.0,
      "Female Non-Crim": 0.0,
      "ICE Threat Level 1": 2.0,
      "ICE Threat Level 2": 3.0,
      "ICE Threat Level 3": 6.0,
      "No ICE Threat Level": 54.0,
      "latitude": 39.7550409,
      "longitude": -86.1144189
    },
    {
      "Name": "MARTIN COUNTY JAIL",
      "Address": "800 SOUTHEAST MONTEREY ROAD",
      "City": "STUART",
      "State": "FL",
      "Zip": "34994",
      "Male Crim": 0.0,
      "Male Non-Crim": 2.0,
      "Female Crim": 1.0,
      "Female Non-Crim": 3.0,
      "ICE Threat Level 1": 1.0,
      "ICE Threat Level 2": 0.0,
      "ICE Threat Level 3": 0.0,
      "No ICE Threat Level": 4.0,
      "latitude": 27.175502,
      "longitude": -80.241557
    },
    {
      "Name": "MCCOOK ICE IGSA",
      "Address": "2309 N HIGHWAY 83",
      "City": "MCCOOK",
      "State": "NE",
      "Zip": "69001",
      "Male Crim": 15.0,
      "Male Non-Crim": 13.0,
      "Female Crim": 0.0,
      "Female Non-Crim": 0.0,
      "ICE Threat Level 1": 4.0,
      "ICE Threat Level 2": 5.0,
      "ICE Threat Level 3": 8.0,
      "No ICE Threat Level": 10.0,
      "latitude": 40.2281468,
      "longitude": -100.648028
    },
    {
      "Name": "MESA VERDE ICE PROCESSING CENTER",
      "Address": "425 GOLDEN STATE AVE",
      "City": "BAKERSFIELD",
      "State": "CA",
      "Zip": "93301",
      "Male Crim": 84.0,
      "Male Non-Crim": 285.0,
      "Female Crim": 0.0,
      "Female Non-Crim": 1.0,
      "ICE Threat Level 1": 54.0,
      "ICE Threat Level 2": 16.0,
      "ICE Threat Level 3": 24.0,
      "No ICE Threat Level": 277.0,
      "latitude": 35.380713,
      "longitude": -119.0060804
    },
    {
      "Name": "MIAMI CORRECTIONAL CENTER",
      "Address": "3038 WEST 850 SOUTH P.O. BOX 900",
      "City": "BUNKERHILL",
      "State": "IN",
      "Zip": "46914",
      "Male Crim": 172.0,
      "Male Non-Crim": 98.0,
      "Female Crim": 0.0,
      "Female Non-Crim": 0.0,
      "ICE Threat Level 1": 121.0,
      "ICE Threat Level 2": 43.0,
      "ICE Threat Level 3": 27.0,
      "No ICE Threat Level": 78.0,
      "latitude": null,
      "longitude": null
    },
    {
      "Name": "MIAMI FEDERAL DETENTION",
      "Address": "33 NE 4 STREET",
      "City": "MIAMI",
      "State": "FL",
      "Zip": "33132",
      "Male Crim": 232.0,
      "Male Non-Crim": 233.0,
      "Female Crim": 0.0,
      "Female Non-Crim": 0.0,
      "ICE Threat Level 1": 141.0,
      "ICE Threat Level 2": 66.0,
      "ICE Threat Level 3": 42.0,
      "No ICE Threat Level": 216.0,
      "latitude": 25.778835871616227,
      "longitude": -80.19334441968891
    },
    {
      "Name": "MIAMI STAGING FACILITY",
      "Address": "UNAVAILABLE",
      "City": "MIAMI",
      "State": "FL",
      "Zip": "33101",
      "Male Crim": 2.0,
      "Male Non-Crim": 10.0,
      "Female Crim": 0.0,
      "Female Non-Crim": 0.0,
      "ICE Threat Level 1": 1.0,
      "ICE Threat Level 2": 1.0,
      "ICE Threat Level 3": 1.0,
      "No ICE Threat Level": 9.0,
      "latitude": 25.778789,
      "longitude": -80.199569
    },
    {
      "Name": "MILLER COUNTY JAIL",
      "Address": "2300 EAST STREET",
      "City": "TEXARKANA",
      "State": "AR",
      "Zip": "71854",
      "Male Crim": 1.0,
      "Male Non-Crim": 3.0,
      "Female Crim": 0.0,
      "Female Non-Crim": 0.0,
      "ICE Threat Level 1": 1.0,
      "ICE Threat Level 2": 0.0,
      "ICE Threat Level 3": 0.0,
      "No ICE Threat Level": 3.0,
      "latitude": 33.401201,
      "longitude": -94.0225542
    },
    {
      "Name": "MINICASSIA DETENTION CENTER",
      "Address": "1415 ALBION AVENUE",
      "City": "BURLEY",
      "State": "ID",
      "Zip": "83318",
      "Male Crim": 2.0,
      "Male Non-Crim": 3.0,
      "Female Crim": 0.0,
      "Female Non-Crim": 0.0,
      "ICE Threat Level 1": 1.0,
      "ICE Threat Level 2": 1.0,
      "ICE Threat Level 3": 1.0,
      "No ICE Threat Level": 2.0,
      "latitude": 42.5352803,
      "longitude": -113.7918093
    },
    {
      "Name": "MINNEHAHA COUNTY JAIL",
      "Address": "500 NORTH MINNESOTA AVENUE",
      "City": "SIOUX FALLS",
      "State": "SD",
      "Zip": "57104",
      "Male Crim": 1.0,
      "Male Non-Crim": 4.0,
      "Female Crim": 0.0,
      "Female Non-Crim": 0.0,
      "ICE Threat Level 1": 0.0,
      "ICE Threat Level 2": 0.0,
      "ICE Threat Level 3": 1.0,
      "No ICE Threat Level": 4.0,
      "latitude": 43.5524104,
      "longitude": -96.731237
    },
    {
      "Name": "MONROE COUNTY DETENTION-DORM",
      "Address": "7000 EAST DUNBAR ROAD",
      "City": "MONROE",
      "State": "MI",
      "Zip": "48161",
      "Male Crim": 15.0,
      "Male Non-Crim": 112.0,
      "Female Crim": 0.0,
      "Female Non-Crim": 0.0,
      "ICE Threat Level 1": 3.0,
      "ICE Threat Level 2": 1.0,
      "ICE Threat Level 3": 10.0,
      "No ICE Threat Level": 112.0,
      "latitude": 41.89347,
      "longitude": -83.396328
    },
    {
      "Name": "MONTGOMERY COUNTY JAIL",
      "Address": "PARK STREET",
      "City": "FONDA",
      "State": "NY",
      "Zip": "12068",
      "Male Crim": 0.0,
      "Male Non-Crim": 3.0,
      "Female Crim": 0.0,
      "Female Non-Crim": 0.0,
      "ICE Threat Level 1": 0.0,
      "ICE Threat Level 2": 0.0,
      "ICE Threat Level 3": 0.0,
      "No ICE Threat Level": 3.0,
      "latitude": 42.9531059,
      "longitude": -74.3729461
    },
    {
      "Name": "MONTGOMERY ICE PROCESSING CENTER",
      "Address": "806 HILBIG RD",
      "City": "CONROE",
      "State": "TX",
      "Zip": "77301",
      "Male Crim": 307.0,
      "Male Non-Crim": 595.0,
      "Female Crim": 28.0,
      "Female Non-Crim": 231.0,
      "ICE Threat Level 1": 191.0,
      "ICE Threat Level 2": 81.0,
      "ICE Threat Level 3": 100.0,
      "No ICE Threat Level": 790.0,
      "latitude": 30.3368088,
      "longitude": -95.4431046
    },
    {
      "Name": "MOSHANNON VALLEY PROCESSING CENTER",
      "Address": "555 GEO DRIVE",
      "City": "PHILIPSBURG",
      "State": "PA",
      "Zip": "16866",
      "Male Crim": 507.0,
      "Male Non-Crim": 1044.0,
      "Female Crim": 22.0,
      "Female Non-Crim": 27.0,
      "ICE Threat Level 1": 340.0,
      "ICE Threat Level 2": 111.0,
      "ICE Threat Level 3": 116.0,
      "No ICE Threat Level": 1034.0,
      "latitude": 40.921386200722395,
      "longitude": -78.24213641561506
    },
    {
      "Name": "MUSCATINE COUNTY JAIL",
      "Address": "400 WALNUT STREET",
      "City": "MUSCATINE",
      "State": "IA",
      "Zip": "52761",
      "Male Crim": 9.0,
      "Male Non-Crim": 5.0,
      "Female Crim": 1.0,
      "Female Non-Crim": 2.0,
      "ICE Threat Level 1": 5.0,
      "ICE Threat Level 2": 3.0,
      "ICE Threat Level 3": 3.0,
      "No ICE Threat Level": 6.0,
      "latitude": 41.4243549,
      "longitude": -91.0446662
    },
    {
      "Name": "NASSAU COUNTY CORRECTIONAL CENTER",
      "Address": "100 CARMAN AVENUE",
      "City": "EAST MEADOW",
      "State": "NY",
      "Zip": "11554",
      "Male Crim": 0.0,
      "Male Non-Crim": 4.0,
      "Female Crim": 0.0,
      "Female Non-Crim": 0.0,
      "ICE Threat Level 1": 0.0,
      "ICE Threat Level 2": 0.0,
      "ICE Threat Level 3": 0.0,
      "No ICE Threat Level": 4.0,
      "latitude": 40.727807,
      "longitude": -73.5561653
    },
    {
      "Name": "NATRONA COUNTY JAIL",
      "Address": "1100 BRUCE LANE",
      "City": "CASPER",
      "State": "WY",
      "Zip": "82601",
      "Male Crim": 2.0,
      "Male Non-Crim": 14.0,
      "Female Crim": 1.0,
      "Female Non-Crim": 1.0,
      "ICE Threat Level 1": 1.0,
      "ICE Threat Level 2": 2.0,
      "ICE Threat Level 3": 0.0,
      "No ICE Threat Level": 15.0,
      "latitude": 42.862486,
      "longitude": -106.344705
    },
    {
      "Name": "NEVADA SOUTHERN DETENTION CENTER",
      "Address": "2190 EAST MESQUITE AVENUE",
      "City": "PAHRUMP",
      "State": "NV",
      "Zip": "89060",
      "Male Crim": 213.0,
      "Male Non-Crim": 247.0,
      "Female Crim": 0.0,
      "Female Non-Crim": 0.0,
      "ICE Threat Level 1": 120.0,
      "ICE Threat Level 2": 44.0,
      "ICE Threat Level 3": 75.0,
      "No ICE Threat Level": 221.0,
      "latitude": 36.2520145,
      "longitude": -115.9770311
    },
    {
      "Name": "NEW HANOVER COUNTY JAIL",
      "Address": "3950 JUVENILE RD",
      "City": "CASTLE HAYNE",
      "State": "NC",
      "Zip": "28429",
      "Male Crim": 1.0,
      "Male Non-Crim": 3.0,
      "Female Crim": 0.0,
      "Female Non-Crim": 0.0,
      "ICE Threat Level 1": 0.0,
      "ICE Threat Level 2": 0.0,
      "ICE Threat Level 3": 1.0,
      "No ICE Threat Level": 2.0,
      "latitude": 34.325340041511325,
      "longitude": -77.89457245997536
    },
    {
      "Name": "NIAGARA COUNTY JAIL",
      "Address": "5526 NIAGARA STREET EXTENTION",
      "City": "LOCKPORT",
      "State": "NY",
      "Zip": "14094",
      "Male Crim": 0.0,
      "Male Non-Crim": 0.0,
      "Female Crim": 0.0,
      "Female Non-Crim": 12.0,
      "ICE Threat Level 1": 0.0,
      "ICE Threat Level 2": 0.0,
      "ICE Threat Level 3": 0.0,
      "No ICE Threat Level": 12.0,
      "latitude": 43.18023,
      "longitude": -78.73694
    },
    {
      "Name": "NORTH LAKE CORRECTIONAL FACILITY",
      "Address": "1805 W 32ND ST",
      "City": "BALDWIN",
      "State": "MI",
      "Zip": "49304",
      "Male Crim": 137.0,
      "Male Non-Crim": 1106.0,
      "Female Crim": 6.0,
      "Female Non-Crim": 104.0,
      "ICE Threat Level 1": 57.0,
      "ICE Threat Level 2": 41.0,
      "ICE Threat Level 3": 81.0,
      "No ICE Threat Level": 1173.0,
      "latitude": 43.926459,
      "longitude": -85.836552
    },
    {
      "Name": "NORTHEAST OHIO CORRECTIONAL CENTER",
      "Address": "2240 HUBBARD ROAD",
      "City": "YOUNGSTOWN",
      "State": "OH",
      "Zip": "44505",
      "Male Crim": 51.0,
      "Male Non-Crim": 170.0,
      "Female Crim": 0.0,
      "Female Non-Crim": 0.0,
      "ICE Threat Level 1": 25.0,
      "ICE Threat Level 2": 14.0,
      "ICE Threat Level 3": 13.0,
      "No ICE Threat Level": 168.0,
      "latitude": 41.1288515,
      "longitude": -80.6267877
    },
    {
      "Name": "NORTHERN REGIONAL JAIL",
      "Address": "RD. 2, BOX 1",
      "City": "MOUNDSVILLE",
      "State": "WV",
      "Zip": "26041",
      "Male Crim": 2.0,
      "Male Non-Crim": 21.0,
      "Female Crim": 1.0,
      "Female Non-Crim": 1.0,
      "ICE Threat Level 1": 1.0,
      "ICE Threat Level 2": 1.0,
      "ICE Threat Level 3": 1.0,
      "No ICE Threat Level": 22.0,
      "latitude": 39.92221,
      "longitude": -80.74378
    },
    {
      "Name": "NORTHWEST ICE PROCESSSING CENTER",
      "Address": "1623 E. J STREET",
      "City": "TACOMA",
      "State": "WA",
      "Zip": "98421",
      "Male Crim": 414.0,
      "Male Non-Crim": 848.0,
      "Female Crim": 37.0,
      "Female Non-Crim": 97.0,
      "ICE Threat Level 1": 299.0,
      "ICE Threat Level 2": 98.0,
      "ICE Threat Level 3": 95.0,
      "No ICE Threat Level": 905.0,
      "latitude": 47.2490423,
      "longitude": -122.4223947
    },
    {
      "Name": "NORTHWEST REGIONAL CORRECTIONS CENTER",
      "Address": "816 MARIN AVE., SUITE 110",
      "City": "CROOKSTON",
      "State": "MN",
      "Zip": "56716",
      "Male Crim": 1.0,
      "Male Non-Crim": 10.0,
      "Female Crim": 0.0,
      "Female Non-Crim": 1.0,
      "ICE Threat Level 1": 0.0,
      "ICE Threat Level 2": 0.0,
      "ICE Threat Level 3": 1.0,
      "No ICE Threat Level": 11.0,
      "latitude": 47.76885,
      "longitude": -96.62851
    },
    {
      "Name": "NORTHWEST STATE CORRECTIONAL CENTER",
      "Address": "3649 LOWER NEWTON ROAD",
      "City": "SWANTON",
      "State": "VT",
      "Zip": "05488",
      "Male Crim": 1.0,
      "Male Non-Crim": 11.0,
      "Female Crim": 0.0,
      "Female Non-Crim": 0.0,
      "ICE Threat Level 1": 1.0,
      "ICE Threat Level 2": 0.0,
      "ICE Threat Level 3": 1.0,
      "No ICE Threat Level": 10.0,
      "latitude": 44.850448,
      "longitude": -73.13328
    },
    {
      "Name": "OLDHAM COUNTY DETENTION CENTER",
      "Address": "3405 W HWY 146",
      "City": "LA GRANGE",
      "State": "KY",
      "Zip": "40031",
      "Male Crim": 49.0,
      "Male Non-Crim": 76.0,
      "Female Crim": 0.0,
      "Female Non-Crim": 0.0,
      "ICE Threat Level 1": 16.0,
      "ICE Threat Level 2": 17.0,
      "ICE Threat Level 3": 25.0,
      "No ICE Threat Level": 67.0,
      "latitude": 38.389361,
      "longitude": -85.423255
    },
    {
      "Name": "ORANGE COUNTY JAIL (FL)",
      "Address": "3855 SOUTH JOHN YOUNG PARKWAY",
      "City": "ORLANDO",
      "State": "FL",
      "Zip": "32839",
      "Male Crim": 4.0,
      "Male Non-Crim": 21.0,
      "Female Crim": 2.0,
      "Female Non-Crim": 16.0,
      "ICE Threat Level 1": 4.0,
      "ICE Threat Level 2": 3.0,
      "ICE Threat Level 3": 2.0,
      "No ICE Threat Level": 34.0,
      "latitude": 28.50402318562143,
      "longitude": -81.41636787360717
    },
    {
      "Name": "ORANGE COUNTY JAIL (NY)",
      "Address": "110 WELLS FARM ROAD",
      "City": "GOSHEN",
      "State": "NY",
      "Zip": "10924",
      "Male Crim": 87.0,
      "Male Non-Crim": 79.0,
      "Female Crim": 0.0,
      "Female Non-Crim": 0.0,
      "ICE Threat Level 1": 34.0,
      "ICE Threat Level 2": 36.0,
      "ICE Threat Level 3": 24.0,
      "No ICE Threat Level": 72.0,
      "latitude": 41.4042394,
      "longitude": -74.3606249
    },
    {
      "Name": "OTAY MESA DETENTION CENTER",
      "Address": "7488 CALZADA DE LA FUENTE",
      "City": "SAN DIEGO",
      "State": "CA",
      "Zip": "92154",
      "Male Crim": 237.0,
      "Male Non-Crim": 965.0,
      "Female Crim": 21.0,
      "Female Non-Crim": 252.0,
      "ICE Threat Level 1": 142.0,
      "ICE Threat Level 2": 47.0,
      "ICE Threat Level 3": 83.0,
      "No ICE Threat Level": 1203.0,
      "latitude": 32.5765248,
      "longitude": -116.9154777
    },
    {
      "Name": "OTERO COUNTY PROCESSING CENTER",
      "Address": "26 MCGREGOR RANGE ROAD",
      "City": "CHAPARRAL",
      "State": "NM",
      "Zip": "88081",
      "Male Crim": 140.0,
      "Male Non-Crim": 592.0,
      "Female Crim": 12.0,
      "Female Non-Crim": 103.0,
      "ICE Threat Level 1": 58.0,
      "ICE Threat Level 2": 39.0,
      "ICE Threat Level 3": 65.0,
      "No ICE Threat Level": 684.0,
      "latitude": 32.0786798,
      "longitude": -106.2779169
    },
    {
      "Name": "OZARK COUNTY SHERIFF'S OFFICE",
      "Address": "1818 COUNTY ROAD 806",
      "City": "GAINESVILLE",
      "State": "MO",
      "Zip": "65655",
      "Male Crim": 9.0,
      "Male Non-Crim": 10.0,
      "Female Crim": 0.0,
      "Female Non-Crim": 0.0,
      "ICE Threat Level 1": 4.0,
      "ICE Threat Level 2": 3.0,
      "ICE Threat Level 3": 3.0,
      "No ICE Threat Level": 9.0,
      "latitude": 36.6014034,
      "longitude": -92.4516834
    },
    {
      "Name": "PENNINGTON COUNTY JAIL (SOUTH DAKOTA)",
      "Address": "300 KANSAS CITY STREET NONE",
      "City": "RAPID CITY",
      "State": "SD",
      "Zip": "57701",
      "Male Crim": 0.0,
      "Male Non-Crim": 2.0,
      "Female Crim": 0.0,
      "Female Non-Crim": 0.0,
      "ICE Threat Level 1": 0.0,
      "ICE Threat Level 2": 0.0,
      "ICE Threat Level 3": 0.0,
      "No ICE Threat Level": 2.0,
      "latitude": 44.07844295797259,
      "longitude": -103.22212620387216
    },
    {
      "Name": "PHELPS COUNTY JAIL (MO)",
      "Address": "301 W. 2ND",
      "City": "ROLLA",
      "State": "MO",
      "Zip": "65401",
      "Male Crim": 4.0,
      "Male Non-Crim": 11.0,
      "Female Crim": 1.0,
      "Female Non-Crim": 0.0,
      "ICE Threat Level 1": 2.0,
      "ICE Threat Level 2": 2.0,
      "ICE Threat Level 3": 2.0,
      "No ICE Threat Level": 10.0,
      "latitude": 37.9454138,
      "longitude": -91.7739843
    },
    {
      "Name": "PHELPS COUNTY JAIL (NE)",
      "Address": "715 5TH AVENUE",
      "City": "HOLDREGE",
      "State": "NE",
      "Zip": "68949",
      "Male Crim": 16.0,
      "Male Non-Crim": 8.0,
      "Female Crim": 1.0,
      "Female Non-Crim": 1.0,
      "ICE Threat Level 1": 6.0,
      "ICE Threat Level 2": 6.0,
      "ICE Threat Level 3": 6.0,
      "No ICE Threat Level": 8.0,
      "latitude": 40.4390467,
      "longitude": -99.3704014
    },
    {
      "Name": "PICKENS COUNTY DETENTION CENTER",
      "Address": "188 CEMETERY ST",
      "City": "CARROLLTON",
      "State": "AL",
      "Zip": "35447",
      "Male Crim": 5.0,
      "Male Non-Crim": 30.0,
      "Female Crim": 2.0,
      "Female Non-Crim": 2.0,
      "ICE Threat Level 1": 3.0,
      "ICE Threat Level 2": 2.0,
      "ICE Threat Level 3": 3.0,
      "No ICE Threat Level": 30.0,
      "latitude": 33.2603007,
      "longitude": -88.0959216
    },
    {
      "Name": "PIKE COUNTY JAIL",
      "Address": "175 PIKE COUNTY BOULEVARD",
      "City": "LORDS VALLEY",
      "State": "PA",
      "Zip": "18428",
      "Male Crim": 74.0,
      "Male Non-Crim": 164.0,
      "Female Crim": 0.0,
      "Female Non-Crim": 0.0,
      "ICE Threat Level 1": 31.0,
      "ICE Threat Level 2": 21.0,
      "ICE Threat Level 3": 29.0,
      "No ICE Threat Level": 157.0,
      "latitude": 41.3892641952419,
      "longitude": -75.071309115601
    },
    {
      "Name": "PINE PRAIRIE ICE PROCESSING CENTER",
      "Address": "1133 HAMPTON DUPRE ROAD",
      "City": "PINE PRAIRIE",
      "State": "LA",
      "Zip": "70576",
      "Male Crim": 242.0,
      "Male Non-Crim": 666.0,
      "Female Crim": 0.0,
      "Female Non-Crim": 0.0,
      "ICE Threat Level 1": 128.0,
      "ICE Threat Level 2": 58.0,
      "ICE Threat Level 3": 87.0,
      "No ICE Threat Level": 635.0,
      "latitude": 30.7884208,
      "longitude": -92.4227559
    },
    {
      "Name": "PINELLAS COUNTY JAIL",
      "Address": "14400 49TH STREET NORTH",
      "City": "CLEARWATER",
      "State": "FL",
      "Zip": "33762",
      "Male Crim": 6.0,
      "Male Non-Crim": 25.0,
      "Female Crim": 1.0,
      "Female Non-Crim": 10.0,
      "ICE Threat Level 1": 5.0,
      "ICE Threat Level 2": 2.0,
      "ICE Threat Level 3": 3.0,
      "No ICE Threat Level": 32.0,
      "latitude": 27.903511036240065,
      "longitude": -82.70346139830698
    },
    {
      "Name": "PLATTE COUNTY JAIL",
      "Address": "850 MAPLE STREET",
      "City": "WHEATLAND",
      "State": "WY",
      "Zip": "82201",
      "Male Crim": 1.0,
      "Male Non-Crim": 2.0,
      "Female Crim": 0.0,
      "Female Non-Crim": 0.0,
      "ICE Threat Level 1": 1.0,
      "ICE Threat Level 2": 0.0,
      "ICE Threat Level 3": 0.0,
      "No ICE Threat Level": 2.0,
      "latitude": 42.0555979,
      "longitude": -104.9522457
    },
    {
      "Name": "PLYMOUTH COUNTY CORRECTIONAL FACILITY",
      "Address": "26 LONG POND ROAD",
      "City": "PLYMOUTH",
      "State": "MA",
      "Zip": "02360",
      "Male Crim": 139.0,
      "Male Non-Crim": 370.0,
      "Female Crim": 0.0,
      "Female Non-Crim": 0.0,
      "ICE Threat Level 1": 86.0,
      "ICE Threat Level 2": 40.0,
      "ICE Threat Level 3": 31.0,
      "No ICE Threat Level": 352.0,
      "latitude": 41.9318079,
      "longitude": -70.6512992
    },
    {
      "Name": "POLK COUNTY JAIL",
      "Address": "1985 NE 51ST PLACE",
      "City": "DES MOINES",
      "State": "IA",
      "Zip": "50313",
      "Male Crim": 25.0,
      "Male Non-Crim": 21.0,
      "Female Crim": 1.0,
      "Female Non-Crim": 3.0,
      "ICE Threat Level 1": 10.0,
      "ICE Threat Level 2": 9.0,
      "ICE Threat Level 3": 14.0,
      "No ICE Threat Level": 17.0,
      "latitude": 41.6534505,
      "longitude": -93.5877727
    },
    {
      "Name": "PORT ISABEL SPC",
      "Address": "27991 BUENA VISTA BOULEVARD",
      "City": "LOS FRESNOS",
      "State": "TX",
      "Zip": "78566",
      "Male Crim": 103.0,
      "Male Non-Crim": 966.0,
      "Female Crim": 1.0,
      "Female Non-Crim": 7.0,
      "ICE Threat Level 1": 27.0,
      "ICE Threat Level 2": 28.0,
      "ICE Threat Level 3": 69.0,
      "No ICE Threat Level": 953.0,
      "latitude": 26.1563622,
      "longitude": -97.337839
    },
    {
      "Name": "POTTAWATTAMIE COUNTY JAIL",
      "Address": "1400 BIG LAKE ROAD",
      "City": "COUNCIL BLUFFS",
      "State": "IA",
      "Zip": "51501",
      "Male Crim": 22.0,
      "Male Non-Crim": 9.0,
      "Female Crim": 1.0,
      "Female Non-Crim": 2.0,
      "ICE Threat Level 1": 13.0,
      "ICE Threat Level 2": 6.0,
      "ICE Threat Level 3": 9.0,
      "No ICE Threat Level": 7.0,
      "latitude": 41.284196,
      "longitude": -95.864127
    },
    {
      "Name": "PRAIRIELAND DETENTION CENTER",
      "Address": "1209 SUNFLOWER LN",
      "City": "ALVARADO",
      "State": "TX",
      "Zip": "76009",
      "Male Crim": 155.0,
      "Male Non-Crim": 670.0,
      "Female Crim": 31.0,
      "Female Non-Crim": 104.0,
      "ICE Threat Level 1": 101.0,
      "ICE Threat Level 2": 36.0,
      "ICE Threat Level 3": 59.0,
      "No ICE Threat Level": 763.0,
      "latitude": 32.4217035,
      "longitude": -97.1958971
    },
    {
      "Name": "PUTNAM COUNTY SHERIFF",
      "Address": "421 E SPRING ST.",
      "City": "COOKEVILLE",
      "State": "TN",
      "Zip": "38501",
      "Male Crim": 5.0,
      "Male Non-Crim": 14.0,
      "Female Crim": 0.0,
      "Female Non-Crim": 0.0,
      "ICE Threat Level 1": 3.0,
      "ICE Threat Level 2": 3.0,
      "ICE Threat Level 3": 3.0,
      "No ICE Threat Level": 10.0,
      "latitude": 36.1617449,
      "longitude": -85.4983817
    },
    {
      "Name": "RICHWOOD CORRECTIONAL CENTER",
      "Address": "180 PINE BAYOU CIRCLE",
      "City": "MONROE",
      "State": "LA",
      "Zip": "71202",
      "Male Crim": 74.0,
      "Male Non-Crim": 282.0,
      "Female Crim": 49.0,
      "Female Non-Crim": 695.0,
      "ICE Threat Level 1": 50.0,
      "ICE Threat Level 2": 31.0,
      "ICE Threat Level 3": 56.0,
      "No ICE Threat Level": 964.0,
      "latitude": 32.45717553802827,
      "longitude": -92.079859671668
    },
    {
      "Name": "RIO GRANDE DETENTION CENTER",
      "Address": "1001 SAN RIO BOULEVARD",
      "City": "LAREDO",
      "State": "TX",
      "Zip": "78046",
      "Male Crim": 54.0,
      "Male Non-Crim": 545.0,
      "Female Crim": 0.0,
      "Female Non-Crim": 0.0,
      "ICE Threat Level 1": 3.0,
      "ICE Threat Level 2": 18.0,
      "ICE Threat Level 3": 44.0,
      "No ICE Threat Level": 533.0,
      "latitude": 27.379978,
      "longitude": -99.486229
    },
    {
      "Name": "RIVER CORRECTIONAL CENTER",
      "Address": "26362 HIGHWAY 15",
      "City": "FERRIDAY",
      "State": "LA",
      "Zip": "71334",
      "Male Crim": 55.0,
      "Male Non-Crim": 546.0,
      "Female Crim": 0.0,
      "Female Non-Crim": 0.0,
      "ICE Threat Level 1": 9.0,
      "ICE Threat Level 2": 17.0,
      "ICE Threat Level 3": 40.0,
      "No ICE Threat Level": 537.0,
      "latitude": 31.597253400688896,
      "longitude": -91.55806052381577
    },
    {
      "Name": "RIVERSIDE REGIONAL JAIL",
      "Address": "1000 RIVER ROAD",
      "City": "HOPEWELL",
      "State": "VA",
      "Zip": "23860",
      "Male Crim": 13.0,
      "Male Non-Crim": 80.0,
      "Female Crim": 0.0,
      "Female Non-Crim": 1.0,
      "ICE Threat Level 1": 5.0,
      "ICE Threat Level 2": 5.0,
      "ICE Threat Level 3": 8.0,
      "No ICE Threat Level": 77.0,
      "latitude": 37.2950331,
      "longitude": -77.321649
    },
    {
      "Name": "ROANOKE CITY JAIL",
      "Address": "340 CAMPBELL AVENUE SOUTHWEST",
      "City": "ROANOKE",
      "State": "VA",
      "Zip": "24016",
      "Male Crim": 0.0,
      "Male Non-Crim": 1.0,
      "Female Crim": 0.0,
      "Female Non-Crim": 0.0,
      "ICE Threat Level 1": 0.0,
      "ICE Threat Level 2": 0.0,
      "ICE Threat Level 3": 0.0,
      "No ICE Threat Level": 1.0,
      "latitude": 37.2711624,
      "longitude": -79.9473382
    },
    {
      "Name": "ROBERT A DEYTON DETENTION FACILITY",
      "Address": "11866 HASTINGS BRIDGE ROAD P.O. BOX 429",
      "City": "LOVEJOY",
      "State": "GA",
      "Zip": "30250",
      "Male Crim": 3.0,
      "Male Non-Crim": 6.0,
      "Female Crim": 0.0,
      "Female Non-Crim": 0.0,
      "ICE Threat Level 1": 2.0,
      "ICE Threat Level 2": 1.0,
      "ICE Threat Level 3": 1.0,
      "No ICE Threat Level": 5.0,
      "latitude": 33.434847,
      "longitude": -84.305968
    },
    {
      "Name": "ROCKINGHAM COUNTY JAIL",
      "Address": "25 SOUTH LIBERTY STREET",
      "City": "HARRISONBURG",
      "State": "VA",
      "Zip": "22801",
      "Male Crim": 0.0,
      "Male Non-Crim": 1.0,
      "Female Crim": 0.0,
      "Female Non-Crim": 0.0,
      "ICE Threat Level 1": 0.0,
      "ICE Threat Level 2": 0.0,
      "ICE Threat Level 3": 0.0,
      "No ICE Threat Level": 1.0,
      "latitude": 38.449425,
      "longitude": -78.8707201
    },
    {
      "Name": "SAIPAN DEPARTMENT OF CORRECTIONS (SUSUPE)",
      "Address": "VICENTE T. SEMAN BLDG, CIVIC CENTER",
      "City": "SAIPAN",
      "State": "MP",
      "Zip": "96950",
      "Male Crim": 4.0,
      "Male Non-Crim": 15.0,
      "Female Crim": 1.0,
      "Female Non-Crim": 2.0,
      "ICE Threat Level 1": 5.0,
      "ICE Threat Level 2": 1.0,
      "ICE Threat Level 3": 1.0,
      "No ICE Threat Level": 16.0,
      "latitude": 15.158907917922077,
      "longitude": 145.70544921267373
    },
    {
      "Name": "SALT LAKE COUNTY METRO JAIL",
      "Address": "3415 SOUTH 900 WEST",
      "City": "SALT LAKE CITY",
      "State": "UT",
      "Zip": "84119",
      "Male Crim": 0.0,
      "Male Non-Crim": 1.0,
      "Female Crim": 0.0,
      "Female Non-Crim": 0.0,
      "ICE Threat Level 1": 0.0,
      "ICE Threat Level 2": 0.0,
      "ICE Threat Level 3": 0.0,
      "No ICE Threat Level": 1.0,
      "latitude": 40.7259591,
      "longitude": -111.9169442
    },
    {
      "Name": "SAN DIEGO DISTRICT STAGING",
      "Address": "US INS DETENTION & DEPORTATION",
      "City": "SAN DIEGO",
      "State": "CA",
      "Zip": "92101",
      "Male Crim": 4.0,
      "Male Non-Crim": 8.0,
      "Female Crim": 0.0,
      "Female Non-Crim": 3.0,
      "ICE Threat Level 1": 2.0,
      "ICE Threat Level 2": 1.0,
      "ICE Threat Level 3": 2.0,
      "No ICE Threat Level": 10.0,
      "latitude": null,
      "longitude": null
    },
    {
      "Name": "SAN JUAN STAGING",
      "Address": "651 FEDERAL DRIVE, SUITE 104",
      "City": "GUAYNABO",
      "State": "PR",
      "Zip": "00965",
      "Male Crim": 2.0,
      "Male Non-Crim": 18.0,
      "Female Crim": 0.0,
      "Female Non-Crim": 2.0,
      "ICE Threat Level 1": 2.0,
      "ICE Threat Level 2": 1.0,
      "ICE Threat Level 3": 1.0,
      "No ICE Threat Level": 18.0,
      "latitude": 18.423606,
      "longitude": -66.113134
    },
    {
      "Name": "SAN LUIS REGIONAL DETENTION CENTER",
      "Address": "406 NORTH AVENUE D",
      "City": "SAN LUIS",
      "State": "AZ",
      "Zip": "85349",
      "Male Crim": 71.0,
      "Male Non-Crim": 229.0,
      "Female Crim": 3.0,
      "Female Non-Crim": 63.0,
      "ICE Threat Level 1": 48.0,
      "ICE Threat Level 2": 12.0,
      "ICE Threat Level 3": 16.0,
      "No ICE Threat Level": 291.0,
      "latitude": 32.483025880176186,
      "longitude": -114.68349442933823
    },
    {
      "Name": "SARPY COUNTY JAIL",
      "Address": "1208 GOLDEN GATE DRIVE",
      "City": "PAPILLION",
      "State": "NE",
      "Zip": "68046",
      "Male Crim": 12.0,
      "Male Non-Crim": 6.0,
      "Female Crim": 1.0,
      "Female Non-Crim": 1.0,
      "ICE Threat Level 1": 4.0,
      "ICE Threat Level 2": 6.0,
      "ICE Threat Level 3": 5.0,
      "No ICE Threat Level": 5.0,
      "latitude": 41.1434535,
      "longitude": -96.0419407
    },
    {
      "Name": "SAUK COUNTY SHERIFF",
      "Address": "1300 LANGE CT.",
      "City": "BARABOO",
      "State": "WI",
      "Zip": "53913",
      "Male Crim": 4.0,
      "Male Non-Crim": 13.0,
      "Female Crim": 0.0,
      "Female Non-Crim": 0.0,
      "ICE Threat Level 1": 1.0,
      "ICE Threat Level 2": 2.0,
      "ICE Threat Level 3": 1.0,
      "No ICE Threat Level": 13.0,
      "latitude": 43.4615055,
      "longitude": -89.7672991
    },
    {
      "Name": "SCOTT COUNTY DET. FACILITY",
      "Address": "416 W 4TH ST",
      "City": "DAVENPORT",
      "State": "IA",
      "Zip": "52801",
      "Male Crim": 1.0,
      "Male Non-Crim": 0.0,
      "Female Crim": 0.0,
      "Female Non-Crim": 0.0,
      "ICE Threat Level 1": 1.0,
      "ICE Threat Level 2": 0.0,
      "ICE Threat Level 3": 0.0,
      "No ICE Threat Level": 0.0,
      "latitude": 41.5236168,
      "longitude": -90.5788339
    },
    {
      "Name": "SEBASTIAN COUNTY DETENTION CENTER",
      "Address": "801 SOUTH A STREET",
      "City": "FORT SMITH",
      "State": "AR",
      "Zip": "72901",
      "Male Crim": 0.0,
      "Male Non-Crim": 2.0,
      "Female Crim": 0.0,
      "Female Non-Crim": 0.0,
      "ICE Threat Level 1": 0.0,
      "ICE Threat Level 2": 0.0,
      "ICE Threat Level 3": 0.0,
      "No ICE Threat Level": 2.0,
      "latitude": 35.3822229,
      "longitude": -94.422565
    },
    {
      "Name": "SENECA COUNTY JAIL",
      "Address": "3040 SOUTH STATE HIGHWAY 100",
      "City": "TIFFIN",
      "State": "OH",
      "Zip": "44883",
      "Male Crim": 14.0,
      "Male Non-Crim": 43.0,
      "Female Crim": 1.0,
      "Female Non-Crim": 4.0,
      "ICE Threat Level 1": 1.0,
      "ICE Threat Level 2": 2.0,
      "ICE Threat Level 3": 12.0,
      "No ICE Threat Level": 47.0,
      "latitude": 41.079506331622774,
      "longitude": -83.15386397328119
    },
    {
      "Name": "SHERBURNE COUNTY JAIL",
      "Address": "13880 BUSINESS CENTER DRIVE",
      "City": "ELK RIVER",
      "State": "MN",
      "Zip": "55330",
      "Male Crim": 35.0,
      "Male Non-Crim": 57.0,
      "Female Crim": 5.0,
      "Female Non-Crim": 2.0,
      "ICE Threat Level 1": 21.0,
      "ICE Threat Level 2": 8.0,
      "ICE Threat Level 3": 14.0,
      "No ICE Threat Level": 55.0,
      "latitude": 45.3037535,
      "longitude": -93.6200234
    },
    {
      "Name": "SIOUX COUNTY JAIL",
      "Address": "4363 IRONWOOD AVENUE",
      "City": "ORANGE CITY",
      "State": "IA",
      "Zip": "51041",
      "Male Crim": 5.0,
      "Male Non-Crim": 3.0,
      "Female Crim": 0.0,
      "Female Non-Crim": 0.0,
      "ICE Threat Level 1": 2.0,
      "ICE Threat Level 2": 1.0,
      "ICE Threat Level 3": 2.0,
      "No ICE Threat Level": 3.0,
      "latitude": 43.0188256,
      "longitude": -96.0774475
    },
    {
      "Name": "SOUTH CENTRAL REGIONAL JAIL",
      "Address": "1001 CENTER WAY",
      "City": "CHARLESTON",
      "State": "WV",
      "Zip": "25309",
      "Male Crim": 6.0,
      "Male Non-Crim": 15.0,
      "Female Crim": 0.0,
      "Female Non-Crim": 1.0,
      "ICE Threat Level 1": 3.0,
      "ICE Threat Level 2": 2.0,
      "ICE Threat Level 3": 2.0,
      "No ICE Threat Level": 15.0,
      "latitude": 38.31113857008232,
      "longitude": -81.71099978870323
    },
    {
      "Name": "SOUTH LOUISIANA ICE PROCESSING CENTER",
      "Address": "3843 STAGG AVENUE",
      "City": "BASILE",
      "State": "LA",
      "Zip": "70515",
      "Male Crim": 0.0,
      "Male Non-Crim": 2.0,
      "Female Crim": 160.0,
      "Female Non-Crim": 832.0,
      "ICE Threat Level 1": 89.0,
      "ICE Threat Level 2": 38.0,
      "ICE Threat Level 3": 48.0,
      "No ICE Threat Level": 818.0,
      "latitude": 30.4866896,
      "longitude": -92.5818666
    },
    {
      "Name": "SOUTH TEXAS ICE PROCESSING CENTER",
      "Address": "566 VETERANS DRIVE",
      "City": "PEARSALL",
      "State": "TX",
      "Zip": "78061",
      "Male Crim": 523.0,
      "Male Non-Crim": 1060.0,
      "Female Crim": 52.0,
      "Female Non-Crim": 97.0,
      "ICE Threat Level 1": 176.0,
      "ICE Threat Level 2": 106.0,
      "ICE Threat Level 3": 351.0,
      "No ICE Threat Level": 1100.0,
      "latitude": 28.8946514,
      "longitude": -99.1219428
    },
    {
      "Name": "ST. CLAIR COUNTY JAIL",
      "Address": "1170 MICHIGAN ROAD",
      "City": "PORT HURON",
      "State": "MI",
      "Zip": "48060",
      "Male Crim": 10.0,
      "Male Non-Crim": 32.0,
      "Female Crim": 0.0,
      "Female Non-Crim": 0.0,
      "ICE Threat Level 1": 4.0,
      "ICE Threat Level 2": 3.0,
      "ICE Threat Level 3": 4.0,
      "No ICE Threat Level": 31.0,
      "latitude": 42.9426053,
      "longitude": -82.4799303
    },
    {
      "Name": "STE. GENEVIEVE COUNTY SHERIFF/JAIL",
      "Address": "5 BASLER DR.",
      "City": "STE. GENEVIEVE",
      "State": "MO",
      "Zip": "63670",
      "Male Crim": 15.0,
      "Male Non-Crim": 70.0,
      "Female Crim": 1.0,
      "Female Non-Crim": 7.0,
      "ICE Threat Level 1": 5.0,
      "ICE Threat Level 2": 6.0,
      "ICE Threat Level 3": 13.0,
      "No ICE Threat Level": 69.0,
      "latitude": 37.965677,
      "longitude": -90.0551125
    },
    {
      "Name": "STEWART DETENTION CENTER",
      "Address": "146 CCA ROAD",
      "City": "LUMPKIN",
      "State": "GA",
      "Zip": "31815",
      "Male Crim": 667.0,
      "Male Non-Crim": 1081.0,
      "Female Crim": 64.0,
      "Female Non-Crim": 232.0,
      "ICE Threat Level 1": 353.0,
      "ICE Threat Level 2": 231.0,
      "ICE Threat Level 3": 246.0,
      "No ICE Threat Level": 1214.0,
      "latitude": 32.036729905551354,
      "longitude": -84.77148464340088
    },
    {
      "Name": "STRAFFORD COUNTY CORRECTIONS",
      "Address": "266 COUNTY FARM ROAD",
      "City": "DOVER",
      "State": "NH",
      "Zip": "03820",
      "Male Crim": 42.0,
      "Male Non-Crim": 78.0,
      "Female Crim": 1.0,
      "Female Non-Crim": 21.0,
      "ICE Threat Level 1": 24.0,
      "ICE Threat Level 2": 12.0,
      "ICE Threat Level 3": 10.0,
      "No ICE Threat Level": 96.0,
      "latitude": 43.2192302,
      "longitude": -70.9386083
    },
    {
      "Name": "SWEETWATER COUNTY JAIL",
      "Address": "50140 UNITED STATES HIGHWAY 191 SOUTH",
      "City": "ROCK SPRINGS",
      "State": "WY",
      "Zip": "82935",
      "Male Crim": 5.0,
      "Male Non-Crim": 4.0,
      "Female Crim": 0.0,
      "Female Non-Crim": 0.0,
      "ICE Threat Level 1": 4.0,
      "ICE Threat Level 2": 0.0,
      "ICE Threat Level 3": 1.0,
      "No ICE Threat Level": 4.0,
      "latitude": 41.5371934874891,
      "longitude": -109.30126553093841
    },
    {
      "Name": "T DON HUTTO DETENTION CENTER",
      "Address": "1001 WELCH STREET",
      "City": "TAYLOR",
      "State": "TX",
      "Zip": "76574",
      "Male Crim": 135.0,
      "Male Non-Crim": 309.0,
      "Female Crim": 0.0,
      "Female Non-Crim": 0.0,
      "ICE Threat Level 1": 59.0,
      "ICE Threat Level 2": 48.0,
      "ICE Threat Level 3": 59.0,
      "No ICE Threat Level": 278.0,
      "latitude": 30.5647288,
      "longitude": -97.4194342
    },
    {
      "Name": "TOOELE COUNTY JAIL",
      "Address": "47 SOUTH MAIN STREET",
      "City": "TOOELE",
      "State": "UT",
      "Zip": "84074",
      "Male Crim": 3.0,
      "Male Non-Crim": 6.0,
      "Female Crim": 0.0,
      "Female Non-Crim": 1.0,
      "ICE Threat Level 1": 2.0,
      "ICE Threat Level 2": 2.0,
      "ICE Threat Level 3": 3.0,
      "No ICE Threat Level": 4.0,
      "latitude": 40.529621,
      "longitude": -112.297725
    },
    {
      "Name": "TORRANCE/ESTANCIA, NM",
      "Address": "209 COUNTY ROAD 49",
      "City": "ESTANCIA",
      "State": "NM",
      "Zip": "87016",
      "Male Crim": 59.0,
      "Male Non-Crim": 381.0,
      "Female Crim": 0.0,
      "Female Non-Crim": 0.0,
      "ICE Threat Level 1": 8.0,
      "ICE Threat Level 2": 10.0,
      "ICE Threat Level 3": 40.0,
      "No ICE Threat Level": 381.0,
      "latitude": 34.76832244015224,
      "longitude": -106.01873793112864
    },
    {
      "Name": "TULSA COUNTY JAIL (DAVID L. MOSS JUSTICE CTR)",
      "Address": "300 NORTH DENVER AVENUE",
      "City": "TULSA",
      "State": "OK",
      "Zip": "74103",
      "Male Crim": 7.0,
      "Male Non-Crim": 38.0,
      "Female Crim": 1.0,
      "Female Non-Crim": 7.0,
      "ICE Threat Level 1": 3.0,
      "ICE Threat Level 2": 4.0,
      "ICE Threat Level 3": 4.0,
      "No ICE Threat Level": 43.0,
      "latitude": 36.1572816,
      "longitude": -95.9990129
    },
    {
      "Name": "TURNER GUILFORD KNIGHT (TGK) JAIL",
      "Address": "7000 NW 41ST ST.",
      "City": "MIAMI",
      "State": "FL",
      "Zip": "33166",
      "Male Crim": 2.0,
      "Male Non-Crim": 6.0,
      "Female Crim": 0.0,
      "Female Non-Crim": 1.0,
      "ICE Threat Level 1": 1.0,
      "ICE Threat Level 2": 0.0,
      "ICE Threat Level 3": 0.0,
      "No ICE Threat Level": 7.0,
      "latitude": 25.8111329,
      "longitude": -80.3108541
    },
    {
      "Name": "TWO BRIDGES REGIONAL JAIL",
      "Address": "522 BATH RD",
      "City": "WISCASSET",
      "State": "ME",
      "Zip": "04578",
      "Male Crim": 3.0,
      "Male Non-Crim": 7.0,
      "Female Crim": 0.0,
      "Female Non-Crim": 0.0,
      "ICE Threat Level 1": 2.0,
      "ICE Threat Level 2": 0.0,
      "ICE Threat Level 3": 1.0,
      "No ICE Threat Level": 7.0,
      "latitude": 43.9781192,
      "longitude": -69.6989264
    },
    {
      "Name": "UINTA COUNTY JAIL",
      "Address": "77 COUNTY ROAD 109",
      "City": "EVANSTON",
      "State": "WY",
      "Zip": "82930",
      "Male Crim": 4.0,
      "Male Non-Crim": 13.0,
      "Female Crim": 0.0,
      "Female Non-Crim": 1.0,
      "ICE Threat Level 1": 3.0,
      "ICE Threat Level 2": 2.0,
      "ICE Threat Level 3": 4.0,
      "No ICE Threat Level": 9.0,
      "latitude": 41.269064,
      "longitude": -110.921015
    },
    {
      "Name": "VICTORIA COUNTY JAIL",
      "Address": "101 NORTH GLASS STREET",
      "City": "VICTORIA",
      "State": "TX",
      "Zip": "77901",
      "Male Crim": 0.0,
      "Male Non-Crim": 14.0,
      "Female Crim": 0.0,
      "Female Non-Crim": 0.0,
      "ICE Threat Level 1": 0.0,
      "ICE Threat Level 2": 0.0,
      "ICE Threat Level 3": 0.0,
      "No ICE Threat Level": 14.0,
      "latitude": 28.8005407,
      "longitude": -97.0085472
    },
    {
      "Name": "WALTON COUNTY JAIL",
      "Address": "40 SHERIFF CIR",
      "City": "DEFUNIAK SPRINGS",
      "State": "FL",
      "Zip": "32433",
      "Male Crim": 4.0,
      "Male Non-Crim": 19.0,
      "Female Crim": 0.0,
      "Female Non-Crim": 0.0,
      "ICE Threat Level 1": 3.0,
      "ICE Threat Level 2": 1.0,
      "ICE Threat Level 3": 2.0,
      "No ICE Threat Level": 17.0,
      "latitude": 30.78363619823702,
      "longitude": -86.1039227599523
    },
    {
      "Name": "WARD COUNTY JAIL",
      "Address": "P.O. BOX 907",
      "City": "MINOT",
      "State": "ND",
      "Zip": "58702",
      "Male Crim": 0.0,
      "Male Non-Crim": 1.0,
      "Female Crim": 0.0,
      "Female Non-Crim": 0.0,
      "ICE Threat Level 1": 0.0,
      "ICE Threat Level 2": 0.0,
      "ICE Threat Level 3": 0.0,
      "No ICE Threat Level": 1.0,
      "latitude": 48.23153,
      "longitude": -101.295738
    },
    {
      "Name": "WASHINGTON COUNTY DETENTION CENTER",
      "Address": "1155 WEST CLYDESDALE DRIVE",
      "City": "FAYETTEVILLE",
      "State": "AR",
      "Zip": "72701",
      "Male Crim": 1.0,
      "Male Non-Crim": 5.0,
      "Female Crim": 0.0,
      "Female Non-Crim": 0.0,
      "ICE Threat Level 1": 1.0,
      "ICE Threat Level 2": 1.0,
      "ICE Threat Level 3": 0.0,
      "No ICE Threat Level": 5.0,
      "latitude": 36.0340715,
      "longitude": -94.175948
    },
    {
      "Name": "WASHINGTON COUNTY JAIL (PURGATORY CORRECTIONAL FACILITY)",
      "Address": "750 SOUTH 5300 WEST",
      "City": "HURRICANE",
      "State": "UT",
      "Zip": "84737",
      "Male Crim": 3.0,
      "Male Non-Crim": 7.0,
      "Female Crim": 0.0,
      "Female Non-Crim": 0.0,
      "ICE Threat Level 1": 3.0,
      "ICE Threat Level 2": 1.0,
      "ICE Threat Level 3": 3.0,
      "No ICE Threat Level": 5.0,
      "latitude": 37.159618,
      "longitude": -113.4122002
    },
    {
      "Name": "WASHOE COUNTY JAIL",
      "Address": "911 PARR BLVD 775 328 3308",
      "City": "RENO",
      "State": "NV",
      "Zip": "89506",
      "Male Crim": 23.0,
      "Male Non-Crim": 26.0,
      "Female Crim": 0.0,
      "Female Non-Crim": 1.0,
      "ICE Threat Level 1": 18.0,
      "ICE Threat Level 2": 4.0,
      "ICE Threat Level 3": 7.0,
      "No ICE Threat Level": 21.0,
      "latitude": 39.57445694817889,
      "longitude": -119.81272011554243
    },
    {
      "Name": "WAUKESHA COUNTY JAIL",
      "Address": "515 WEST MORELAND",
      "City": "WAUKESHA",
      "State": "WI",
      "Zip": "53186",
      "Male Crim": 1.0,
      "Male Non-Crim": 2.0,
      "Female Crim": 0.0,
      "Female Non-Crim": 0.0,
      "ICE Threat Level 1": 0.0,
      "ICE Threat Level 2": 1.0,
      "ICE Threat Level 3": 0.0,
      "No ICE Threat Level": 2.0,
      "latitude": 43.0236491,
      "longitude": -88.228229
    },
    {
      "Name": "WEBB COUNTY DETENTION CENTER (CCA)",
      "Address": "9998 SOUTH HIGHWAY 83",
      "City": "LAREDO",
      "State": "TX",
      "Zip": "78041",
      "Male Crim": 52.0,
      "Male Non-Crim": 364.0,
      "Female Crim": 3.0,
      "Female Non-Crim": 9.0,
      "ICE Threat Level 1": 20.0,
      "ICE Threat Level 2": 15.0,
      "ICE Threat Level 3": 25.0,
      "No ICE Threat Level": 368.0,
      "latitude": 27.377731,
      "longitude": -99.471644
    },
    {
      "Name": "WEBER COUNTY JAIL",
      "Address": "721 WEST 12TH STREET",
      "City": "OGDEN",
      "State": "UT",
      "Zip": "84404",
      "Male Crim": 2.0,
      "Male Non-Crim": 4.0,
      "Female Crim": 0.0,
      "Female Non-Crim": 0.0,
      "ICE Threat Level 1": 1.0,
      "ICE Threat Level 2": 1.0,
      "ICE Threat Level 3": 1.0,
      "No ICE Threat Level": 2.0,
      "latitude": 41.244357,
      "longitude": -111.9950583
    },
    {
      "Name": "WESTERN TENNESSEE DETENTION FACILITY",
      "Address": "6299 FINDE NAIFEH DRIVE",
      "City": "MASON",
      "State": "TN",
      "Zip": "38049",
      "Male Crim": 18.0,
      "Male Non-Crim": 125.0,
      "Female Crim": 0.0,
      "Female Non-Crim": 0.0,
      "ICE Threat Level 1": 10.0,
      "ICE Threat Level 2": 5.0,
      "ICE Threat Level 3": 12.0,
      "No ICE Threat Level": 115.0,
      "latitude": 35.4073607,
      "longitude": -89.5488466
    },
    {
      "Name": "WESTERN VIRGINIA REGIONAL JAIL",
      "Address": "5885 W RIVER RD",
      "City": "SALEM",
      "State": "VA",
      "Zip": "24153",
      "Male Crim": 1.0,
      "Male Non-Crim": 1.0,
      "Female Crim": 0.0,
      "Female Non-Crim": 0.0,
      "ICE Threat Level 1": 0.0,
      "ICE Threat Level 2": 0.0,
      "ICE Threat Level 3": 0.0,
      "No ICE Threat Level": 1.0,
      "latitude": 37.250881,
      "longitude": -80.170341
    },
    {
      "Name": "WINN CORRECTIONAL CENTER",
      "Address": "560 GUM SPRING ROAD",
      "City": "WINNFIELD",
      "State": "LA",
      "Zip": "71483",
      "Male Crim": 385.0,
      "Male Non-Crim": 1150.0,
      "Female Crim": 0.0,
      "Female Non-Crim": 0.0,
      "ICE Threat Level 1": 195.0,
      "ICE Threat Level 2": 102.0,
      "ICE Threat Level 3": 128.0,
      "No ICE Threat Level": 1110.0,
      "latitude": 31.8504715684334,
      "longitude": -92.78135647527058
    },
    {
      "Name": "WOODBURY COUNTY JAIL",
      "Address": "407 7TH STREET",
      "City": "SIOUX CITY",
      "State": "IA",
      "Zip": "51101",
      "Male Crim": 21.0,
      "Male Non-Crim": 27.0,
      "Female Crim": 1.0,
      "Female Non-Crim": 3.0,
      "ICE Threat Level 1": 7.0,
      "ICE Threat Level 2": 7.0,
      "ICE Threat Level 3": 11.0,
      "No ICE Threat Level": 28.0,
      "latitude": 42.4975021,
      "longitude": -96.4062738
    },
    {
      "Name": "WYATT DETENTION CENTER",
      "Address": "950 HIGH STREET",
      "City": "CENTRAL FALLS",
      "State": "RI",
      "Zip": "02863",
      "Male Crim": 37.0,
      "Male Non-Crim": 79.0,
      "Female Crim": 0.0,
      "Female Non-Crim": 0.0,
      "ICE Threat Level 1": 26.0,
      "ICE Threat Level 2": 5.0,
      "ICE Threat Level 3": 10.0,
      "No ICE Threat Level": 74.0,
      "latitude": 41.8928106,
      "longitude": -71.3831998
    }
  ]
}