{
  "metadata": {
    "source_file": "data/FY25_detentionStats07072025.xlsx",
    "extraction_date": "2025-07-07T22:02:50.744355",
    "total_facilities": 201
  },
  "facilities": [
    {
      "Name": "ALAMANCE COUNTY DETENTION FACILITY",
      "Address": "109 SOUTH MAPLE STREET",
      "City": "GRAHAM",
      "State": "NC",
      "Zip": 27253,
      "Male Crim": 12.5320754716983,
      "Male Non-Crim": 7.69433962264163,
      "Female Crim": 0.162264150943396,
      "Female Non-Crim": 0.524528301886792,
      "latitude": 36.0684989,
      "longitude": -79.4030356
    },
    {
      "Name": "ATLANTA US PEN",
      "Address": "601 MCDONOUGH BOULEVARD, SE",
      "City": "ATLANTA",
      "State": "GA",
      "Zip": 30315,
      "Male Crim": 23.1396226415095,
      "Male Non-Crim": 35.2415094339623,
      "Female Crim": 0.207547169811321,
      "Female Non-Crim": 0.0,
      "latitude": 33.71204679097549,
      "longitude": -84.37111710232016
    },
    {
      "Name": "FLOYD COUNTY JAIL",
      "Address": "2526 NEW CALHOUN HWY",
      "City": "ROME",
      "State": "GA",
      "Zip": 30161,
      "Male Crim": 0.388679245283019,
      "Male Non-Crim": 0.667924528301887,
      "Female Crim": 0.0566037735849057,
      "Female Non-Crim": 0.188679245283019,
      "latitude": 34.2803637,
      "longitude": -85.1428696
    },
    {
      "Name": "FOLKSTON ANNEX IPC",
      "Address": "3424 HIGHWAY 252 EAST",
      "City": "FOLKSTON",
      "State": "GA",
      "Zip": 31537,
      "Male Crim": 68.5509433962264,
      "Male Non-Crim": 211.68679245283,
      "Female Crim": 0.0,
      "Female Non-Crim": 0.147169811320755,
      "latitude": 30.875036792616953,
      "longitude": -81.98072458889538
    },
    {
      "Name": "FOLKSTON MAIN IPC",
      "Address": "3026 HWY 252 EAST",
      "City": "FOLKSTON",
      "State": "GA",
      "Zip": 31537,
      "Male Crim": 178.879245283019,
      "Male Non-Crim": 459.294339622638,
      "Female Crim": 0.426415094339623,
      "Female Non-Crim": 0.290566037735849,
      "latitude": 30.876482215607357,
      "longitude": -81.9779839158829
    },
    {
      "Name": "STEWART DETENTION CENTER",
      "Address": "146 CCA ROAD",
      "City": "LUMPKIN",
      "State": "GA",
      "Zip": 31815,
      "Male Crim": 740.271698113209,
      "Male Non-Crim": 896.38113207547,
      "Female Crim": 49.8905660377358,
      "Female Non-Crim": 170.728301886793,
      "latitude": 32.036729905551354,
      "longitude": -84.77148464340088
    },
    {
      "Name": "DORCHESTER CO DET CTR",
      "Address": "220 HODGE ROAD",
      "City": "SUMMERVILLE",
      "State": "SC",
      "Zip": 29483,
      "Male Crim": null,
      "Male Non-Crim": null,
      "Female Crim": null,
      "Female Non-Crim": null,
      "latitude": null,
      "longitude": null
    },
    {
      "Name": "GASTON COUNTY JAIL",
      "Address": "425 DR M.L.K. JR. WAY,",
      "City": "GASTONIA",
      "State": "NC",
      "Zip": 28052,
      "Male Crim": null,
      "Male Non-Crim": null,
      "Female Crim": null,
      "Female Non-Crim": null,
      "latitude": null,
      "longitude": null
    },
    {
      "Name": "LEXINGTON COUNTY JAIL",
      "Address": "521 GIBSON ROAD",
      "City": "LEXINGTON",
      "State": "SC",
      "Zip": 29072,
      "Male Crim": 46.5338645418327,
      "Male Non-Crim": 72.1992031872509,
      "Female Crim": 19.2310756972112,
      "Female Non-Crim": 739.677290836651,
      "latitude": 33.9784808,
      "longitude": -81.2508399
    },
    {
      "Name": "NEW HANOVER COUNTY JAIL",
      "Address": "3950 JUVENILE RD",
      "City": "CASTLE HAYNE",
      "State": "NC",
      "Zip": 28429,
      "Male Crim": 232.450199203188,
      "Male Non-Crim": 195.796812749004,
      "Female Crim": 0.0,
      "Female Non-Crim": 0.0398406374501992,
      "latitude": 34.325340041511325,
      "longitude": -77.89457245997536
    },
    {
      "Name": "ROBERT A DEYTON DETENTION FACILITY",
      "Address": "11866 HASTINGS BRIDGE ROAD P.O. BOX 429",
      "City": "LOVEJOY",
      "State": "GA",
      "Zip": 30250,
      "Male Crim": 3.87649402390438,
      "Male Non-Crim": 5.54183266932271,
      "Female Crim": 0.207171314741036,
      "Female Non-Crim": 0.549800796812749,
      "latitude": null,
      "longitude": null
    },
    {
      "Name": "BERLIN FED. CORR. INST.",
      "Address": "1 SUCCESS LOOP DR.",
      "City": "BERLIN",
      "State": "NH",
      "Zip": 3570,
      "Male Crim": 23.6150943396226,
      "Male Non-Crim": 71.5547169811321,
      "Female Crim": 0.0415094339622641,
      "Female Non-Crim": 0.132075471698113,
      "latitude": 44.52160410997109,
      "longitude": -71.15084393084551
    },
    {
      "Name": "CHITTENDEN REGIONAL CORRECTIONAL FACILITY",
      "Address": "7 FARRELL STREET",
      "City": "SOUTH BURLINGTON",
      "State": "VT",
      "Zip": 5403,
      "Male Crim": 0.0,
      "Male Non-Crim": 0.0188679245283019,
      "Female Crim": 0.2,
      "Female Non-Crim": 3.11698113207548,
      "latitude": 44.4464191,
      "longitude": -73.2054841
    },
    {
      "Name": "CUMBERLAND COUNTY JAIL",
      "Address": "50 COUNTY WAY",
      "City": "PORTLAND",
      "State": "ME",
      "Zip": 4102,
      "Male Crim": 22.2264150943396,
      "Male Non-Crim": 20.4905660377359,
      "Female Crim": 3.84150943396227,
      "Female Non-Crim": 8.3433962264151,
      "latitude": 43.6508623,
      "longitude": -70.2816197
    },
    {
      "Name": "NORTHWEST STATE CORRECTIONAL CENTER",
      "Address": "3649 LOWER NEWTON ROAD",
      "City": "SWANTON",
      "State": "VT",
      "Zip": 5488,
      "Male Crim": 0.592452830188679,
      "Male Non-Crim": 8.29433962264155,
      "Female Crim": 0.0,
      "Female Non-Crim": 0.030188679245283,
      "latitude": 44.850597782512054,
      "longitude": -73.13323107316418
    },
    {
      "Name": "PLYMOUTH COUNTY CORRECTIONAL FACILITY",
      "Address": "26 LONG POND ROAD",
      "City": "PLYMOUTH",
      "State": "MA",
      "Zip": 2360,
      "Male Crim": 144.143396226415,
      "Male Non-Crim": 288.384905660378,
      "Female Crim": 0.381132075471698,
      "Female Non-Crim": 1.14339622641509,
      "latitude": 41.9318079,
      "longitude": -70.6512992
    },
    {
      "Name": "STRAFFORD COUNTY CORRECTIONS",
      "Address": "266 COUNTY FARM ROAD",
      "City": "DOVER",
      "State": "NH",
      "Zip": 3820,
      "Male Crim": 44.2188679245283,
      "Male Non-Crim": 44.3132075471699,
      "Female Crim": 6.32830188679245,
      "Female Non-Crim": 8.3622641509434,
      "latitude": 43.2192302,
      "longitude": -70.9386083
    },
    {
      "Name": "TWO BRIDGES REGIONAL JAIL",
      "Address": "522 BATH RD",
      "City": "WISCASSET",
      "State": "ME",
      "Zip": 4578,
      "Male Crim": 4.35849056603774,
      "Male Non-Crim": 4.87547169811321,
      "Female Crim": 0.0,
      "Female Non-Crim": 0.0,
      "latitude": 43.9781192,
      "longitude": -69.6989264
    },
    {
      "Name": "WYATT DETENTION CENTER",
      "Address": "950 HIGH STREET",
      "City": "CENTRAL FALLS",
      "State": "RI",
      "Zip": 2863,
      "Male Crim": 54.8037735849057,
      "Male Non-Crim": 53.6528301886793,
      "Female Crim": 1.90943396226415,
      "Female Non-Crim": 1.88679245283019,
      "latitude": 41.8928106,
      "longitude": -71.3831998
    },
    {
      "Name": "ROCKINGHAM COUNTY JAIL",
      "Address": "101 NORTH ROAD",
      "City": "BRENTWOOD",
      "State": "NH",
      "Zip": 3833,
      "Male Crim": null,
      "Male Non-Crim": null,
      "Female Crim": null,
      "Female Non-Crim": null,
      "latitude": 43.0120678,
      "longitude": -71.0472701
    },
    {
      "Name": "ALLEGANY COUNTY JAIL",
      "Address": "4884 STATE ROUTE 19",
      "City": "BELMONT",
      "State": "NY",
      "Zip": 14813,
      "Male Crim": 0.0,
      "Male Non-Crim": 0.173584905660377,
      "Female Crim": 0.354716981132075,
      "Female Non-Crim": 3.25283018867925,
      "latitude": 42.212952098118315,
      "longitude": -78.01655374441145
    },
    {
      "Name": "BROOME COUNTY JAIL",
      "Address": "897 FRONT STREET",
      "City": "BINGHAMPTON",
      "State": "NY",
      "Zip": 13905,
      "Male Crim": 0.279245283018868,
      "Male Non-Crim": 2.83773584905661,
      "Female Crim": 0.0,
      "Female Non-Crim": 0.0528301886792453,
      "latitude": 42.13112754376308,
      "longitude": -75.91372588859112
    },
    {
      "Name": "BUFFALO SERVICE PROCESSING CENTER",
      "Address": "4250 FEDERAL DRIVE",
      "City": "BATAVIA",
      "State": "NY",
      "Zip": 14020,
      "Male Crim": 254.82641509434,
      "Male Non-Crim": 345.950943396228,
      "Female Crim": 0.0,
      "Female Non-Crim": 0.0943396226415094,
      "latitude": 43.0203104,
      "longitude": -78.2024802
    },
    {
      "Name": "CLINTON COUNTY JAIL",
      "Address": "25 MCCARTHY DRIVE",
      "City": "PLATTSBURGH",
      "State": "NY",
      "Zip": 12901,
      "Male Crim": 0.441509433962264,
      "Male Non-Crim": 0.716981132075472,
      "Female Crim": 1.41509433962264,
      "Female Non-Crim": 2.90943396226415,
      "latitude": 44.7204627,
      "longitude": -73.467472
    },
    {
      "Name": "NIAGARA COUNTY JAIL",
      "Address": "5526 NIAGARA STREET EXTENTION",
      "City": "LOCKPORT",
      "State": "NY",
      "Zip": 14094,
      "Male Crim": 0.0,
      "Male Non-Crim": 0.0264150943396226,
      "Female Crim": 0.0452830188679245,
      "Female Non-Crim": 0.973584905660377,
      "latitude": null,
      "longitude": null
    },
    {
      "Name": "MONTGOMERY COUNTY JAIL",
      "Address": "PARK STREET",
      "City": "FONDA",
      "State": "NY",
      "Zip": 12068,
      "Male Crim": null,
      "Male Non-Crim": null,
      "Female Crim": null,
      "Female Non-Crim": null,
      "latitude": 42.9531059,
      "longitude": -74.3729461
    },
    {
      "Name": "BOONE COUNTY JAIL",
      "Address": "3020 CONRAD LANE",
      "City": "BURLINGTON",
      "State": "KY",
      "Zip": 41005,
      "Male Crim": 112.339622641509,
      "Male Non-Crim": 40.1660377358491,
      "Female Crim": 3.9622641509434,
      "Female Non-Crim": 0.830188679245283,
      "latitude": 39.0373257,
      "longitude": -84.7236669
    },
    {
      "Name": "CAMPBELL CO DET CTR",
      "Address": "601 CENTRAL AVE",
      "City": "NEWPORT",
      "State": "KY",
      "Zip": 41071,
      "Male Crim": 9.30566037735849,
      "Male Non-Crim": 10.4415094339623,
      "Female Crim": 0.335849056603774,
      "Female Non-Crim": 2.83396226415094,
      "latitude": 39.0887186,
      "longitude": -84.4969756
    },
    {
      "Name": "CHASE COUNTY JAIL",
      "Address": "301 SOUTH WALNUT STREET",
      "City": "COTTONWOOD FALL",
      "State": "KS",
      "Zip": 66845,
      "Male Crim": 51.7245283018868,
      "Male Non-Crim": 41.8754716981133,
      "Female Crim": 4.03018867924528,
      "Female Non-Crim": 4.32075471698114,
      "latitude": 38.36801388495829,
      "longitude": -96.53868750219544
    },
    {
      "Name": "CLARK COUNTY JAIL (IN)",
      "Address": "501 EAST COURT AVE.",
      "City": "JEFFERSONVILLE",
      "State": "IN",
      "Zip": 47130,
      "Male Crim": 2.24150943396226,
      "Male Non-Crim": 4.78490566037736,
      "Female Crim": 5.3811320754717,
      "Female Non-Crim": 9.82641509433963,
      "latitude": 38.277682,
      "longitude": -85.7375976
    },
    {
      "Name": "CLAY COUNTY JUSTICE CENTER",
      "Address": "611 EAST JACKSON STREET",
      "City": "BRAZIL",
      "State": "IN",
      "Zip": 47834,
      "Male Crim": 137.109433962264,
      "Male Non-Crim": 104.411320754717,
      "Female Crim": 8.04905660377359,
      "Female Non-Crim": 6.41886792452833,
      "latitude": 39.5236693,
      "longitude": -87.1191065
    },
    {
      "Name": "CLINTON COUNTY JAIL",
      "Address": "301 E WALNUT STREET",
      "City": "FRANKFORT",
      "State": "IN",
      "Zip": 46041,
      "Male Crim": 1.36981132075472,
      "Male Non-Crim": 1.16981132075472,
      "Female Crim": 0.0943396226415094,
      "Female Non-Crim": 0.39622641509434,
      "latitude": 40.2791153,
      "longitude": -86.5087576
    },
    {
      "Name": "DODGE COUNTY JAIL",
      "Address": "215 WEST CENTRAL STREET",
      "City": "JUNEAU",
      "State": "WI",
      "Zip": 53039,
      "Male Crim": 83.1433962264151,
      "Male Non-Crim": 27.3509433962264,
      "Female Crim": 0.422641509433962,
      "Female Non-Crim": 0.943396226415094,
      "latitude": 43.40855649830141,
      "longitude": -88.70504618075388
    },
    {
      "Name": "GRAYSON COUNTY JAIL",
      "Address": "320 SHAW STATION ROAD",
      "City": "LEITCHFIELD",
      "State": "KY",
      "Zip": 42754,
      "Male Crim": 5.1547169811321,
      "Male Non-Crim": 2.73207547169812,
      "Female Crim": 15.0981132075472,
      "Female Non-Crim": 23.2301886792453,
      "latitude": 37.4890391,
      "longitude": -86.2702303
    },
    {
      "Name": "GREENE COUNTY JAIL",
      "Address": "1199 N HASELTINE RD",
      "City": "SPRINGFIELD",
      "State": "MO",
      "Zip": 65802,
      "Male Crim": 48.5094339622642,
      "Male Non-Crim": 53.3735849056603,
      "Female Crim": 2.57735849056604,
      "Female Non-Crim": 6.68301886792453,
      "latitude": 37.2227197,
      "longitude": -93.385532
    },
    {
      "Name": "HOPKINS COUNTY JAIL",
      "Address": "2250 LAFOON TRAIL",
      "City": "MADISONVILLE",
      "State": "KY",
      "Zip": 42431,
      "Male Crim": 6.31698113207548,
      "Male Non-Crim": 8.15094339622642,
      "Female Crim": 0.150943396226415,
      "Female Non-Crim": 1.73584905660377,
      "latitude": 37.337886976243404,
      "longitude": -87.54013518688257
    },
    {
      "Name": "KAY CO JUSTICE FACILITY",
      "Address": "1101 WEST DRY ROAD",
      "City": "NEWKIRK",
      "State": "OK",
      "Zip": 74647,
      "Male Crim": 49.8037735849056,
      "Male Non-Crim": 57.0867924528301,
      "Female Crim": 0.0,
      "Female Non-Crim": 0.0679245283018868,
      "latitude": 36.86806507097945,
      "longitude": -97.06923720408514
    },
    {
      "Name": "KENTON COUNTY JAIL",
      "Address": "303 COURT STREET",
      "City": "COVINGTON",
      "State": "KY",
      "Zip": 41011,
      "Male Crim": 2.22264150943396,
      "Male Non-Crim": 4.77358490566038,
      "Female Crim": 0.139622641509434,
      "Female Non-Crim": 0.0,
      "latitude": 39.0885257,
      "longitude": -84.5087427
    },
    {
      "Name": "LAUREL COUNTY SHERIFFS JAIL",
      "Address": "203 SOUTH BROAD ST.",
      "City": "LONDON",
      "State": "KY",
      "Zip": 40741,
      "Male Crim": 0.618867924528302,
      "Male Non-Crim": 0.690566037735849,
      "Female Crim": 0.252830188679245,
      "Female Non-Crim": 0.864150943396226,
      "latitude": 37.1277507,
      "longitude": -84.0839281
    },
    {
      "Name": "LEAVENWORTH US PENITENTIARY",
      "Address": "1300 METROPOLITAN AVE.",
      "City": "LEAVENWORTH",
      "State": "KS",
      "Zip": 66048,
      "Male Crim": 20.1245283018868,
      "Male Non-Crim": 12.0981132075472,
      "Female Crim": 0.0,
      "Female Non-Crim": 0.0,
      "latitude": 39.3303867,
      "longitude": -94.9357354
    },
    {
      "Name": "MARION COUNTY JAIL",
      "Address": "40 SOUTH ALABAMA STREET",
      "City": "INDIANAPOLIS",
      "State": "IN",
      "Zip": 46204,
      "Male Crim": 19.4301886792453,
      "Male Non-Crim": 20.0150943396227,
      "Female Crim": 0.124528301886792,
      "Female Non-Crim": 0.0264150943396226,
      "latitude": 39.7659475,
      "longitude": -86.1528002
    },
    {
      "Name": "OLDHAM COUNTY JAIL",
      "Address": "100 W MAIN STREET",
      "City": "LA GRANGE",
      "State": "KY",
      "Zip": 40031,
      "Male Crim": 19.8150943396227,
      "Male Non-Crim": 17.011320754717,
      "Female Crim": 0.132075471698113,
      "Female Non-Crim": 1.24528301886792,
      "latitude": 38.407579,
      "longitude": -85.378999
    },
    {
      "Name": "OZARK COUNTY SHERIFF'S OFFICE",
      "Address": "1818 COUNTY ROAD 806",
      "City": "GAINESVILLE",
      "State": "MO",
      "Zip": 65655,
      "Male Crim": 0.686792452830189,
      "Male Non-Crim": 1.06037735849057,
      "Female Crim": 0.0150943396226415,
      "Female Non-Crim": 0.00754716981132075,
      "latitude": 36.6014034,
      "longitude": -92.4516834
    },
    {
      "Name": "PHELPS COUNTY JAIL (MO)",
      "Address": "301 W. 2ND",
      "City": "ROLLA",
      "State": "MO",
      "Zip": 65401,
      "Male Crim": 4.63773584905661,
      "Male Non-Crim": 7.1245283018868,
      "Female Crim": 0.19622641509434,
      "Female Non-Crim": 1.00754716981132,
      "latitude": 37.9454138,
      "longitude": -91.7739843
    },
    {
      "Name": "STE. GENEVIEVE COUNTY SHERIFF/JAIL",
      "Address": "5 BASLER DR.",
      "City": "STE. GENEVIEVE",
      "State": "MO",
      "Zip": 63670,
      "Male Crim": 6.67547169811321,
      "Male Non-Crim": 13.3018867924528,
      "Female Crim": 0.271698113207547,
      "Female Non-Crim": 1.38490566037736,
      "latitude": 37.965677,
      "longitude": -90.0551125
    },
    {
      "Name": "WAUKESHA COUNTY JAIL",
      "Address": "515 WEST MORELAND",
      "City": "WAUKESHA",
      "State": "WI",
      "Zip": 53186,
      "Male Crim": 0.539622641509434,
      "Male Non-Crim": 0.471698113207547,
      "Female Crim": 0.0415094339622641,
      "Female Non-Crim": 0.154716981132075,
      "latitude": 43.0236491,
      "longitude": -88.228229
    },
    {
      "Name": "BOURBON CO DET CENTER",
      "Address": "BOURBON CO COURTHOUSE, MAIN STREET",
      "City": "PARIS",
      "State": "KY",
      "Zip": 40361,
      "Male Crim": null,
      "Male Non-Crim": null,
      "Female Crim": null,
      "Female Non-Crim": null,
      "latitude": null,
      "longitude": null
    },
    {
      "Name": "BROWN COUNTY JAIL",
      "Address": "3030 CURRY LN",
      "City": "GREEN BAY",
      "State": "WI",
      "Zip": 54311,
      "Male Crim": null,
      "Male Non-Crim": null,
      "Female Crim": null,
      "Female Non-Crim": null,
      "latitude": 44.5223753,
      "longitude": -87.9313774
    },
    {
      "Name": "FAYETTE COUNTY DETENTION CENTER",
      "Address": "600 OLD FRANKFORD CR",
      "City": "LEXINGTON",
      "State": "KY",
      "Zip": 40510,
      "Male Crim": 13.1434262948208,
      "Male Non-Crim": 24.9163346613549,
      "Female Crim": 0.653386454183267,
      "Female Non-Crim": 3.45019920318725,
      "latitude": 38.06555828124883,
      "longitude": -84.54565987336858
    },
    {
      "Name": "FINNEY COUNTY JAIL",
      "Address": "304 N. 9TH STREET",
      "City": "GARDEN CITY",
      "State": "KS",
      "Zip": 67846,
      "Male Crim": 7.67330677290836,
      "Male Non-Crim": 2.39442231075697,
      "Female Crim": 0.410358565737052,
      "Female Non-Crim": 0.342629482071713,
      "latitude": 37.9674162,
      "longitude": -100.876362
    },
    {
      "Name": "SAUK COUNTY SHERIFF",
      "Address": "1300 LANGE CT.",
      "City": "BARABOO",
      "State": "WI",
      "Zip": 53913,
      "Male Crim": null,
      "Male Non-Crim": null,
      "Female Crim": null,
      "Female Non-Crim": null,
      "latitude": 43.4615055,
      "longitude": -89.7672991
    },
    {
      "Name": "SCOTT COUNTY DET. FACILITY",
      "Address": "416 W 4TH ST",
      "City": "DAVENPORT",
      "State": "IA",
      "Zip": 52801,
      "Male Crim": null,
      "Male Non-Crim": null,
      "Female Crim": null,
      "Female Non-Crim": null,
      "latitude": 41.5236168,
      "longitude": -90.5788339
    },
    {
      "Name": "BLUEBONNET DETENTION FACILITY",
      "Address": "400 2ND STREET",
      "City": "ANSON",
      "State": "TX",
      "Zip": 79501,
      "Male Crim": 343.245283018873,
      "Male Non-Crim": 513.920754716994,
      "Female Crim": 14.3509433962264,
      "Female Non-Crim": 58.4339622641509,
      "latitude": 32.7667663,
      "longitude": -99.8888312
    },
    {
      "Name": "CIMMARRON CORR FACILITY",
      "Address": "3700 S. KINGS HWY",
      "City": "CUSHING",
      "State": "OK",
      "Zip": 74023,
      "Male Crim": 26.2792452830189,
      "Male Non-Crim": 82.6792452830191,
      "Female Crim": 0.0,
      "Female Non-Crim": 0.158490566037736,
      "latitude": 35.961173,
      "longitude": -96.7848408
    },
    {
      "Name": "DALLAS COUNTY JAIL - LEW STERRETT JUSTICE CENTER",
      "Address": "111 WEST COMMERCE STREET",
      "City": "DALLAS",
      "State": "TX",
      "Zip": 75202,
      "Male Crim": 2.75849056603776,
      "Male Non-Crim": 4.38490566037743,
      "Female Crim": 0.158490566037736,
      "Female Non-Crim": 0.388679245283019,
      "latitude": 32.7746483,
      "longitude": -96.8243069
    },
    {
      "Name": "EDEN DETENTION CTR",
      "Address": "702 E BROADWAY ST",
      "City": "EDEN",
      "State": "TX",
      "Zip": 76837,
      "Male Crim": 11.6905660377359,
      "Male Non-Crim": 98.6716981132077,
      "Female Crim": 0.0,
      "Female Non-Crim": 0.0754716981132075,
      "latitude": 31.2175083,
      "longitude": -99.8339599
    },
    {
      "Name": "LUBBOCK COUNTY DETENTION CENTER",
      "Address": "811 MAIN STREET",
      "City": "LUBBOCK",
      "State": "TX",
      "Zip": 79401,
      "Male Crim": 0.732075471698113,
      "Male Non-Crim": 1.33962264150943,
      "Female Crim": 0.0113207547169811,
      "Female Non-Crim": 0.0754716981132075,
      "latitude": 33.5854229,
      "longitude": -101.8434337
    },
    {
      "Name": "PRAIRIELAND DETENTION CENTER",
      "Address": "1209 SUNFLOWER LN",
      "City": "ALVARADO",
      "State": "TX",
      "Zip": 76009,
      "Male Crim": 279.230188679249,
      "Male Non-Crim": 425.84150943397,
      "Female Crim": 24.8943396226415,
      "Female Non-Crim": 43.5811320754716,
      "latitude": 32.4217035,
      "longitude": -97.1958971
    },
    {
      "Name": "TULSA COUNTY JAIL (DAVID L. MOSS JUSTICE CTR)",
      "Address": "300 NORTH DENVER AVENUE",
      "City": "TULSA",
      "State": "OK",
      "Zip": 74103,
      "Male Crim": 13.079245283019,
      "Male Non-Crim": 24.5660377358492,
      "Female Crim": 0.754716981132075,
      "Female Non-Crim": 3.28679245283019,
      "latitude": 36.1572816,
      "longitude": -95.9990129
    },
    {
      "Name": "GARVIN COUNTY DETENTION CENTER",
      "Address": "201 WEST GRANT AVENUE",
      "City": "PAULS VALLEY",
      "State": "OK",
      "Zip": 73075,
      "Male Crim": null,
      "Male Non-Crim": null,
      "Female Crim": null,
      "Female Non-Crim": null,
      "latitude": 34.740534,
      "longitude": -97.221544
    },
    {
      "Name": "WICHITA COUNTY JAIL",
      "Address": "2815 CENTRAL FWY",
      "City": "WICHITA FALLS",
      "State": "TX",
      "Zip": 76302,
      "Male Crim": null,
      "Male Non-Crim": null,
      "Female Crim": null,
      "Female Non-Crim": null,
      "latitude": 33.9087422,
      "longitude": -98.501201
    },
    {
      "Name": "DENVER CONTRACT DETENTION FACILITY",
      "Address": "3130 OAKLAND ST",
      "City": "AURORA",
      "State": "CO",
      "Zip": 80010,
      "Male Crim": 311.366037735849,
      "Male Non-Crim": 775.200000000001,
      "Female Crim": 20.5849056603774,
      "Female Non-Crim": 51.9547169811321,
      "latitude": 39.760875,
      "longitude": -104.849087
    },
    {
      "Name": "PLATTE COUNTY JAIL",
      "Address": "850 MAPLE STREET",
      "City": "WHEATLAND",
      "State": "WY",
      "Zip": 82201,
      "Male Crim": 0.973584905660377,
      "Male Non-Crim": 0.845283018867924,
      "Female Crim": 0.00377358490566038,
      "Female Non-Crim": 0.0226415094339623,
      "latitude": 42.0555979,
      "longitude": -104.9522457
    },
    {
      "Name": "SWEETWATER COUNTY JAIL",
      "Address": "50140 UNITED STATES HIGHWAY 191 SOUTH",
      "City": "ROCK SPRINGS",
      "State": "WY",
      "Zip": 82935,
      "Male Crim": 0.8,
      "Male Non-Crim": 0.309433962264151,
      "Female Crim": 0.0490566037735849,
      "Female Non-Crim": 0.0754716981132075,
      "latitude": 41.5371934874891,
      "longitude": -109.30126553093841
    },
    {
      "Name": "NATRONA COUNTY JAIL",
      "Address": "1100 BRUCE LANE",
      "City": "CASPER",
      "State": "WY",
      "Zip": 82601,
      "Male Crim": null,
      "Male Non-Crim": null,
      "Female Crim": null,
      "Female Non-Crim": null,
      "latitude": 42.862486,
      "longitude": -106.344705
    },
    {
      "Name": "BUTLER COUNTY JAIL",
      "Address": "705 HANOVER STREET",
      "City": "HAMILTON",
      "State": "OH",
      "Zip": 45011,
      "Male Crim": 25.2679245283019,
      "Male Non-Crim": 62.3962264150944,
      "Female Crim": 1.35849056603774,
      "Female Non-Crim": 7.00377358490567,
      "latitude": 39.3881265,
      "longitude": -84.55588
    },
    {
      "Name": "CALHOUN COUNTY CORRECTIONAL CENTER",
      "Address": "185 EAST MICHIGAN AVENUE",
      "City": "BATTLE CREEK",
      "State": "MI",
      "Zip": 49014,
      "Male Crim": 48.1471698113208,
      "Male Non-Crim": 87.7471698113207,
      "Female Crim": 3.24905660377359,
      "Female Non-Crim": 11.7132075471698,
      "latitude": 42.3166739,
      "longitude": -85.1758915
    },
    {
      "Name": "CHIPPEWA COUNTY SSM",
      "Address": "325 COURT STREET",
      "City": "SAULT STE MARIE",
      "State": "MI",
      "Zip": 49783,
      "Male Crim": 10.8905660377359,
      "Male Non-Crim": 20.1018867924528,
      "Female Crim": 0.0,
      "Female Non-Crim": 0.0,
      "latitude": 46.4977347,
      "longitude": -84.3459656
    },
    {
      "Name": "CORR. CTR OF NORTHWEST OHIO",
      "Address": "3151 ROAD 24.25, ROUTE 1",
      "City": "STRYKER",
      "State": "OH",
      "Zip": 43557,
      "Male Crim": 6.17358490566038,
      "Male Non-Crim": 14.1849056603774,
      "Female Crim": 0.89811320754717,
      "Female Non-Crim": 4.75849056603774,
      "latitude": 41.46614644488944,
      "longitude": -84.35637935792789
    },
    {
      "Name": "GEAUGA COUNTY JAIL",
      "Address": "12450 MERRITT DR",
      "City": "CHARDON",
      "State": "OH",
      "Zip": 44024,
      "Male Crim": 14.9169811320755,
      "Male Non-Crim": 19.2566037735849,
      "Female Crim": 1.10188679245283,
      "Female Non-Crim": 7.35471698113208,
      "latitude": 41.504827833000164,
      "longitude": -81.19154084443294
    },
    {
      "Name": "MAHONING COUNTY JAIL",
      "Address": "110 FIFTH AVENUE",
      "City": "YOUNGSTOWN",
      "State": "OH",
      "Zip": 44503,
      "Male Crim": 3.44528301886793,
      "Male Non-Crim": 16.8,
      "Female Crim": 0.445283018867925,
      "Female Non-Crim": 3.89056603773585,
      "latitude": 41.103708,
      "longitude": -80.6545051
    },
    {
      "Name": "MONROE COUNTY DETENTION-DORM",
      "Address": "7000 EAST DUNBAR ROAD",
      "City": "MONROE",
      "State": "MI",
      "Zip": 48161,
      "Male Crim": 14.1471698113208,
      "Male Non-Crim": 87.4490566037735,
      "Female Crim": 0.0,
      "Female Non-Crim": 0.290566037735849,
      "latitude": 41.89347,
      "longitude": -83.396328
    },
    {
      "Name": "NORTHEAST OHIO CORRECTIONAL CENTER",
      "Address": "2240 HUBBARD ROAD",
      "City": "YOUNGSTOWN",
      "State": "OH",
      "Zip": 44505,
      "Male Crim": 26.3773584905661,
      "Male Non-Crim": 59.8301886792455,
      "Female Crim": 0.0,
      "Female Non-Crim": 0.0150943396226415,
      "latitude": 41.1288515,
      "longitude": -80.6267877
    },
    {
      "Name": "SENECA COUNTY JAIL",
      "Address": "3040 SOUTH STATE HIGHWAY 100",
      "City": "TIFFIN",
      "State": "OH",
      "Zip": 44883,
      "Male Crim": 33.0188679245283,
      "Male Non-Crim": 22.9509433962264,
      "Female Crim": 2.33207547169811,
      "Female Non-Crim": 1.97735849056604,
      "latitude": 41.079506331622774,
      "longitude": -83.15386397328119
    },
    {
      "Name": "ST. CLAIR COUNTY JAIL",
      "Address": "1170 MICHIGAN ROAD",
      "City": "PORT HURON",
      "State": "MI",
      "Zip": 48060,
      "Male Crim": 20.5773584905661,
      "Male Non-Crim": 48.5056603773585,
      "Female Crim": 0.0,
      "Female Non-Crim": 0.0,
      "latitude": 42.9426053,
      "longitude": -82.4799303
    },
    {
      "Name": "CIBOLA COUNTY CORRECTIONAL CENTER",
      "Address": "2000 CIBOLA LOOP",
      "City": "MILAN",
      "State": "NM",
      "Zip": 87021,
      "Male Crim": 33.7320754716981,
      "Male Non-Crim": 193.596226415095,
      "Female Crim": 0.0679245283018868,
      "Female Non-Crim": 0.0,
      "latitude": 35.18004057943829,
      "longitude": -107.9072294599532
    },
    {
      "Name": "EL PASO SERVICE PROCESSING CENTER",
      "Address": "8915 MONTANA AVE.",
      "City": "EL PASO",
      "State": "TX",
      "Zip": 79925,
      "Male Crim": 288.094339622657,
      "Male Non-Crim": 283.622641509442,
      "Female Crim": 64.1849056603771,
      "Female Non-Crim": 151.192452830189,
      "latitude": 31.7934217,
      "longitude": -106.3691494
    },
    {
      "Name": "EL PASO SOFT SIDED FACILITY",
      "Address": "12501 GATEWAY BLVD S",
      "City": "EL PASO",
      "State": "TX",
      "Zip": 79934,
      "Male Crim": 34.7509433962261,
      "Male Non-Crim": 68.49433962264,
      "Female Crim": 2.3811320754717,
      "Female Non-Crim": 6.82641509433968,
      "latitude": 31.9432041,
      "longitude": -106.4039873
    },
    {
      "Name": "OTERO COUNTY PROCESSING CENTER",
      "Address": "26 MCGREGOR RANGE ROAD",
      "City": "CHAPARRAL",
      "State": "NM",
      "Zip": 88081,
      "Male Crim": 161.143396226416,
      "Male Non-Crim": 527.939622641501,
      "Female Crim": 7.77735849056604,
      "Female Non-Crim": 145.803773584907,
      "latitude": 32.0786798,
      "longitude": -106.2779169
    },
    {
      "Name": "TORRANCE/ESTANCIA, NM",
      "Address": "209 COUNTY ROAD 49",
      "City": "ESTANCIA",
      "State": "NM",
      "Zip": 87016,
      "Male Crim": 65.611320754717,
      "Male Non-Crim": 369.27924528302,
      "Female Crim": 0.0,
      "Female Non-Crim": 0.00377358490566038,
      "latitude": 34.76832244015224,
      "longitude": -106.01873793112864
    },
    {
      "Name": "CHAVEZ DETENTION CENTER",
      "Address": "3701 S. ATKINSON",
      "City": "ROSWELL",
      "State": "NM",
      "Zip": 88201,
      "Male Crim": null,
      "Male Non-Crim": null,
      "Female Crim": null,
      "Female Non-Crim": null,
      "latitude": 33.3516794,
      "longitude": -104.5055424
    },
    {
      "Name": "MIDLAND COUNTY DETENTION CENTER",
      "Address": "400 S MAIN STREET",
      "City": "MIDLAND",
      "State": "TX",
      "Zip": 79701,
      "Male Crim": null,
      "Male Non-Crim": null,
      "Female Crim": null,
      "Female Non-Crim": null,
      "latitude": 31.994252,
      "longitude": -102.074372
    },
    {
      "Name": "COASTAL BEND DETENTION FACILITY",
      "Address": "4909 FM 2826",
      "City": "ROBSTOWN",
      "State": "TX",
      "Zip": 78380,
      "Male Crim": 5.07169811320758,
      "Male Non-Crim": 10.6339622641511,
      "Female Crim": 0.275471698113208,
      "Female Non-Crim": 1.6,
      "latitude": 27.737232588266924,
      "longitude": -97.75467600061113
    },
    {
      "Name": "EAST HIDALGO DETENTION CENTER",
      "Address": "1330 HIGHWAY 107",
      "City": "LA VILLA",
      "State": "TX",
      "Zip": 78562,
      "Male Crim": 5.17735849056607,
      "Male Non-Crim": 5.46037735849061,
      "Female Crim": 0.188679245283019,
      "Female Non-Crim": 0.713207547169811,
      "latitude": 26.295748678577546,
      "longitude": -97.91819101612627
    },
    {
      "Name": "EL VALLE DETENTION FACILITY",
      "Address": "1800 INDUSTRIAL DRIVE",
      "City": "RAYMONDVILLE",
      "State": "TX",
      "Zip": 78580,
      "Male Crim": 138.241509433962,
      "Male Non-Crim": 279.011320754717,
      "Female Crim": 23.0905660377359,
      "Female Non-Crim": 396.256603773587,
      "latitude": 26.467581958871495,
      "longitude": -97.76228788899171
    },
    {
      "Name": "LAREDO PROCESSING CENTER",
      "Address": "4702 EAST SAUNDERS STREET",
      "City": "LAREDO",
      "State": "TX",
      "Zip": 78041,
      "Male Crim": 0.132075471698113,
      "Male Non-Crim": 4.24528301886793,
      "Female Crim": 20.7622641509434,
      "Female Non-Crim": 334.74716981132,
      "latitude": 27.5294764,
      "longitude": -99.4477731
    },
    {
      "Name": "PORT ISABEL SPC",
      "Address": "27991 BUENA VISTA BOULEVARD",
      "City": "LOS FRESNOS",
      "State": "TX",
      "Zip": 78566,
      "Male Crim": 143.92075471698,
      "Male Non-Crim": 900.977358490549,
      "Female Crim": 0.543396226415094,
      "Female Non-Crim": 1.29811320754717,
      "latitude": 26.1563622,
      "longitude": -97.337839
    },
    {
      "Name": "RIO GRANDE DETENTION CENTER",
      "Address": "1001 SAN RIO BOULEVARD",
      "City": "LAREDO",
      "State": "TX",
      "Zip": 78046,
      "Male Crim": 36.3849056603774,
      "Male Non-Crim": 593.852830188674,
      "Female Crim": 0.0,
      "Female Non-Crim": 0.211320754716981,
      "latitude": 27.379978,
      "longitude": -99.486229
    },
    {
      "Name": "WEBB COUNTY DETENTION CENTER (CCA)",
      "Address": "9998 SOUTH HIGHWAY 83",
      "City": "LAREDO",
      "State": "TX",
      "Zip": 78041,
      "Male Crim": 49.2566037735849,
      "Male Non-Crim": 284.566037735848,
      "Female Crim": 5.39245283018868,
      "Female Non-Crim": 27.0150943396227,
      "latitude": 27.377731,
      "longitude": -99.471644
    },
    {
      "Name": "HOUSTON CONTRACT DETENTION FACILITY",
      "Address": "15850 EXPORT PLAZA DRIVE",
      "City": "HOUSTON",
      "State": "TX",
      "Zip": 77032,
      "Male Crim": 47.4943396226416,
      "Male Non-Crim": 449.581132075473,
      "Female Crim": 24.6943396226415,
      "Female Non-Crim": 310.694339622643,
      "latitude": 29.9508332,
      "longitude": -95.3121699
    },
    {
      "Name": "IAH SECURE ADULT DETENTION FACILITY (POLK)",
      "Address": "3400 FM 350 SOUTH",
      "City": "LIVINGSTON",
      "State": "TX",
      "Zip": 77351,
      "Male Crim": 103.479245283019,
      "Male Non-Crim": 701.158490566036,
      "Female Crim": 0.0,
      "Female Non-Crim": 0.147169811320755,
      "latitude": 30.6981513,
      "longitude": -95.0057915
    },
    {
      "Name": "JOE CORLEY PROCESSING CTR",
      "Address": "500 HILBIG RD",
      "City": "CONROE",
      "State": "TX",
      "Zip": 77301,
      "Male Crim": 89.2905660377358,
      "Male Non-Crim": 737.984905660379,
      "Female Crim": 0.0,
      "Female Non-Crim": 0.158490566037736,
      "latitude": 30.3359939,
      "longitude": -95.4481982
    },
    {
      "Name": "LIMESTONE COUNTY DETENTION CENTER",
      "Address": "910 NORTH TYUS STREET",
      "City": "GROESBECK",
      "State": "TX",
      "Zip": 76642,
      "Male Crim": 9.19245283018873,
      "Male Non-Crim": 22.2150943396226,
      "Female Crim": 0.0,
      "Female Non-Crim": 0.0,
      "latitude": 31.5287835,
      "longitude": -96.512347
    },
    {
      "Name": "MONTGOMERY ICE PROCESSING CENTER",
      "Address": "806 HILBIG RD",
      "City": "CONROE",
      "State": "TX",
      "Zip": 77301,
      "Male Crim": 615.094339622644,
      "Male Non-Crim": 479.618867924532,
      "Female Crim": 45.6641509433962,
      "Female Non-Crim": 65.3735849056603,
      "latitude": 30.3368088,
      "longitude": -95.4431046
    },
    {
      "Name": "BELL COUNTY JAIL",
      "Address": "111 W. CENTRAL",
      "City": "BELTON",
      "State": "TX",
      "Zip": 76513,
      "Male Crim": null,
      "Male Non-Crim": null,
      "Female Crim": null,
      "Female Non-Crim": null,
      "latitude": 31.056693,
      "longitude": -97.464869
    },
    {
      "Name": "MCLENNAN COUNTY JAIL",
      "Address": "3201 MARLIN HWY",
      "City": "WACO",
      "State": "TX",
      "Zip": 76705,
      "Male Crim": null,
      "Male Non-Crim": null,
      "Female Crim": null,
      "Female Non-Crim": null,
      "latitude": 31.5478236,
      "longitude": -97.0800166
    },
    {
      "Name": "VICTORIA COUNTY JAIL",
      "Address": "101 NORTH GLASS STREET",
      "City": "VICTORIA",
      "State": "TX",
      "Zip": 77901,
      "Male Crim": null,
      "Male Non-Crim": null,
      "Female Crim": null,
      "Female Non-Crim": null,
      "latitude": 28.8005407,
      "longitude": -97.0085472
    },
    {
      "Name": "ADELANTO ICE PROCESSING CENTER",
      "Address": "10250 RANCHO ROAD",
      "City": "ADELANTO",
      "State": "CA",
      "Zip": 92301,
      "Male Crim": 146.132075471698,
      "Male Non-Crim": 63.4792452830194,
      "Female Crim": 0.750943396226415,
      "Female Non-Crim": 2.50188679245283,
      "latitude": 34.5599467,
      "longitude": -117.4421505
    },
    {
      "Name": "DESERT VIEW ANNEX",
      "Address": "10450 RANCHO ROAD",
      "City": "ADELANTO",
      "State": "CA",
      "Zip": 92301,
      "Male Crim": 144.656603773585,
      "Male Non-Crim": 267.075471698113,
      "Female Crim": 0.0981132075471698,
      "Female Non-Crim": 0.147169811320755,
      "latitude": 34.5599404,
      "longitude": -117.4372813
    },
    {
      "Name": "BAKER COUNTY SHERIFF DEPT.",
      "Address": "1 SHERIFF OFFICE DRIVE",
      "City": "MACCLENNY",
      "State": "FL",
      "Zip": 32063,
      "Male Crim": 146.264150943396,
      "Male Non-Crim": 58.5622641509434,
      "Female Crim": 23.0830188679245,
      "Female Non-Crim": 23.1584905660377,
      "latitude": 30.296199564670268,
      "longitude": -82.12165470055466
    },
    {
      "Name": "BROWARD COUNTY JAIL",
      "Address": "555 SE 1ST AVENUE",
      "City": "FT.LAUDERDALE",
      "State": "FL",
      "Zip": 33301,
      "Male Crim": 0.362264150943396,
      "Male Non-Crim": 1.58490566037736,
      "Female Crim": 0.0490566037735849,
      "Female Non-Crim": 0.150943396226415,
      "latitude": 26.1162336,
      "longitude": -80.1423181
    },
    {
      "Name": "BROWARD TRANSITIONAL CENTER",
      "Address": "3900 NORTH POWERLINE ROAD",
      "City": "POMPANO BEACH",
      "State": "FL",
      "Zip": 33073,
      "Male Crim": 116.332075471698,
      "Male Non-Crim": 427.569811320754,
      "Female Crim": 15.6377358490566,
      "Female Non-Crim": 79.3811320754717,
      "latitude": 26.2759099,
      "longitude": -80.15197
    },
    {
      "Name": "COLLIER COUNTY NAPLES JAIL CENTER",
      "Address": "3347 TAMIAMI TRAIL E",
      "City": "NAPLES",
      "State": "FL",
      "Zip": 34112,
      "Male Crim": 6.20754716981139,
      "Male Non-Crim": 5.80754716981139,
      "Female Crim": 0.207547169811321,
      "Female Non-Crim": 0.350943396226415,
      "latitude": 26.1257654,
      "longitude": -81.7651214
    },
    {
      "Name": "GLADES COUNTY DETENTION CENTER",
      "Address": "1297 EAST SR 78",
      "City": "MOORE HAVEN",
      "State": "FL",
      "Zip": 33471,
      "Male Crim": 34.2037735849057,
      "Male Non-Crim": 33.5433962264151,
      "Female Crim": 0.279245283018868,
      "Female Non-Crim": 0.0,
      "latitude": 26.83880034675664,
      "longitude": -81.12392113131328
    },
    {
      "Name": "JTF CAMP SIX",
      "Address": "AVENUE C PSC 1005 BOX 55",
      "City": "FPO",
      "State": "FL",
      "Zip": 34009,
      "Male Crim": 6.55471698113209,
      "Male Non-Crim": 6.49811320754718,
      "Female Crim": 0.0,
      "Female Non-Crim": 0.0,
      "latitude": null,
      "longitude": null
    },
    {
      "Name": "KROME NORTH SERVICE PROCESSING CENTER",
      "Address": "18201 SW 12TH ST",
      "City": "MIAMI",
      "State": "FL",
      "Zip": 33194,
      "Male Crim": 449.486792452839,
      "Male Non-Crim": 420.384905660393,
      "Female Crim": 0.769811320754717,
      "Female Non-Crim": 0.494339622641509,
      "latitude": 25.7547717,
      "longitude": -80.4908502
    },
    {
      "Name": "LAKE COUNTY JAIL",
      "Address": "551 W. MAIN ST.",
      "City": "TAVARES",
      "State": "FL",
      "Zip": 32778,
      "Male Crim": 0.150943396226415,
      "Male Non-Crim": 0.886792452830189,
      "Female Crim": 0.00754716981132075,
      "Female Non-Crim": 0.0113207547169811,
      "latitude": 28.8018772,
      "longitude": -81.7329614
    },
    {
      "Name": "MIAMI FEDERAL DETENTION",
      "Address": "33 NE 4 STREET",
      "City": "MIAMI",
      "State": "FL",
      "Zip": 33132,
      "Male Crim": null,
      "Male Non-Crim": null,
      "Female Crim": null,
      "Female Non-Crim": null,
      "latitude": 25.778835871616227,
      "longitude": -80.19334441968891
    },
    {
      "Name": "MIGRANT OPS CENTER MAIN A",
      "Address": "AVENUE C PSC 1005 BOX 55",
      "City": "FPO",
      "State": "FL",
      "Zip": 34009,
      "Male Crim": 1.24905660377358,
      "Male Non-Crim": 10.5924528301887,
      "Female Crim": 0.0,
      "Female Non-Crim": 0.0,
      "latitude": null,
      "longitude": null
    },
    {
      "Name": "ORANGE COUNTY JAIL (FL)",
      "Address": "3855 SOUTH JOHN YOUNG PARKWAY",
      "City": "ORLANDO",
      "State": "FL",
      "Zip": 32839,
      "Male Crim": 2.82641509433963,
      "Male Non-Crim": 5.37735849056612,
      "Female Crim": 0.562264150943396,
      "Female Non-Crim": 1.4188679245283,
      "latitude": 28.50402318562143,
      "longitude": -81.41636787360717
    },
    {
      "Name": "PINELLAS COUNTY JAIL",
      "Address": "14400 49TH STREET NORTH",
      "City": "CLEARWATER",
      "State": "FL",
      "Zip": 33762,
      "Male Crim": 3.87547169811325,
      "Male Non-Crim": 5.53207547169823,
      "Female Crim": 0.188679245283019,
      "Female Non-Crim": 0.550943396226415,
      "latitude": 27.903511036240065,
      "longitude": -82.70346139830698
    },
    {
      "Name": "SAN JUAN STAGING",
      "Address": "651 FEDERAL DRIVE, SUITE 104",
      "City": "GUAYNABO",
      "State": "PR",
      "Zip": 965,
      "Male Crim": 1.84150943396226,
      "Male Non-Crim": 5.54339622641513,
      "Female Crim": 0.135849056603774,
      "Female Non-Crim": 0.716981132075472,
      "latitude": null,
      "longitude": null
    },
    {
      "Name": "WALTON COUNTY JAIL",
      "Address": "40 SHERIFF CIR",
      "City": "DEFUNIAK SPRINGS",
      "State": "FL",
      "Zip": 32433,
      "Male Crim": 1.0377358490566,
      "Male Non-Crim": 2.19245283018868,
      "Female Crim": 0.00377358490566038,
      "Female Non-Crim": 0.0,
      "latitude": 30.78363619823702,
      "longitude": -86.1039227599523
    },
    {
      "Name": "GUAYNABO MDC (SAN JUAN)",
      "Address": "HWY 28 INTSECT OF ROAD 165",
      "City": "SAN JUAN",
      "State": "PR",
      "Zip": 939,
      "Male Crim": 3.8406374501992,
      "Male Non-Crim": 1.69322709163346,
      "Female Crim": 0.215139442231076,
      "Female Non-Crim": 0.262948207171315,
      "latitude": null,
      "longitude": null
    },
    {
      "Name": "DELANEY HALL DETENTION FACILITY",
      "Address": "451 DOREMUS AVENUE",
      "City": "NEWARK",
      "State": "NJ",
      "Zip": 7105,
      "Male Crim": 18.4075471698113,
      "Male Non-Crim": 70.4415094339623,
      "Female Crim": 0.932075471698113,
      "Female Non-Crim": 6.0490566037736,
      "latitude": 40.7187782,
      "longitude": -74.126752
    },
    {
      "Name": "ELIZABETH CONTRACT DETENTION FACILITY",
      "Address": "625 EVANS STREET",
      "City": "ELIZABETH",
      "State": "NJ",
      "Zip": 7201,
      "Male Crim": 62.1811320754715,
      "Male Non-Crim": 208.354716981135,
      "Female Crim": 2.06037735849057,
      "Female Non-Crim": 17.045283018868,
      "latitude": 40.6662036,
      "longitude": -74.1896718
    },
    {
      "Name": "ADAMS COUNTY DET CENTER",
      "Address": "20 HOBO FORK RD.",
      "City": "NATCHEZ",
      "State": "MS",
      "Zip": 39120,
      "Male Crim": 33.7056603773585,
      "Male Non-Crim": 2145.36603773587,
      "Female Crim": 0.0,
      "Female Non-Crim": 0.0,
      "latitude": 31.5576266,
      "longitude": -91.221126
    },
    {
      "Name": "ALEXANDRIA STAGING FACILITY",
      "Address": "96 GEORGE THOMPSON DRIVE",
      "City": "ALEXANDRIA",
      "State": "LA",
      "Zip": 71303,
      "Male Crim": 141.894339622632,
      "Male Non-Crim": 178.890566037753,
      "Female Crim": 0.060377358490566,
      "Female Non-Crim": 0.116981132075472,
      "latitude": 31.31763134573915,
      "longitude": -92.53646128616465
    },
    {
      "Name": "ALLEN PARISH PUBLIC SAFETY COMPLEX",
      "Address": "7340 HIGHWAY 26 WEST",
      "City": "OBERLIN",
      "State": "LA",
      "Zip": 70655,
      "Male Crim": 51.7849056603774,
      "Male Non-Crim": 121.932075471698,
      "Female Crim": 0.0,
      "Female Non-Crim": 0.0,
      "latitude": 30.624697320076855,
      "longitude": -92.78388873123045
    },
    {
      "Name": "CENTRAL LOUISIANA ICE PROCESSING CENTER (CLIPC)",
      "Address": "830 PINEHILL ROAD",
      "City": "JENA",
      "State": "LA",
      "Zip": 71342,
      "Male Crim": 492.581132075474,
      "Male Non-Crim": 683.03018867924,
      "Female Crim": 0.837735849056604,
      "Female Non-Crim": 0.354716981132076,
      "latitude": 31.7088575,
      "longitude": -92.1529335
    },
    {
      "Name": "ETOWAH COUNTY JAIL (ALABAMA)",
      "Address": "827 FORREST AVENUE",
      "City": "GADSDEN",
      "State": "AL",
      "Zip": 35901,
      "Male Crim": 9.12830188679253,
      "Male Non-Crim": 11.8867924528303,
      "Female Crim": 1.2188679245283,
      "Female Non-Crim": 2.07169811320755,
      "latitude": 34.0161208,
      "longitude": -86.012499
    },
    {
      "Name": "HANCOCK COUNTY PUBLIC SAFETY COMPLEX",
      "Address": "8450 HIGHWAY 90",
      "City": "BAY ST. LOUIS",
      "State": "MS",
      "Zip": 39520,
      "Male Crim": 5.19245283018873,
      "Male Non-Crim": 13.9924528301891,
      "Female Crim": 0.328301886792453,
      "Female Non-Crim": 2.02641509433962,
      "latitude": 30.303815869350622,
      "longitude": -89.4759421177441
    },
    {
      "Name": "JACKSON PARISH CORRECTIONAL CENTER",
      "Address": "327 INDUSTRIAL DRIVE",
      "City": "JONESBORO",
      "State": "LA",
      "Zip": 71251,
      "Male Crim": 44.2528301886793,
      "Male Non-Crim": 994.981132075469,
      "Female Crim": 1.01132075471698,
      "Female Non-Crim": 4.64528301886794,
      "latitude": 32.2158449,
      "longitude": -92.7178317
    },
    {
      "Name": "KNOX COUNTY DETENTION FACILITY",
      "Address": "5001 MALONEYVILLE RD",
      "City": "KNOXVILLE",
      "State": "TN",
      "Zip": 37918,
      "Male Crim": 9.76603773584916,
      "Male Non-Crim": 8.75094339622649,
      "Female Crim": 0.60377358490566,
      "Female Non-Crim": 0.894339622641509,
      "latitude": 36.0850476,
      "longitude": -83.841532
    },
    {
      "Name": "MADISON COUNTY JAIL",
      "Address": "2935 HIGHWAY 51",
      "City": "CANTON",
      "State": "MS",
      "Zip": 39046,
      "Male Crim": 1.56603773584906,
      "Male Non-Crim": 2.58113207547171,
      "Female Crim": 0.0377358490566038,
      "Female Non-Crim": 0.343396226415094,
      "latitude": 32.58677735093389,
      "longitude": -90.04526320050026
    },
    {
      "Name": "MILLER COUNTY JAIL",
      "Address": "2300 EAST STREET",
      "City": "TEXARKANA",
      "State": "AR",
      "Zip": 71854,
      "Male Crim": 0.856603773584906,
      "Male Non-Crim": 0.664150943396226,
      "Female Crim": 0.0150943396226415,
      "Female Non-Crim": 0.0150943396226415,
      "latitude": 33.401201,
      "longitude": -94.0225542
    },
    {
      "Name": "PICKENS COUNTY DET CTR",
      "Address": "188 CEMETERY ST",
      "City": "CARROLLTON",
      "State": "AL",
      "Zip": 35447,
      "Male Crim": 14.1509433962267,
      "Male Non-Crim": 18.6943396226418,
      "Female Crim": 2.42641509433963,
      "Female Non-Crim": 2.08301886792453,
      "latitude": 33.2603007,
      "longitude": -88.0959216
    },
    {
      "Name": "PINE PRAIRIE ICE PROCESSING CENTER",
      "Address": "1133 HAMPTON DUPRE ROAD",
      "City": "PINE PRAIRIE",
      "State": "LA",
      "Zip": 70576,
      "Male Crim": 283.15849056604,
      "Male Non-Crim": 460.950943396238,
      "Female Crim": 0.290566037735849,
      "Female Non-Crim": 0.818867924528302,
      "latitude": 30.7884208,
      "longitude": -92.4227559
    },
    {
      "Name": "PUTNAM COUNTY SHERIFF",
      "Address": "421 E SPRING ST.",
      "City": "COOKEVILLE",
      "State": "TN",
      "Zip": 38501,
      "Male Crim": 1.29811320754717,
      "Male Non-Crim": 1.06037735849057,
      "Female Crim": 0.0,
      "Female Non-Crim": 0.0,
      "latitude": 36.1617449,
      "longitude": -85.4983817
    },
    {
      "Name": "RICHWOOD CORRECTIONAL CENTER",
      "Address": "180 PINE BAYOU CIRCLE",
      "City": "MONROE",
      "State": "LA",
      "Zip": 71202,
      "Male Crim": 51.0603773584906,
      "Male Non-Crim": 80.5849056603774,
      "Female Crim": 20.6830188679245,
      "Female Non-Crim": 741.74339622641,
      "latitude": 32.45717553802827,
      "longitude": -92.079859671668
    },
    {
      "Name": "RIVER CORRECTIONAL CENTER",
      "Address": "26362 HIGHWAY 15",
      "City": "FERRIDAY",
      "State": "LA",
      "Zip": 71334,
      "Male Crim": 25.7584905660378,
      "Male Non-Crim": 529.494339622642,
      "Female Crim": 0.0679245283018868,
      "Female Non-Crim": 0.464150943396226,
      "latitude": 31.597253400688896,
      "longitude": -91.55806052381577
    },
    {
      "Name": "SEBASTIAN COUNTY DETENTION CENTER",
      "Address": "801 SOUTH A STREET",
      "City": "FORT SMITH",
      "State": "AR",
      "Zip": 72901,
      "Male Crim": 0.630188679245283,
      "Male Non-Crim": 0.716981132075472,
      "Female Crim": 0.060377358490566,
      "Female Non-Crim": 0.0339622641509434,
      "latitude": 35.3822229,
      "longitude": -94.422565
    },
    {
      "Name": "SOUTH LOUISIANA ICE PROCESSING CENTER",
      "Address": "3843 STAGG AVENUE",
      "City": "BASILE",
      "State": "LA",
      "Zip": 70515,
      "Male Crim": 3.89811320754717,
      "Male Non-Crim": 4.46415094339623,
      "Female Crim": 133.022641509434,
      "Female Non-Crim": 737.856603773583,
      "latitude": 30.4866896,
      "longitude": -92.5818666
    },
    {
      "Name": "WASHINGTON COUNTY DETENTION CENTER",
      "Address": "1155 WEST CLYDESDALE DRIVE",
      "City": "FAYETTEVILLE",
      "State": "AR",
      "Zip": 72701,
      "Male Crim": 1.47547169811321,
      "Male Non-Crim": 2.29056603773586,
      "Female Crim": 0.113207547169811,
      "Female Non-Crim": 0.139622641509434,
      "latitude": 36.0340715,
      "longitude": -94.175948
    },
    {
      "Name": "WINN CORRECTIONAL CENTER",
      "Address": "560 GUM SPRING ROAD",
      "City": "WINNFIELD",
      "State": "LA",
      "Zip": 71483,
      "Male Crim": 342.520754716982,
      "Male Non-Crim": 1208.25660377359,
      "Female Crim": 0.539622641509434,
      "Female Non-Crim": 0.184905660377358,
      "latitude": 31.8504715684334,
      "longitude": -92.78135647527058
    },
    {
      "Name": "BALDWIN COUNTY CORRECTIONAL CENTER",
      "Address": "200 HAND AVE.",
      "City": "BAY MINETTE",
      "State": "AL",
      "Zip": 36507,
      "Male Crim": 1.47011952191235,
      "Male Non-Crim": 2.35059760956175,
      "Female Crim": 0.115537848605578,
      "Female Non-Crim": 0.143426294820717,
      "latitude": 30.88454,
      "longitude": -87.774769
    },
    {
      "Name": "NASSAU COUNTY CORRECTIONAL CENTER",
      "Address": "100 CARMAN AVENUE",
      "City": "EAST MEADOW",
      "State": "NY",
      "Zip": 11554,
      "Male Crim": 2.62264150943397,
      "Male Non-Crim": 7.43396226415104,
      "Female Crim": 0.0113207547169811,
      "Female Non-Crim": 0.00754716981132075,
      "latitude": 40.727807,
      "longitude": -73.5561653
    },
    {
      "Name": "ORANGE COUNTY JAIL (NY)",
      "Address": "110 WELLS FARM ROAD",
      "City": "GOSHEN",
      "State": "NY",
      "Zip": 10924,
      "Male Crim": 72.6339622641509,
      "Male Non-Crim": 42.2150943396226,
      "Female Crim": 0.0,
      "Female Non-Crim": 0.0,
      "latitude": 41.4042394,
      "longitude": -74.3606249
    },
    {
      "Name": "NASSAU COUNTY CORRECTIONAL CENTER",
      "Address": "100 CARMAN AVENUE",
      "City": "EAST MEADOW",
      "State": "NY",
      "Zip": 11554,
      "Male Crim": 0.569721115537848,
      "Male Non-Crim": 1.05179282868526,
      "Female Crim": 0.0,
      "Female Non-Crim": 0.0159362549800797,
      "latitude": 40.727807,
      "longitude": -73.5561653
    },
    {
      "Name": "CLINTON COUNTY CORRECTIONAL FACILITY",
      "Address": "58 PINE MOUNTAIN RD.",
      "City": "MCELHATTAN",
      "State": "PA",
      "Zip": 17748,
      "Male Crim": 69.0037735849057,
      "Male Non-Crim": 7.7433962264151,
      "Female Crim": 3.23018867924528,
      "Female Non-Crim": 1.9811320754717,
      "latitude": 41.1511182,
      "longitude": -77.3493663
    },
    {
      "Name": "ERIE COUNTY JAIL",
      "Address": "DEPARTMENT OF CORRECTIONS 1618 ASH STREET",
      "City": "ERIE",
      "State": "PA",
      "Zip": 16503,
      "Male Crim": 1.81509433962264,
      "Male Non-Crim": 7.81886792452832,
      "Female Crim": 0.0,
      "Female Non-Crim": 0.192452830188679,
      "latitude": 42.12425044860252,
      "longitude": -80.06653529654119
    },
    {
      "Name": "FDC PHILADELPHIA",
      "Address": "700 ARCH ST.",
      "City": "PHILADELPHIA",
      "State": "PA",
      "Zip": 19106,
      "Male Crim": 21.8188679245284,
      "Male Non-Crim": 25.7056603773586,
      "Female Crim": 0.0,
      "Female Non-Crim": 0.0264150943396226,
      "latitude": 39.9525541,
      "longitude": -75.1520216
    },
    {
      "Name": "MOSHANNON VALLEY PROCESSING CENTER",
      "Address": "555 GEO DRIVE",
      "City": "PHILIPSBURG",
      "State": "PA",
      "Zip": 16866,
      "Male Crim": 710.475471698114,
      "Male Non-Crim": 581.218867924533,
      "Female Crim": 25.9622641509434,
      "Female Non-Crim": 22.5811320754717,
      "latitude": 40.921386200722395,
      "longitude": -78.24213641561506
    },
    {
      "Name": "NORTHERN REGIONAL JAIL",
      "Address": "RD. 2, BOX 1",
      "City": "MOUNDSVILLE",
      "State": "WV",
      "Zip": 26041,
      "Male Crim": 0.305660377358491,
      "Male Non-Crim": 0.630188679245283,
      "Female Crim": 0.0188679245283019,
      "Female Non-Crim": 0.0566037735849057,
      "latitude": null,
      "longitude": null
    },
    {
      "Name": "PIKE COUNTY JAIL",
      "Address": "175 PIKE COUNTY BOULEVARD",
      "City": "LORDS VALLEY",
      "State": "PA",
      "Zip": 18428,
      "Male Crim": 71.3773584905661,
      "Male Non-Crim": 115.53962264151,
      "Female Crim": 0.0,
      "Female Non-Crim": 0.0566037735849057,
      "latitude": 41.3892641952419,
      "longitude": -75.071309115601
    },
    {
      "Name": "SOUTH CENTRAL REGIONAL JAIL",
      "Address": "1001 CENTER WAY",
      "City": "CHARLESTON",
      "State": "WV",
      "Zip": 25309,
      "Male Crim": 4.69056603773585,
      "Male Non-Crim": 5.23773584905661,
      "Female Crim": 0.0,
      "Female Non-Crim": 0.0339622641509434,
      "latitude": 38.31113857008232,
      "longitude": -81.71099978870323
    },
    {
      "Name": "FRANKLIN COUNTY JAIL",
      "Address": "625 FRANKLIN FARM LN",
      "City": "CHAMBERSBURG",
      "State": "PA",
      "Zip": 17201,
      "Male Crim": null,
      "Male Non-Crim": null,
      "Female Crim": null,
      "Female Non-Crim": null,
      "latitude": null,
      "longitude": null
    },
    {
      "Name": "CCA, FLORENCE CORRECTIONAL CENTER",
      "Address": "1100 BOWLING ROAD",
      "City": "FLORENCE",
      "State": "AZ",
      "Zip": 85232,
      "Male Crim": 264.864150943397,
      "Male Non-Crim": 158.252830188679,
      "Female Crim": 0.0,
      "Female Non-Crim": 0.0,
      "latitude": 33.0438338,
      "longitude": -111.371793
    },
    {
      "Name": "ELOY FEDERAL CONTRACT FACILITY",
      "Address": "1705 EAST HANNA RD.",
      "City": "ELOY",
      "State": "AZ",
      "Zip": 85131,
      "Male Crim": 181.377358490566,
      "Male Non-Crim": 550.143396226411,
      "Female Crim": 91.1245283018869,
      "Female Non-Crim": 556.924528301887,
      "latitude": 32.8176772,
      "longitude": -111.51927
    },
    {
      "Name": "FLORENCE SERVICE PROCESSING CENTER",
      "Address": "3250 NORTH PINAL PARKWAY",
      "City": "FLORENCE",
      "State": "AZ",
      "Zip": 85132,
      "Male Crim": 89.630188679244,
      "Male Non-Crim": 299.883018867943,
      "Female Crim": 0.177358490566038,
      "Female Non-Crim": 0.279245283018868,
      "latitude": 33.0630048,
      "longitude": -111.3790857
    },
    {
      "Name": "FLORENCE STAGING FACILITY",
      "Address": "3250 NORTH PINAL PARKWAY",
      "City": "FLORENCE",
      "State": "AZ",
      "Zip": 85232,
      "Male Crim": 66.4792452830157,
      "Male Non-Crim": 111.864150943391,
      "Female Crim": 3.20754716981134,
      "Female Non-Crim": 4.61132075471705,
      "latitude": 33.0640298,
      "longitude": -111.3825565
    },
    {
      "Name": "LA PAZ COUNTY ADULT DETENTION FACILITY",
      "Address": "1109 ARIZONA AVE.",
      "City": "PARKER",
      "State": "AZ",
      "Zip": 85344,
      "Male Crim": 335.111553784861,
      "Male Non-Crim": 1208.63346613545,
      "Female Crim": 0.541832669322709,
      "Female Non-Crim": 0.557768924302789,
      "latitude": 34.1454944,
      "longitude": -114.2903444
    },
    {
      "Name": "ANCHORAGE CORRECTIONAL COMPLEX",
      "Address": "1400 E. 4TH AVE",
      "City": "ANCHORAGE",
      "State": "AK",
      "Zip": 99501,
      "Male Crim": 1.3811320754717,
      "Male Non-Crim": 1.55849056603774,
      "Female Crim": 0.0,
      "Female Non-Crim": 0.0,
      "latitude": 61.2183804,
      "longitude": -149.857649
    },
    {
      "Name": "NORTHWEST ICE PROCESSSING CENTER",
      "Address": "1623 E. J STREET",
      "City": "TACOMA",
      "State": "WA",
      "Zip": 98421,
      "Male Crim": 380.286792452832,
      "Male Non-Crim": 580.618867924527,
      "Female Crim": 43.8830188679245,
      "Female Non-Crim": 75.633962264151,
      "latitude": 47.2490423,
      "longitude": -122.4223947
    },
    {
      "Name": "DEPARTMENT OF CORRECTIONS HAGATNA",
      "Address": "203 ASPINAL AVE. PO BOX 3236",
      "City": "HAGATNA",
      "State": "GU",
      "Zip": 96910,
      "Male Crim": 4.50943396226415,
      "Male Non-Crim": 1.75471698113208,
      "Female Crim": 0.0,
      "Female Non-Crim": 0.0,
      "latitude": 13.474342702816681,
      "longitude": 144.75024740290328
    },
    {
      "Name": "GOLDEN STATE ANNEX",
      "Address": "611 FRONTAGE RD",
      "City": "MCFARLAND",
      "State": "CA",
      "Zip": 93250,
      "Male Crim": 295.241509433963,
      "Male Non-Crim": 286.203773584906,
      "Female Crim": 0.0,
      "Female Non-Crim": 0.150943396226415,
      "latitude": 35.667329,
      "longitude": -119.225036
    },
    {
      "Name": "HONOLULU FEDERAL DETENTION CENTER",
      "Address": "351 ELLIOTT ST.",
      "City": "HONOLULU",
      "State": "HI",
      "Zip": 96819,
      "Male Crim": 18.9962264150943,
      "Male Non-Crim": 13.8339622641509,
      "Female Crim": 0.569811320754717,
      "Female Non-Crim": 4.6,
      "latitude": 21.3332122,
      "longitude": -157.9283542
    },
    {
      "Name": "MESA VERDE ICE PROCESSING CENTER",
      "Address": "425 GOLDEN STATE AVE",
      "City": "BAKERSFIELD",
      "State": "CA",
      "Zip": 93301,
      "Male Crim": 53.4415094339623,
      "Male Non-Crim": 4.64905660377359,
      "Female Crim": 0.316981132075472,
      "Female Non-Crim": 1.75094339622641,
      "latitude": 35.380713,
      "longitude": -119.0060804
    },
    {
      "Name": "SAIPAN DEPARTMENT OF CORRECTIONS (SUSUPE)",
      "Address": "VICENTE T. SEMAN BLDG, CIVIC CENTER",
      "City": "SAIPAN",
      "State": "MP",
      "Zip": 96950,
      "Male Crim": 3.13584905660377,
      "Male Non-Crim": 2.37358490566038,
      "Female Crim": 0.0,
      "Female Non-Crim": 0.807547169811321,
      "latitude": 15.158907917922077,
      "longitude": 145.70544921267373
    },
    {
      "Name": "HENDERSON DETENTION",
      "Address": "18 E BASIC ROAD",
      "City": "HENDERSON",
      "State": "NV",
      "Zip": 89015,
      "Male Crim": 35.3245283018867,
      "Male Non-Crim": 20.8679245283019,
      "Female Crim": 9.10943396226415,
      "Female Non-Crim": 6.86415094339623,
      "latitude": 36.0308679,
      "longitude": -114.9780973
    },
    {
      "Name": "JEFFERSON COUNTY JAIL",
      "Address": "219 EAST FREMONT AVENUE",
      "City": "RIGBY",
      "State": "ID",
      "Zip": 83442,
      "Male Crim": 3.35094339622643,
      "Male Non-Crim": 1.22641509433962,
      "Female Crim": 0.0377358490566038,
      "Female Non-Crim": 0.030188679245283,
      "latitude": 43.6733525,
      "longitude": -111.9115662
    },
    {
      "Name": "NEVADA SOUTHERN DETENTION CENTER",
      "Address": "2190 EAST MESQUITE AVENUE",
      "City": "PAHRUMP",
      "State": "NV",
      "Zip": 89060,
      "Male Crim": 204.754716981134,
      "Male Non-Crim": 125.147169811321,
      "Female Crim": 0.139622641509434,
      "Female Non-Crim": 0.128301886792453,
      "latitude": 36.2520145,
      "longitude": -115.9770311
    },
    {
      "Name": "SALT LAKE COUNTY METRO JAIL",
      "Address": "3415 SOUTH 900 WEST",
      "City": "SALT LAKE CITY",
      "State": "UT",
      "Zip": 84119,
      "Male Crim": 3.81509433962268,
      "Male Non-Crim": 1.68679245283019,
      "Female Crim": 0.20377358490566,
      "Female Non-Crim": 0.264150943396226,
      "latitude": 40.7259591,
      "longitude": -111.9169442
    },
    {
      "Name": "WASHOE COUNTY JAIL",
      "Address": "911 PARR BLVD 775 328 3308",
      "City": "RENO",
      "State": "NV",
      "Zip": 89506,
      "Male Crim": 7.59245283018871,
      "Male Non-Crim": 2.47547169811321,
      "Female Crim": 0.407547169811321,
      "Female Non-Crim": 0.381132075471698,
      "latitude": 39.57445694817889,
      "longitude": -119.81272011554243
    },
    {
      "Name": "CLARK COUNTY JAIL (ID)",
      "Address": "501 EAST COURT AVENUE,",
      "City": "DUBOIS",
      "State": "ID",
      "Zip": 47130,
      "Male Crim": null,
      "Male Non-Crim": null,
      "Female Crim": null,
      "Female Non-Crim": null,
      "latitude": null,
      "longitude": null
    },
    {
      "Name": "DALE G. HAILE DETENTION CENTER",
      "Address": "1115 ALBANY",
      "City": "CALDWELL",
      "State": "ID",
      "Zip": 83605,
      "Male Crim": null,
      "Male Non-Crim": null,
      "Female Crim": null,
      "Female Non-Crim": null,
      "latitude": 43.6654377,
      "longitude": -116.6819705
    },
    {
      "Name": "YELLOWSTONE COUNTY JAIL",
      "Address": "3165 KING AVENUE EAST",
      "City": "BILLINGS",
      "State": "MT",
      "Zip": 59101,
      "Male Crim": null,
      "Male Non-Crim": null,
      "Female Crim": null,
      "Female Non-Crim": null,
      "latitude": 45.7553863,
      "longitude": -108.5025062
    },
    {
      "Name": "DILLEY IMMIGRATION PROCESSING CENTER",
      "Address": "300 EL RANCHO WAY",
      "City": "DILLEY",
      "State": "TX",
      "Zip": 78017,
      "Male Crim": 0.181132075471698,
      "Male Non-Crim": 36.3396226415095,
      "Female Crim": 0.10188679245283,
      "Female Non-Crim": 43.2943396226415,
      "latitude": 28.658091009808814,
      "longitude": -99.20042911778089
    },
    {
      "Name": "KARNES COUNTY IMMIGRATION PROCESSING CENTER",
      "Address": "409 FM 1144",
      "City": "KARNES CITY",
      "State": "TX",
      "Zip": 78118,
      "Male Crim": 39.388679245283,
      "Male Non-Crim": 587.569811320759,
      "Female Crim": 12.7811320754717,
      "Female Non-Crim": 240.913207547171,
      "latitude": 28.8849121,
      "longitude": -97.8977348
    },
    {
      "Name": "LA SALLE COUNTY REGIONAL DETENTION CENTER",
      "Address": "832 EAST TEXAS STATE HIGHWAY 44",
      "City": "ENCINAL",
      "State": "TX",
      "Zip": 78019,
      "Male Crim": 5.51698113207547,
      "Male Non-Crim": 52.8830188679246,
      "Female Crim": 0.0,
      "Female Non-Crim": 0.0,
      "latitude": 28.045392301310212,
      "longitude": -99.33614721779425
    },
    {
      "Name": "SOUTH TEXAS ICE PROCESSING CENTER",
      "Address": "566 VETERANS DRIVE",
      "City": "PEARSALL",
      "State": "TX",
      "Zip": 78061,
      "Male Crim": 398.286792452832,
      "Male Non-Crim": 1220.77735849056,
      "Female Crim": 27.0943396226415,
      "Female Non-Crim": 24.1358490566038,
      "latitude": 28.8946514,
      "longitude": -99.1219428
    },
    {
      "Name": "T DON HUTTO DETENTION CENTER",
      "Address": "1001 WELCH STREET",
      "City": "TAYLOR",
      "State": "TX",
      "Zip": 76574,
      "Male Crim": 235.694339622642,
      "Male Non-Crim": 193.396226415095,
      "Female Crim": 0.0,
      "Female Non-Crim": 0.0943396226415094,
      "latitude": 30.5647288,
      "longitude": -97.4194342
    },
    {
      "Name": "BURNET COUNTY JAIL",
      "Address": "JAIL ADMINISTRATOR",
      "City": "BURNET",
      "State": "TX",
      "Zip": 78611,
      "Male Crim": null,
      "Male Non-Crim": null,
      "Female Crim": null,
      "Female Non-Crim": null,
      "latitude": null,
      "longitude": null
    },
    {
      "Name": "KARNES COUNTY CORRECTIONAL CENTER",
      "Address": "810 COMMERCE STREET",
      "City": "KARNES CITY",
      "State": "TX",
      "Zip": 78118,
      "Male Crim": null,
      "Male Non-Crim": null,
      "Female Crim": null,
      "Female Non-Crim": null,
      "latitude": 28.883485,
      "longitude": -97.9118481
    },
    {
      "Name": "WILSON COUNTY JAIL",
      "Address": "C/O JAIL ADMINISTRATOR",
      "City": "FLORESVILLE",
      "State": "TX",
      "Zip": 78114,
      "Male Crim": null,
      "Male Non-Crim": null,
      "Female Crim": null,
      "Female Non-Crim": null,
      "latitude": null,
      "longitude": null
    },
    {
      "Name": "IMPERIAL REGIONAL DETENTION FACILITY",
      "Address": "1572 GATEWAY",
      "City": "CALEXICO",
      "State": "CA",
      "Zip": 92231,
      "Male Crim": 89.4528301886793,
      "Male Non-Crim": 516.411320754718,
      "Female Crim": 1.50566037735849,
      "Female Non-Crim": 59.9849056603774,
      "latitude": 32.69032325025824,
      "longitude": -115.39756848885183
    },
    {
      "Name": "OTAY MESA DETENTION CENTER",
      "Address": "7488 CALZADA DE LA FUENTE",
      "City": "SAN DIEGO",
      "State": "CA",
      "Zip": 92154,
      "Male Crim": 179.615094339623,
      "Male Non-Crim": 911.562264150931,
      "Female Crim": 17.0566037735849,
      "Female Non-Crim": 241.42641509434,
      "latitude": 32.5765248,
      "longitude": -116.9154777
    },
    {
      "Name": "SAN LUIS REGIONAL DETENTION CENTER",
      "Address": "406 NORTH AVENUE D",
      "City": "SAN LUIS",
      "State": "AZ",
      "Zip": 85349,
      "Male Crim": 20.8905660377358,
      "Male Non-Crim": 111.256603773585,
      "Female Crim": 1.25283018867925,
      "Female Non-Crim": 31.5660377358491,
      "latitude": 32.483025880176186,
      "longitude": -114.68349442933823
    },
    {
      "Name": "BURLEIGH COUNTY",
      "Address": "P.O. BOX 1416",
      "City": "BISMARCK",
      "State": "ND",
      "Zip": 58502,
      "Male Crim": 0.411320754716981,
      "Male Non-Crim": 0.841509433962264,
      "Female Crim": 0.0,
      "Female Non-Crim": 0.320754716981132,
      "latitude": null,
      "longitude": null
    },
    {
      "Name": "CASS COUNTY JAIL",
      "Address": "336 MAIN STREET",
      "City": "PLATTSMOUTH",
      "State": "NE",
      "Zip": 68048,
      "Male Crim": 2.66792452830189,
      "Male Non-Crim": 0.652830188679245,
      "Female Crim": 0.00377358490566038,
      "Female Non-Crim": 0.260377358490566,
      "latitude": 41.0112468,
      "longitude": -95.8831012
    },
    {
      "Name": "DAKOTA COUNTY JAIL",
      "Address": "1601 BROADWAY",
      "City": "DAKOTA CITY",
      "State": "NE",
      "Zip": 68731,
      "Male Crim": 11.9396226415095,
      "Male Non-Crim": 5.05283018867925,
      "Female Crim": 0.177358490566038,
      "Female Non-Crim": 1.38490566037736,
      "latitude": 42.416218260076164,
      "longitude": -96.4198282400598
    },
    {
      "Name": "FREEBORN COUNTY ADULT DETENTION CENTER",
      "Address": "411 SOUTH BROADWAY AVENUE",
      "City": "ALBERT LEA",
      "State": "MN",
      "Zip": 56007,
      "Male Crim": 44.1509433962264,
      "Male Non-Crim": 34.6452830188679,
      "Female Crim": 0.0,
      "Female Non-Crim": 0.0,
      "latitude": 43.6461475,
      "longitude": -93.3680658
    },
    {
      "Name": "GRAND FORKS COUNTY CORRECTIONAL FACILITY",
      "Address": "1701 NORTH WASHINGTON ST",
      "City": "GRAND FORKS",
      "State": "ND",
      "Zip": 58203,
      "Male Crim": 2.0377358490566,
      "Male Non-Crim": 2.84528301886793,
      "Female Crim": 0.0415094339622641,
      "Female Non-Crim": 0.0490566037735849,
      "latitude": 47.935792,
      "longitude": -97.055851
    },
    {
      "Name": "HARDIN COUNTY JAIL",
      "Address": "1116 14TH AVENUE",
      "City": "ELDORA",
      "State": "IA",
      "Zip": 50627,
      "Male Crim": 2.7811320754717,
      "Male Non-Crim": 2.28679245283019,
      "Female Crim": 0.0528301886792453,
      "Female Non-Crim": 0.433962264150943,
      "latitude": 42.3598449,
      "longitude": -93.0973711
    },
    {
      "Name": "KANDIYOHI COUNTY JAIL",
      "Address": "2201 23RD ST NE",
      "City": "WILLMAR",
      "State": "MN",
      "Zip": 56201,
      "Male Crim": 72.4264150943397,
      "Male Non-Crim": 60.4566037735849,
      "Female Crim": 7.6,
      "Female Non-Crim": 4.58867924528302,
      "latitude": 45.1458557,
      "longitude": -95.0144842
    },
    {
      "Name": "LINCOLN COUNTY JAIL",
      "Address": "3020 N JEFFERS",
      "City": "NORTH PLATTE",
      "State": "NE",
      "Zip": 69101,
      "Male Crim": 2.03396226415094,
      "Male Non-Crim": 1.64528301886792,
      "Female Crim": 0.00377358490566038,
      "Female Non-Crim": 0.411320754716981,
      "latitude": 41.1065398,
      "longitude": -100.7640382
    },
    {
      "Name": "LINN COUNTY JAIL",
      "Address": "53 3RD AVENUE BRIDGE",
      "City": "CEDAR RAPIDS",
      "State": "IA",
      "Zip": 52401,
      "Male Crim": 1.1811320754717,
      "Male Non-Crim": 1.00377358490566,
      "Female Crim": 0.060377358490566,
      "Female Non-Crim": 0.215094339622642,
      "latitude": 41.9746012,
      "longitude": -91.6692502
    },
    {
      "Name": "MINNEHAHA COUNTY JAIL",
      "Address": "500 NORTH MINNESOTA AVENUE",
      "City": "SIOUX FALLS",
      "State": "SD",
      "Zip": 57104,
      "Male Crim": 0.464150943396226,
      "Male Non-Crim": 0.532075471698113,
      "Female Crim": 0.0,
      "Female Non-Crim": 0.0264150943396226,
      "latitude": 43.5524104,
      "longitude": -96.731237
    },
    {
      "Name": "MUSCATINE COUNTY JAIL",
      "Address": "400 WALNUT STREET",
      "City": "MUSCATINE",
      "State": "IA",
      "Zip": 52761,
      "Male Crim": 3.5811320754717,
      "Male Non-Crim": 3.14716981132076,
      "Female Crim": 0.249056603773585,
      "Female Non-Crim": 0.592452830188679,
      "latitude": 41.4243549,
      "longitude": -91.0446662
    },
    {
      "Name": "PENNINGTON COUNTY JAIL (SOUTH DAKOTA)",
      "Address": "300 KANSAS CITY STREET NONE",
      "City": "RAPID CITY",
      "State": "SD",
      "Zip": 57701,
      "Male Crim": 0.573584905660377,
      "Male Non-Crim": 1.06792452830189,
      "Female Crim": 0.0,
      "Female Non-Crim": 0.0150943396226415,
      "latitude": 44.07844295797259,
      "longitude": -103.22212620387216
    },
    {
      "Name": "PHELPS COUNTY JAIL (NE)",
      "Address": "715 5TH AVENUE",
      "City": "HOLDREGE",
      "State": "NE",
      "Zip": 68949,
      "Male Crim": 24.5320754716981,
      "Male Non-Crim": 4.91698113207547,
      "Female Crim": 0.924528301886792,
      "Female Non-Crim": 0.275471698113208,
      "latitude": 40.4390467,
      "longitude": -99.3704014
    },
    {
      "Name": "POLK COUNTY JAIL",
      "Address": "1985 NE 51ST PLACE",
      "City": "DES MOINES",
      "State": "IA",
      "Zip": 50313,
      "Male Crim": 31.1698113207547,
      "Male Non-Crim": 8.07547169811322,
      "Female Crim": 0.324528301886792,
      "Female Non-Crim": 0.407547169811321,
      "latitude": 41.6534505,
      "longitude": -93.5877727
    },
    {
      "Name": "POTTAWATTAMIE COUNTY JAIL",
      "Address": "1400 BIG LAKE ROAD",
      "City": "COUNCIL BLUFFS",
      "State": "IA",
      "Zip": 51501,
      "Male Crim": 30.1849056603774,
      "Male Non-Crim": 4.59245283018868,
      "Female Crim": 0.577358490566038,
      "Female Non-Crim": 0.781132075471698,
      "latitude": 41.284196,
      "longitude": -95.864127
    },
    {
      "Name": "SARPY COUNTY JAIL",
      "Address": "1208 GOLDEN GATE DRIVE",
      "City": "PAPILLION",
      "State": "NE",
      "Zip": 68046,
      "Male Crim": 1.72830188679245,
      "Male Non-Crim": 0.173584905660377,
      "Female Crim": 0.0113207547169811,
      "Female Non-Crim": 0.0113207547169811,
      "latitude": 41.1434535,
      "longitude": -96.0419407
    },
    {
      "Name": "SHERBURNE COUNTY JAIL",
      "Address": "13880 BUSINESS CENTER DRIVE",
      "City": "ELK RIVER",
      "State": "MN",
      "Zip": 55330,
      "Male Crim": 26.0037735849057,
      "Male Non-Crim": 21.8150943396227,
      "Female Crim": 1.64528301886792,
      "Female Non-Crim": 1.43018867924528,
      "latitude": 45.3037535,
      "longitude": -93.6200234
    },
    {
      "Name": "WOODBURY COUNTY JAIL",
      "Address": "407 7TH STREET",
      "City": "SIOUX CITY",
      "State": "IA",
      "Zip": 51101,
      "Male Crim": 7.77735849056604,
      "Male Non-Crim": 3.40000000000001,
      "Female Crim": 0.256603773584906,
      "Female Non-Crim": 0.713207547169811,
      "latitude": 42.4975021,
      "longitude": -96.4062738
    },
    {
      "Name": "CLARKE COUNTY SHERIFF",
      "Address": "100 S MAIN ST",
      "City": "OSCEOLA",
      "State": "IA",
      "Zip": 50213,
      "Male Crim": null,
      "Male Non-Crim": null,
      "Female Crim": null,
      "Female Non-Crim": null,
      "latitude": 41.0341692,
      "longitude": -93.7667512
    },
    {
      "Name": "NORTHWEST REGIONAL CORRECTIONS CENTER",
      "Address": "816 MARIN AVE., SUITE 110",
      "City": "CROOKSTON",
      "State": "MN",
      "Zip": 56716,
      "Male Crim": 55.8366533864542,
      "Male Non-Crim": 52.2828685258966,
      "Female Crim": 1.83665338645418,
      "Female Non-Crim": 1.93625498007968,
      "latitude": null,
      "longitude": null
    },
    {
      "Name": "CAROLINE DETENTION FACILITY",
      "Address": "11093 S.W. LEWIS MEMORIAL DRIVE",
      "City": "BOWLING GREEN",
      "State": "VA",
      "Zip": 22427,
      "Male Crim": 130.098113207547,
      "Male Non-Crim": 151.188679245283,
      "Female Crim": 8.55094339622642,
      "Female Non-Crim": 5.73962264150944,
      "latitude": 38.111865502490836,
      "longitude": -77.26723215987357
    },
    {
      "Name": "PRINCE EDWARD COUNTY (FARMVILLE)",
      "Address": "508 WATERWORKS ROAD",
      "City": "FARMVILLE",
      "State": "VA",
      "Zip": 23901,
      "Male Crim": 294.516981132077,
      "Male Non-Crim": 263.99245283019,
      "Female Crim": 0.0,
      "Female Non-Crim": 0.358490566037736,
      "latitude": 37.3193665,
      "longitude": -78.4382314
    },
    {
      "Name": "NORTHWESTERN REGIONAL JUVENILE DETENTION CENTER",
      "Address": "145 FT COLLIER RD",
      "City": "WINCHESTER",
      "State": "VA",
      "Zip": 22603,
      "Male Crim": 34.2549800796813,
      "Male Non-Crim": 22.1633466135459,
      "Female Crim": 2.34262948207171,
      "Female Non-Crim": 1.94422310756972,
      "latitude": 39.1903758,
      "longitude": -78.1410542
    }
  ]
}