{
  "metadata": {
    "source_file": "data/FY25_detentionStats09112025.xlsx",
    "extraction_date": "2025-09-11",
    "last_checked_date": "2025-09-12T18:21:41.785691",
    "total_facilities": 187,
    "source_date": "2025-09-11"
  },
  "facilities": [
    {
      "Name": "ADAMS COUNTY DET CENTER",
      "Address": "20 HOBO FORK RD.",
      "City": "NATCHEZ",
      "State": "MS",
      "Zip": "39120",
      "Male Crim": 53.4345238095238,
      "Male Non-Crim": 2117.73511904761,
      "Female Crim": 0.0625,
      "Female Non-Crim": 0.997023809523809,
      "ICE Threat Level 1": 7.72321428571428,
      "ICE Threat Level 2": 11.2767857142857,
      "ICE Threat Level 3": 21.3154761904762,
      "No ICE Threat Level": 2131.91369047618,
      "latitude": 31.5576266,
      "longitude": -91.221126
    },
    {
      "Name": "ADELANTO ICE PROCESSING CENTER",
      "Address": "10250 RANCHO ROAD",
      "City": "ADELANTO",
      "State": "CA",
      "Zip": "92301",
      "Male Crim": 280.922619047619,
      "Male Non-Crim": 201.592261904763,
      "Female Crim": 6.70535714285714,
      "Female Non-Crim": 38.2708333333334,
      "ICE Threat Level 1": 127.872023809524,
      "ICE Threat Level 2": 48.4315476190476,
      "ICE Threat Level 3": 32.3452380952381,
      "No ICE Threat Level": 318.842261904764,
      "latitude": 34.5599467,
      "longitude": -117.4421505
    },
    {
      "Name": "ALAMANCE COUNTY DETENTION FACILITY",
      "Address": "109 SOUTH MAPLE STREET",
      "City": "GRAHAM",
      "State": "NC",
      "Zip": "27253",
      "Male Crim": 13.1220238095239,
      "Male Non-Crim": 10.0386904761905,
      "Female Crim": 0.166666666666667,
      "Female Non-Crim": 0.613095238095237,
      "ICE Threat Level 1": 0.625,
      "ICE Threat Level 2": 0.130952380952381,
      "ICE Threat Level 3": 0.169642857142857,
      "No ICE Threat Level": 23.0148809523804,
      "latitude": 36.0684989,
      "longitude": -79.4030356
    },
    {
      "Name": "ALLEGANY COUNTY JAIL",
      "Address": "4884 STATE ROUTE 19",
      "City": "BELMONT",
      "State": "NY",
      "Zip": "14813",
      "Male Crim": 0.0,
      "Male Non-Crim": 0.910714285714286,
      "Female Crim": 0.505952380952381,
      "Female Non-Crim": 4.30952380952381,
      "ICE Threat Level 1": 0.0,
      "ICE Threat Level 2": 0.0,
      "ICE Threat Level 3": 0.0,
      "No ICE Threat Level": 5.72619047619048,
      "latitude": 42.212952098118315,
      "longitude": -78.01655374441145
    },
    {
      "Name": "ANCHORAGE CORRECTIONAL COMPLEX",
      "Address": "1400 E. 4TH AVE",
      "City": "ANCHORAGE",
      "State": "AK",
      "Zip": "99501",
      "Male Crim": 1.48511904761905,
      "Male Non-Crim": 1.76190476190476,
      "Female Crim": 0.0,
      "Female Non-Crim": 0.0,
      "ICE Threat Level 1": 0.00595238095238095,
      "ICE Threat Level 2": 0.0,
      "ICE Threat Level 3": 0.0,
      "No ICE Threat Level": 3.24107142857143,
      "latitude": 61.2183804,
      "longitude": -149.857649
    },
    {
      "Name": "ALLEN PARISH PUBLIC SAFETY COMPLEX",
      "Address": "7340 HIGHWAY 26 WEST",
      "City": "OBERLIN",
      "State": "LA",
      "Zip": "70655",
      "Male Crim": 52.2440476190476,
      "Male Non-Crim": 120.071428571429,
      "Female Crim": 0.0,
      "Female Non-Crim": 0.0,
      "ICE Threat Level 1": 15.1636904761905,
      "ICE Threat Level 2": 10.1130952380952,
      "ICE Threat Level 3": 3.625,
      "No ICE Threat Level": 143.41369047619,
      "latitude": 30.624697320076855,
      "longitude": -92.78388873123045
    },
    {
      "Name": "BAKER COUNTY SHERIFF DEPT.",
      "Address": "1 SHERIFF OFFICE DRIVE",
      "City": "MACCLENNY",
      "State": "FL",
      "Zip": "32063",
      "Male Crim": 143.247023809523,
      "Male Non-Crim": 59.6249999999997,
      "Female Crim": 26.4047619047619,
      "Female Non-Crim": 31.9910714285714,
      "ICE Threat Level 1": 24.5952380952381,
      "ICE Threat Level 2": 13.0059523809524,
      "ICE Threat Level 3": 13.1428571428571,
      "No ICE Threat Level": 210.523809523811,
      "latitude": 30.296199564670268,
      "longitude": -82.12165470055466
    },
    {
      "Name": "SOUTH LOUISIANA ICE PROCESSING CENTER",
      "Address": "3843 STAGG AVENUE",
      "City": "BASILE",
      "State": "LA",
      "Zip": "70515",
      "Male Crim": 4.30059523809524,
      "Male Non-Crim": 5.12202380952381,
      "Female Crim": 136.651785714285,
      "Female Non-Crim": 739.627976190479,
      "ICE Threat Level 1": 55.3660714285713,
      "ICE Threat Level 2": 30.125,
      "ICE Threat Level 3": 29.9047619047619,
      "No ICE Threat Level": 770.306547619052,
      "latitude": 30.4866896,
      "longitude": -92.5818666
    },
    {
      "Name": "BLUEBONNET DETENTION FACILITY",
      "Address": "400 2ND STREET",
      "City": "ANSON",
      "State": "TX",
      "Zip": "79501",
      "Male Crim": 347.958333333342,
      "Male Non-Crim": 547.163690476193,
      "Female Crim": 13.5625,
      "Female Non-Crim": 59.6964285714284,
      "ICE Threat Level 1": 66.770833333333,
      "ICE Threat Level 2": 46.1577380952379,
      "ICE Threat Level 3": 68.9017857142853,
      "No ICE Threat Level": 786.550595238063,
      "latitude": 32.7667663,
      "longitude": -99.8888312
    },
    {
      "Name": "BOONE COUNTY JAIL",
      "Address": "3020 CONRAD LANE",
      "City": "BURLINGTON",
      "State": "KY",
      "Zip": "41005",
      "Male Crim": 114.934523809524,
      "Male Non-Crim": 47.9255952380953,
      "Female Crim": 3.95238095238095,
      "Female Non-Crim": 0.717261904761905,
      "ICE Threat Level 1": 31.3809523809524,
      "ICE Threat Level 2": 13.8511904761905,
      "ICE Threat Level 3": 9.81845238095239,
      "No ICE Threat Level": 112.479166666666,
      "latitude": 39.0373257,
      "longitude": -84.7236669
    },
    {
      "Name": "ATLANTA US PEN",
      "Address": "601 MCDONOUGH BOULEVARD, SE",
      "City": "ATLANTA",
      "State": "GA",
      "Zip": "30315",
      "Male Crim": 30.6755952380952,
      "Male Non-Crim": 55.6696428571427,
      "Female Crim": 0.0386904761904762,
      "Female Non-Crim": 0.0416666666666667,
      "ICE Threat Level 1": 0.601190476190476,
      "ICE Threat Level 2": 0.741071428571429,
      "ICE Threat Level 3": 1.00297619047619,
      "No ICE Threat Level": 84.080357142857,
      "latitude": 33.71204679097549,
      "longitude": -84.37111710232016
    },
    {
      "Name": "BERLIN FED. CORR. INST.",
      "Address": "1 SUCCESS LOOP DR.",
      "City": "BERLIN",
      "State": "NH",
      "Zip": "03570",
      "Male Crim": 30.9494047619047,
      "Male Non-Crim": 98.5,
      "Female Crim": 0.19047619047619,
      "Female Non-Crim": 0.142857142857143,
      "ICE Threat Level 1": 7.55654761904762,
      "ICE Threat Level 2": 1.95238095238095,
      "ICE Threat Level 3": 5.93154761904762,
      "No ICE Threat Level": 114.342261904762,
      "latitude": 44.519,
      "longitude": -71.13716
    },
    {
      "Name": "BROOKLYN MDC",
      "Address": "100 29TH STREET",
      "City": "BROOKLYN",
      "State": "NY",
      "Zip": "11232",
      "Male Crim": 5.22023809523809,
      "Male Non-Crim": 16.7440476190476,
      "Female Crim": 0.220238095238095,
      "Female Non-Crim": 0.056547619047619,
      "ICE Threat Level 1": 0.392857142857143,
      "ICE Threat Level 2": 0.738095238095238,
      "ICE Threat Level 3": 1.8125,
      "No ICE Threat Level": 19.2976190476191,
      "latitude": 40.6597866,
      "longitude": -74.0029582
    },
    {
      "Name": "HONOLULU FEDERAL DETENTION CENTER",
      "Address": "351 ELLIOTT ST.",
      "City": "HONOLULU",
      "State": "HI",
      "Zip": "96819",
      "Male Crim": 21.3065476190476,
      "Male Non-Crim": 19.0833333333333,
      "Female Crim": 0.571428571428571,
      "Female Non-Crim": 5.77083333333333,
      "ICE Threat Level 1": 10.9732142857143,
      "ICE Threat Level 2": 5.39285714285714,
      "ICE Threat Level 3": 3.36309523809524,
      "No ICE Threat Level": 27.0029761904762,
      "latitude": 21.3332122,
      "longitude": -157.9283542
    },
    {
      "Name": "LEAVENWORTH US PENITENTIARY",
      "Address": "1300 METROPOLITAN AVE.",
      "City": "LEAVENWORTH",
      "State": "KS",
      "Zip": "66048",
      "Male Crim": 26.5922619047619,
      "Male Non-Crim": 12.6160714285714,
      "Female Crim": 0.0,
      "Female Non-Crim": 0.0,
      "ICE Threat Level 1": 10.4404761904762,
      "ICE Threat Level 2": 2.63690476190476,
      "ICE Threat Level 3": 2.74702380952381,
      "No ICE Threat Level": 23.3839285714286,
      "latitude": 39.3303867,
      "longitude": -94.9357354
    },
    {
      "Name": "MIAMI FEDERAL DETENTION",
      "Address": "33 NE 4 STREET",
      "City": "MIAMI",
      "State": "FL",
      "Zip": "33132",
      "Male Crim": 123.002976190476,
      "Male Non-Crim": 106.642857142857,
      "Female Crim": 0.455357142857143,
      "Female Non-Crim": 0.0238095238095238,
      "ICE Threat Level 1": 28.1904761904762,
      "ICE Threat Level 2": 10.8482142857143,
      "ICE Threat Level 3": 7.37797619047619,
      "No ICE Threat Level": 183.708333333334,
      "latitude": 25.778835871616227,
      "longitude": -80.19334441968891
    },
    {
      "Name": "FDC PHILADELPHIA",
      "Address": "700 ARCH ST.",
      "City": "PHILADELPHIA",
      "State": "PA",
      "Zip": "19106",
      "Male Crim": 22.1190476190476,
      "Male Non-Crim": 38.7857142857144,
      "Female Crim": 0.0,
      "Female Non-Crim": 0.0714285714285714,
      "ICE Threat Level 1": 2.32738095238095,
      "ICE Threat Level 2": 1.00595238095238,
      "ICE Threat Level 3": 0.544642857142857,
      "No ICE Threat Level": 57.0982142857143,
      "latitude": 39.9525541,
      "longitude": -75.1520216
    },
    {
      "Name": "BOURBON CO DET CENTER",
      "Address": "BOURBON CO COURTHOUSE, MAIN STREET",
      "City": "PARIS",
      "State": "KY",
      "Zip": "40361",
      "Male Crim": 0.714285714285714,
      "Male Non-Crim": 1.26488095238095,
      "Female Crim": 0.0297619047619048,
      "Female Non-Crim": 0.211309523809524,
      "ICE Threat Level 1": 0.00297619047619048,
      "ICE Threat Level 2": 0.0,
      "ICE Threat Level 3": 0.0,
      "No ICE Threat Level": 2.21726190476191,
      "latitude": null,
      "longitude": null
    },
    {
      "Name": "BROWARD COUNTY JAIL",
      "Address": "555 SE 1ST AVENUE",
      "City": "FT.LAUDERDALE",
      "State": "FL",
      "Zip": "33301",
      "Male Crim": 0.389880952380952,
      "Male Non-Crim": 1.08333333333333,
      "Female Crim": 0.0505952380952381,
      "Female Non-Crim": 0.211309523809524,
      "ICE Threat Level 1": 0.0,
      "ICE Threat Level 2": 0.0,
      "ICE Threat Level 3": 0.0,
      "No ICE Threat Level": 1.73511904761904,
      "latitude": 26.1162336,
      "longitude": -80.1423181
    },
    {
      "Name": "BROOKS COUNTY DETENTION CENTER",
      "Address": "901 COUNTY ROAD 201",
      "City": "FALFURRIAS",
      "State": "TX",
      "Zip": "78355",
      "Male Crim": 0.842261904761904,
      "Male Non-Crim": 2.58630952380952,
      "Female Crim": 0.0,
      "Female Non-Crim": 0.0,
      "ICE Threat Level 1": 0.154761904761905,
      "ICE Threat Level 2": 0.116071428571429,
      "ICE Threat Level 3": 0.163690476190476,
      "No ICE Threat Level": 2.99404761904762,
      "latitude": 27.2482748,
      "longitude": -98.1258468
    },
    {
      "Name": "BROOME COUNTY JAIL",
      "Address": "897 FRONT STREET",
      "City": "BINGHAMPTON",
      "State": "NY",
      "Zip": "13905",
      "Male Crim": 1.21130952380952,
      "Male Non-Crim": 7.56547619047619,
      "Female Crim": 0.0,
      "Female Non-Crim": 0.0416666666666667,
      "ICE Threat Level 1": 0.0,
      "ICE Threat Level 2": 0.44047619047619,
      "ICE Threat Level 3": 0.470238095238095,
      "No ICE Threat Level": 7.90773809523809,
      "latitude": 42.13112754376308,
      "longitude": -75.91372588859112
    },
    {
      "Name": "BUFFALO SERVICE PROCESSING CENTER",
      "Address": "4250 FEDERAL DRIVE",
      "City": "BATAVIA",
      "State": "NY",
      "Zip": "14020",
      "Male Crim": 249.235119047619,
      "Male Non-Crim": 383.642857142857,
      "Female Crim": 0.0,
      "Female Non-Crim": 0.0744047619047619,
      "ICE Threat Level 1": 86.2708333333333,
      "ICE Threat Level 2": 17.1964285714286,
      "ICE Threat Level 3": 19.2291666666667,
      "No ICE Threat Level": 510.255952380953,
      "latitude": 43.0203104,
      "longitude": -78.2024802
    },
    {
      "Name": "BURLEIGH COUNTY",
      "Address": "P.O. BOX 1416",
      "City": "BISMARCK",
      "State": "ND",
      "Zip": "58502",
      "Male Crim": 1.58333333333333,
      "Male Non-Crim": 3.3452380952381,
      "Female Crim": 0.0,
      "Female Non-Crim": 0.732142857142857,
      "ICE Threat Level 1": 0.0446428571428571,
      "ICE Threat Level 2": 0.776785714285714,
      "ICE Threat Level 3": 0.12797619047619,
      "No ICE Threat Level": 4.71130952380952,
      "latitude": 46.11458,
      "longitude": -100.59055
    },
    {
      "Name": "BUTLER COUNTY JAIL",
      "Address": "705 HANOVER STREET",
      "City": "HAMILTON",
      "State": "OH",
      "Zip": "45011",
      "Male Crim": 34.9523809523809,
      "Male Non-Crim": 100.782738095238,
      "Female Crim": 1.87202380952381,
      "Female Non-Crim": 12.8630952380952,
      "ICE Threat Level 1": 4.52083333333333,
      "ICE Threat Level 2": 5.66071428571429,
      "ICE Threat Level 3": 9.54761904761905,
      "No ICE Threat Level": 130.741071428571,
      "latitude": 39.3881265,
      "longitude": -84.55588
    },
    {
      "Name": "MESA VERDE ICE PROCESSING CENTER",
      "Address": "425 GOLDEN STATE AVE",
      "City": "BAKERSFIELD",
      "State": "CA",
      "Zip": "93301",
      "Male Crim": 67.9226190476191,
      "Male Non-Crim": 38.9791666666667,
      "Female Crim": 2.77678571428571,
      "Female Non-Crim": 17.9970238095238,
      "ICE Threat Level 1": 33.4315476190476,
      "ICE Threat Level 2": 5.32738095238095,
      "ICE Threat Level 3": 3.00595238095238,
      "No ICE Threat Level": 85.9107142857144,
      "latitude": 35.380713,
      "longitude": -119.0060804
    },
    {
      "Name": "CALIFORNIA CITY CORRECTIONAL CENTER",
      "Address": "22844 VIRGINIA BOULEVARD",
      "City": "CALIFORNIA CITY",
      "State": "CA",
      "Zip": "93505",
      "Male Crim": 0.321428571428571,
      "Male Non-Crim": 1.05654761904762,
      "Female Crim": 0.0,
      "Female Non-Crim": 0.0,
      "ICE Threat Level 1": 0.142857142857143,
      "ICE Threat Level 2": 0.0267857142857143,
      "ICE Threat Level 3": 0.151785714285714,
      "No ICE Threat Level": 1.05654761904762,
      "latitude": 35.1531066,
      "longitude": -117.8591019
    },
    {
      "Name": "DESERT VIEW ANNEX",
      "Address": "10450 RANCHO ROAD",
      "City": "ADELANTO",
      "State": "CA",
      "Zip": "92301",
      "Male Crim": 128.482142857143,
      "Male Non-Crim": 292.98511904762,
      "Female Crim": 0.0773809523809524,
      "Female Non-Crim": 0.226190476190476,
      "ICE Threat Level 1": 11.797619047619,
      "ICE Threat Level 2": 7.82142857142857,
      "ICE Threat Level 3": 11.6309523809524,
      "No ICE Threat Level": 390.520833333333,
      "latitude": 34.5599404,
      "longitude": -117.4372813
    },
    {
      "Name": "CALHOUN COUNTY CORRECTIONAL CENTER",
      "Address": "185 EAST MICHIGAN AVENUE",
      "City": "BATTLE CREEK",
      "State": "MI",
      "Zip": "49014",
      "Male Crim": 47.3690476190476,
      "Male Non-Crim": 92.3482142857142,
      "Female Crim": 3.75,
      "Female Non-Crim": 14.4672619047619,
      "ICE Threat Level 1": 9.52380952380952,
      "ICE Threat Level 2": 5.32738095238095,
      "ICE Threat Level 3": 12.9345238095238,
      "No ICE Threat Level": 130.148809523809,
      "latitude": 42.3166739,
      "longitude": -85.1758915
    },
    {
      "Name": "CAROLINE DETENTION FACILITY",
      "Address": "11093 S.W. LEWIS MEMORIAL DRIVE",
      "City": "BOWLING GREEN",
      "State": "VA",
      "Zip": "22427",
      "Male Crim": 128.654761904762,
      "Male Non-Crim": 157.645833333333,
      "Female Crim": 8.25,
      "Female Non-Crim": 5.79761904761906,
      "ICE Threat Level 1": 31.2916666666667,
      "ICE Threat Level 2": 11.3928571428571,
      "ICE Threat Level 3": 12.9107142857143,
      "No ICE Threat Level": 244.752976190477,
      "latitude": 38.111865502490836,
      "longitude": -77.26723215987357
    },
    {
      "Name": "CASS COUNTY JAIL",
      "Address": "336 MAIN STREET",
      "City": "PLATTSMOUTH",
      "State": "NE",
      "Zip": "68048",
      "Male Crim": 4.47619047619048,
      "Male Non-Crim": 2.08630952380952,
      "Female Crim": 0.0119047619047619,
      "Female Non-Crim": 0.699404761904762,
      "ICE Threat Level 1": 0.446428571428571,
      "ICE Threat Level 2": 0.702380952380952,
      "ICE Threat Level 3": 0.705357142857143,
      "No ICE Threat Level": 5.41964285714286,
      "latitude": 41.0112468,
      "longitude": -95.8831012
    },
    {
      "Name": "COASTAL BEND DETENTION FACILITY",
      "Address": "4909 FM 2826",
      "City": "ROBSTOWN",
      "State": "TX",
      "Zip": "78380",
      "Male Crim": 7.96428571428575,
      "Male Non-Crim": 23.3898809523808,
      "Female Crim": 0.767857142857143,
      "Female Non-Crim": 3.21130952380953,
      "ICE Threat Level 1": 1.53571428571428,
      "ICE Threat Level 2": 1.64880952380952,
      "ICE Threat Level 3": 1.95833333333333,
      "No ICE Threat Level": 30.190476190476,
      "latitude": 27.737232588266924,
      "longitude": -97.75467600061113
    },
    {
      "Name": "CCA, FLORENCE CORRECTIONAL CENTER",
      "Address": "1100 BOWLING ROAD",
      "City": "FLORENCE",
      "State": "AZ",
      "Zip": "85232",
      "Male Crim": 283.184523809525,
      "Male Non-Crim": 184.044642857143,
      "Female Crim": 0.0,
      "Female Non-Crim": 0.0178571428571429,
      "ICE Threat Level 1": 45.3452380952381,
      "ICE Threat Level 2": 18.5505952380952,
      "ICE Threat Level 3": 21.0982142857143,
      "No ICE Threat Level": 382.252976190477,
      "latitude": 33.0438338,
      "longitude": -111.371793
    },
    {
      "Name": "T DON HUTTO DETENTION CENTER",
      "Address": "1001 WELCH STREET",
      "City": "TAYLOR",
      "State": "TX",
      "Zip": "76574",
      "Male Crim": 232.437500000001,
      "Male Non-Crim": 196.181547619048,
      "Female Crim": 0.0,
      "Female Non-Crim": 0.136904761904762,
      "ICE Threat Level 1": 67.3928571428572,
      "ICE Threat Level 2": 52.8839285714286,
      "ICE Threat Level 3": 92.5833333333332,
      "No ICE Threat Level": 215.895833333334,
      "latitude": 30.5647288,
      "longitude": -97.4194342
    },
    {
      "Name": "NORTHEAST OHIO CORRECTIONAL CENTER",
      "Address": "2240 HUBBARD ROAD",
      "City": "YOUNGSTOWN",
      "State": "OH",
      "Zip": "44505",
      "Male Crim": 32.8720238095238,
      "Male Non-Crim": 86.4702380952376,
      "Female Crim": 0.0,
      "Female Non-Crim": 0.0178571428571429,
      "ICE Threat Level 1": 6.97023809523809,
      "ICE Threat Level 2": 3.37797619047619,
      "ICE Threat Level 3": 4.29464285714286,
      "No ICE Threat Level": 104.717261904761,
      "latitude": 41.1288515,
      "longitude": -80.6267877
    },
    {
      "Name": "OTAY MESA DETENTION CENTER",
      "Address": "7488 CALZADA DE LA FUENTE",
      "City": "SAN DIEGO",
      "State": "CA",
      "Zip": "92154",
      "Male Crim": 204.229166666667,
      "Male Non-Crim": 914.669642857154,
      "Female Crim": 19.1279761904762,
      "Female Non-Crim": 244.523809523809,
      "ICE Threat Level 1": 74.8244047619047,
      "ICE Threat Level 2": 32.7708333333333,
      "ICE Threat Level 3": 40.2202380952381,
      "No ICE Threat Level": 1234.73511904764,
      "latitude": 32.5765248,
      "longitude": -116.9154777
    },
    {
      "Name": "CHASE COUNTY JAIL",
      "Address": "301 SOUTH WALNUT STREET",
      "City": "COTTONWOOD FALL",
      "State": "KS",
      "Zip": "66845",
      "Male Crim": 54.2827380952381,
      "Male Non-Crim": 43.7886904761904,
      "Female Crim": 3.55654761904762,
      "Female Non-Crim": 4.97619047619047,
      "ICE Threat Level 1": 7.89583333333333,
      "ICE Threat Level 2": 4.27380952380952,
      "ICE Threat Level 3": 7.24107142857143,
      "No ICE Threat Level": 87.1934523809521,
      "latitude": 38.36801388495829,
      "longitude": -96.53868750219544
    },
    {
      "Name": "CHIPPEWA COUNTY SSM",
      "Address": "325 COURT STREET",
      "City": "SAULT STE MARIE",
      "State": "MI",
      "Zip": "49783",
      "Male Crim": 10.625,
      "Male Non-Crim": 21.9285714285714,
      "Female Crim": 0.0,
      "Female Non-Crim": 0.0,
      "ICE Threat Level 1": 3.35119047619048,
      "ICE Threat Level 2": 1.03869047619048,
      "ICE Threat Level 3": 1.00595238095238,
      "No ICE Threat Level": 27.1577380952381,
      "latitude": 46.4977347,
      "longitude": -84.3459656
    },
    {
      "Name": "CIBOLA COUNTY CORRECTIONAL CENTER",
      "Address": "2000 CIBOLA LOOP",
      "City": "MILAN",
      "State": "NM",
      "Zip": "87021",
      "Male Crim": 36.7202380952381,
      "Male Non-Crim": 182.877976190476,
      "Female Crim": 0.0535714285714286,
      "Female Non-Crim": 0.0,
      "ICE Threat Level 1": 5.71428571428571,
      "ICE Threat Level 2": 2.96130952380952,
      "ICE Threat Level 3": 4.50595238095238,
      "No ICE Threat Level": 206.470238095238,
      "latitude": 35.18004057943829,
      "longitude": -107.9072294599532
    },
    {
      "Name": "CLARK COUNTY JAIL (IN)",
      "Address": "501 EAST COURT AVE.",
      "City": "JEFFERSONVILLE",
      "State": "IN",
      "Zip": "47130",
      "Male Crim": 3.3125,
      "Male Non-Crim": 6.97916666666667,
      "Female Crim": 7.66964285714286,
      "Female Non-Crim": 14.5773809523809,
      "ICE Threat Level 1": 2.77976190476191,
      "ICE Threat Level 2": 1.81547619047619,
      "ICE Threat Level 3": 1.5327380952381,
      "No ICE Threat Level": 26.4107142857143,
      "latitude": 38.277682,
      "longitude": -85.7375976
    },
    {
      "Name": "CLAY COUNTY JUSTICE CENTER",
      "Address": "611 EAST JACKSON STREET",
      "City": "BRAZIL",
      "State": "IN",
      "Zip": "47834",
      "Male Crim": 135.044642857143,
      "Male Non-Crim": 108.806547619046,
      "Female Crim": 7.12202380952382,
      "Female Non-Crim": 5.78571428571432,
      "ICE Threat Level 1": 26.2797619047619,
      "ICE Threat Level 2": 8.39285714285715,
      "ICE Threat Level 3": 11.0625,
      "No ICE Threat Level": 211.02380952382,
      "latitude": 39.5236693,
      "longitude": -87.1191065
    },
    {
      "Name": "CLINTON COUNTY JAIL",
      "Address": "25 MCCARTHY DRIVE",
      "City": "PLATTSBURGH",
      "State": "NY",
      "Zip": "12901",
      "Male Crim": 0.440476190476191,
      "Male Non-Crim": 0.809523809523809,
      "Female Crim": 1.4047619047619,
      "Female Non-Crim": 2.83333333333333,
      "ICE Threat Level 1": 0.0238095238095238,
      "ICE Threat Level 2": 0.0,
      "ICE Threat Level 3": 0.970238095238095,
      "No ICE Threat Level": 4.49404761904763,
      "latitude": 44.7204627,
      "longitude": -73.467472
    },
    {
      "Name": "CLINTON COUNTY JAIL",
      "Address": "301 E WALNUT STREET",
      "City": "FRANKFORT",
      "State": "IN",
      "Zip": "46041",
      "Male Crim": 3.01488095238095,
      "Male Non-Crim": 3.49404761904762,
      "Female Crim": 0.172619047619048,
      "Female Non-Crim": 0.994047619047619,
      "ICE Threat Level 1": 0.773809523809524,
      "ICE Threat Level 2": 0.342261904761905,
      "ICE Threat Level 3": 0.0654761904761905,
      "No ICE Threat Level": 6.49404761904762,
      "latitude": 40.2791153,
      "longitude": -86.5087576
    },
    {
      "Name": "CLINTON COUNTY CORRECTIONAL FACILITY",
      "Address": "58 PINE MOUNTAIN RD.",
      "City": "MCELHATTAN",
      "State": "PA",
      "Zip": "17748",
      "Male Crim": 66.0684523809524,
      "Male Non-Crim": 10.9910714285714,
      "Female Crim": 3.77678571428571,
      "Female Non-Crim": 3.01785714285714,
      "ICE Threat Level 1": 23.5505952380952,
      "ICE Threat Level 2": 6.05059523809524,
      "ICE Threat Level 3": 1.41071428571429,
      "No ICE Threat Level": 52.8422619047619,
      "latitude": 41.1511182,
      "longitude": -77.3493663
    },
    {
      "Name": "COLLIER COUNTY NAPLES JAIL CENTER",
      "Address": "3347 TAMIAMI TRAIL E",
      "City": "NAPLES",
      "State": "FL",
      "Zip": "34112",
      "Male Crim": 8.41666666666674,
      "Male Non-Crim": 7.34821428571436,
      "Female Crim": 0.366071428571429,
      "Female Non-Crim": 0.601190476190476,
      "ICE Threat Level 1": 0.306547619047619,
      "ICE Threat Level 2": 0.258928571428571,
      "ICE Threat Level 3": 0.336309523809524,
      "No ICE Threat Level": 15.8303571428572,
      "latitude": 26.1257654,
      "longitude": -81.7651214
    },
    {
      "Name": "CAMPBELL CO DET CTR",
      "Address": "601 CENTRAL AVE",
      "City": "NEWPORT",
      "State": "KY",
      "Zip": "41071",
      "Male Crim": 18.389880952381,
      "Male Non-Crim": 24.6220238095238,
      "Female Crim": 0.601190476190476,
      "Female Non-Crim": 5.20535714285714,
      "ICE Threat Level 1": 2.79761904761905,
      "ICE Threat Level 2": 3.30654761904762,
      "ICE Threat Level 3": 4.40178571428571,
      "No ICE Threat Level": 38.3125,
      "latitude": 39.0887186,
      "longitude": -84.4969756
    },
    {
      "Name": "NORTHWEST ICE PROCESSSING CENTER",
      "Address": "1623 E. J STREET",
      "City": "TACOMA",
      "State": "WA",
      "Zip": "98421",
      "Male Crim": 408.907738095238,
      "Male Non-Crim": 634.157738095241,
      "Female Crim": 46.4107142857143,
      "Female Non-Crim": 78.5446428571429,
      "ICE Threat Level 1": 151.08630952381,
      "ICE Threat Level 2": 42.5327380952381,
      "ICE Threat Level 3": 30.5297619047619,
      "No ICE Threat Level": 943.872023809526,
      "latitude": 47.2490423,
      "longitude": -122.4223947
    },
    {
      "Name": "CUMBERLAND COUNTY JAIL",
      "Address": "50 COUNTY WAY",
      "City": "PORTLAND",
      "State": "ME",
      "Zip": "04102",
      "Male Crim": 21.2380952380952,
      "Male Non-Crim": 20.5535714285714,
      "Female Crim": 4.47916666666667,
      "Female Non-Crim": 8.96130952380952,
      "ICE Threat Level 1": 7.93154761904762,
      "ICE Threat Level 2": 1.24404761904762,
      "ICE Threat Level 3": 3.97023809523809,
      "No ICE Threat Level": 42.0863095238095,
      "latitude": 43.6508623,
      "longitude": -70.2816197
    },
    {
      "Name": "DAKOTA COUNTY JAIL",
      "Address": "1601 BROADWAY",
      "City": "DAKOTA CITY",
      "State": "NE",
      "Zip": "68731",
      "Male Crim": 13.5505952380952,
      "Male Non-Crim": 6.64880952380953,
      "Female Crim": 0.833333333333333,
      "Female Non-Crim": 1.91666666666667,
      "ICE Threat Level 1": 1.41666666666667,
      "ICE Threat Level 2": 1.56547619047619,
      "ICE Threat Level 3": 0.997023809523809,
      "No ICE Threat Level": 18.9702380952381,
      "latitude": 42.416218260076164,
      "longitude": -96.4198282400598
    },
    {
      "Name": "DALLAS COUNTY JAIL - LEW STERRETT JUSTICE CENTER",
      "Address": "111 WEST COMMERCE STREET",
      "City": "DALLAS",
      "State": "TX",
      "Zip": "75202",
      "Male Crim": 2.7232142857143,
      "Male Non-Crim": 3.87797619047624,
      "Female Crim": 0.148809523809524,
      "Female Non-Crim": 0.520833333333333,
      "ICE Threat Level 1": 0.0,
      "ICE Threat Level 2": 0.00892857142857143,
      "ICE Threat Level 3": 0.0,
      "No ICE Threat Level": 7.26190476190501,
      "latitude": 32.7746483,
      "longitude": -96.8243069
    },
    {
      "Name": "DENVER CONTRACT DETENTION FACILITY",
      "Address": "3130 OAKLAND ST",
      "City": "AURORA",
      "State": "CO",
      "Zip": "80010",
      "Male Crim": 327.842261904762,
      "Male Non-Crim": 777.047619047622,
      "Female Crim": 20.202380952381,
      "Female Non-Crim": 54.4732142857143,
      "ICE Threat Level 1": 93.9196428571428,
      "ICE Threat Level 2": 42.0565476190476,
      "ICE Threat Level 3": 50.4375,
      "No ICE Threat Level": 993.151785714284,
      "latitude": 39.760875,
      "longitude": -104.849087
    },
    {
      "Name": "DELANEY HALL DETENTION FACILITY",
      "Address": "451 DOREMUS AVENUE",
      "City": "NEWARK",
      "State": "NJ",
      "Zip": "07105",
      "Male Crim": 29.1815476190476,
      "Male Non-Crim": 165.556547619048,
      "Female Crim": 1.66964285714286,
      "Female Non-Crim": 15.9107142857143,
      "ICE Threat Level 1": 0.854166666666667,
      "ICE Threat Level 2": 2.87202380952381,
      "ICE Threat Level 3": 8.70535714285714,
      "No ICE Threat Level": 199.886904761905,
      "latitude": 40.7187782,
      "longitude": -74.126752
    },
    {
      "Name": "DODGE COUNTY JAIL",
      "Address": "215 WEST CENTRAL STREET",
      "City": "JUNEAU",
      "State": "WI",
      "Zip": "53039",
      "Male Crim": 81.3928571428571,
      "Male Non-Crim": 26.4166666666667,
      "Female Crim": 0.449404761904762,
      "Female Non-Crim": 0.744047619047619,
      "ICE Threat Level 1": 16.4226190476191,
      "ICE Threat Level 2": 7.47321428571429,
      "ICE Threat Level 3": 5.78571428571428,
      "No ICE Threat Level": 79.3214285714284,
      "latitude": 43.40855649830141,
      "longitude": -88.70504618075388
    },
    {
      "Name": "DOUGLAS COUNTY",
      "Address": "1409 HAMMOND AVENUE",
      "City": "SUPERIOR",
      "State": "WI",
      "Zip": "54880",
      "Male Crim": 0.580357142857143,
      "Male Non-Crim": 1.7172619047619,
      "Female Crim": 0.0386904761904762,
      "Female Non-Crim": 0.241071428571429,
      "ICE Threat Level 1": 0.0238095238095238,
      "ICE Threat Level 2": 0.00892857142857143,
      "ICE Threat Level 3": 0.0952380952380952,
      "No ICE Threat Level": 2.44940476190476,
      "latitude": 46.7214838,
      "longitude": -92.0985348
    },
    {
      "Name": "ELOY FEDERAL CONTRACT FACILITY",
      "Address": "1705 EAST HANNA RD.",
      "City": "ELOY",
      "State": "AZ",
      "Zip": "85131",
      "Male Crim": 203.958333333333,
      "Male Non-Crim": 557.321428571433,
      "Female Crim": 100.648809523809,
      "Female Non-Crim": 538.976190476188,
      "ICE Threat Level 1": 117.22619047619,
      "ICE Threat Level 2": 55.6160714285714,
      "ICE Threat Level 3": 89.0029761904761,
      "No ICE Threat Level": 1139.05952380951,
      "latitude": 32.8176772,
      "longitude": -111.51927
    },
    {
      "Name": "EDEN DETENTION CTR",
      "Address": "702 E BROADWAY ST",
      "City": "EDEN",
      "State": "TX",
      "Zip": "76837",
      "Male Crim": 17.9851190476191,
      "Male Non-Crim": 107.154761904762,
      "Female Crim": 0.0148809523809524,
      "Female Non-Crim": 0.220238095238095,
      "ICE Threat Level 1": 2.24404761904762,
      "ICE Threat Level 2": 1.375,
      "ICE Threat Level 3": 3.13988095238095,
      "No ICE Threat Level": 118.616071428571,
      "latitude": 31.2175083,
      "longitude": -99.8339599
    },
    {
      "Name": "EAST HIDALGO DETENTION CENTER",
      "Address": "1330 HIGHWAY 107",
      "City": "LA VILLA",
      "State": "TX",
      "Zip": "78562",
      "Male Crim": 4.7559523809524,
      "Male Non-Crim": 4.25297619047621,
      "Female Crim": 0.410714285714286,
      "Female Non-Crim": 0.574404761904762,
      "ICE Threat Level 1": 2.38988095238095,
      "ICE Threat Level 2": 0.63095238095238,
      "ICE Threat Level 3": 0.857142857142856,
      "No ICE Threat Level": 6.11607142857148,
      "latitude": 26.295748678577546,
      "longitude": -97.91819101612627
    },
    {
      "Name": "ELMORE COUNTY JAIL",
      "Address": "2255 E. 8TH NORTH",
      "City": "MOUNTAIN HOME",
      "State": "ID",
      "Zip": "83647",
      "Male Crim": 1.05357142857143,
      "Male Non-Crim": 0.294642857142857,
      "Female Crim": 0.00297619047619048,
      "Female Non-Crim": 0.0238095238095238,
      "ICE Threat Level 1": 0.0892857142857143,
      "ICE Threat Level 2": 0.00297619047619048,
      "ICE Threat Level 3": 0.0476190476190476,
      "No ICE Threat Level": 1.23511904761905,
      "latitude": 43.1363262,
      "longitude": -115.6730371
    },
    {
      "Name": "EL VALLE DETENTION FACILITY",
      "Address": "1800 INDUSTRIAL DRIVE",
      "City": "RAYMONDVILLE",
      "State": "TX",
      "Zip": "78580",
      "Male Crim": 153.291666666666,
      "Male Non-Crim": 296.223214285714,
      "Female Crim": 26.6934523809524,
      "Female Non-Crim": 377.592261904762,
      "ICE Threat Level 1": 38.0982142857143,
      "ICE Threat Level 2": 24.3095238095238,
      "ICE Threat Level 3": 28.3214285714286,
      "No ICE Threat Level": 763.071428571439,
      "latitude": 26.467581958871495,
      "longitude": -97.76228788899171
    },
    {
      "Name": "ELIZABETH CONTRACT DETENTION FACILITY",
      "Address": "625 EVANS STREET",
      "City": "ELIZABETH",
      "State": "NJ",
      "Zip": "07201",
      "Male Crim": 64.6547619047614,
      "Male Non-Crim": 214.21428571429,
      "Female Crim": 1.88392857142857,
      "Female Non-Crim": 16.4077380952381,
      "ICE Threat Level 1": 5.64583333333334,
      "ICE Threat Level 2": 8.47321428571428,
      "ICE Threat Level 3": 12.6190476190476,
      "No ICE Threat Level": 270.422619047629,
      "latitude": 40.6662036,
      "longitude": -74.1896718
    },
    {
      "Name": "EL PASO SERVICE PROCESSING CENTER",
      "Address": "8915 MONTANA AVE.",
      "City": "EL PASO",
      "State": "TX",
      "Zip": "79925",
      "Male Crim": 293.788690476216,
      "Male Non-Crim": 301.348214285728,
      "Female Crim": 69.4315476190474,
      "Female Non-Crim": 158.348214285716,
      "ICE Threat Level 1": 84.1547619047617,
      "ICE Threat Level 2": 64.1130952380949,
      "ICE Threat Level 3": 90.2857142857136,
      "No ICE Threat Level": 584.363095238074,
      "latitude": 31.7934217,
      "longitude": -106.3691494
    },
    {
      "Name": "ERIE COUNTY JAIL",
      "Address": "DEPARTMENT OF CORRECTIONS 1618 ASH STREET",
      "City": "ERIE",
      "State": "PA",
      "Zip": "16503",
      "Male Crim": 2.1547619047619,
      "Male Non-Crim": 10.5952380952381,
      "Female Crim": 0.0,
      "Female Non-Crim": 0.166666666666667,
      "ICE Threat Level 1": 0.00297619047619048,
      "ICE Threat Level 2": 0.130952380952381,
      "ICE Threat Level 3": 0.160714285714286,
      "No ICE Threat Level": 12.6220238095238,
      "latitude": 42.12425044860252,
      "longitude": -80.06653529654119
    },
    {
      "Name": "DOD DETENTION FACILITY AT FORT BLISS",
      "Address": "6920 DIGITAL RD",
      "City": "EL PASO",
      "State": "TX",
      "Zip": "79936",
      "Male Crim": 17.1964285714285,
      "Male Non-Crim": 41.1547619047618,
      "Female Crim": 0.0416666666666667,
      "Female Non-Crim": 0.598214285714285,
      "ICE Threat Level 1": 5.79761904761905,
      "ICE Threat Level 2": 3.36309523809524,
      "ICE Threat Level 3": 5.87500000000001,
      "No ICE Threat Level": 43.955357142857,
      "latitude": null,
      "longitude": null
    },
    {
      "Name": "ETOWAH COUNTY JAIL (ALABAMA)",
      "Address": "827 FORREST AVENUE",
      "City": "GADSDEN",
      "State": "AL",
      "Zip": "35901",
      "Male Crim": 15.3065476190477,
      "Male Non-Crim": 21.8244047619048,
      "Female Crim": 1.35714285714286,
      "Female Non-Crim": 3.39880952380953,
      "ICE Threat Level 1": 0.148809523809524,
      "ICE Threat Level 2": 0.270833333333333,
      "ICE Threat Level 3": 0.488095238095238,
      "No ICE Threat Level": 40.979166666667,
      "latitude": 34.0161208,
      "longitude": -86.012499
    },
    {
      "Name": "FOLKSTON ANNEX IPC",
      "Address": "3424 HIGHWAY 252 EAST",
      "City": "FOLKSTON",
      "State": "GA",
      "Zip": "31537",
      "Male Crim": 74.1934523809524,
      "Male Non-Crim": 211.494047619048,
      "Female Crim": 0.0,
      "Female Non-Crim": 0.208333333333333,
      "ICE Threat Level 1": 6.55654761904762,
      "ICE Threat Level 2": 5.84821428571429,
      "ICE Threat Level 3": 9.10714285714286,
      "No ICE Threat Level": 264.383928571429,
      "latitude": 30.875036792616953,
      "longitude": -81.98072458889538
    },
    {
      "Name": "FOLKSTON D RAY ICE PROCES",
      "Address": "3262 HIGHWAY 252",
      "City": "FOLKSTON",
      "State": "GA",
      "Zip": "31537",
      "Male Crim": 3.95535714285714,
      "Male Non-Crim": 23.7619047619048,
      "Female Crim": 0.0,
      "Female Non-Crim": 0.0803571428571429,
      "ICE Threat Level 1": 0.148809523809524,
      "ICE Threat Level 2": 0.770833333333333,
      "ICE Threat Level 3": 1.9375,
      "No ICE Threat Level": 24.9404761904762,
      "latitude": null,
      "longitude": null
    },
    {
      "Name": "FOLKSTON MAIN IPC",
      "Address": "3026 HWY 252 EAST",
      "City": "FOLKSTON",
      "State": "GA",
      "Zip": "31537",
      "Male Crim": 196.294642857143,
      "Male Non-Crim": 479.202380952383,
      "Female Crim": 0.422619047619048,
      "Female Non-Crim": 0.342261904761905,
      "ICE Threat Level 1": 13.4880952380952,
      "ICE Threat Level 2": 16.4672619047619,
      "ICE Threat Level 3": 22.4523809523809,
      "No ICE Threat Level": 623.854166666669,
      "latitude": 30.876482215607357,
      "longitude": -81.9779839158829
    },
    {
      "Name": "FLORENCE SERVICE PROCESSING CENTER",
      "Address": "3250 NORTH PINAL PARKWAY",
      "City": "FLORENCE",
      "State": "AZ",
      "Zip": "85132",
      "Male Crim": 97.3422619047604,
      "Male Non-Crim": 292.04464285717,
      "Female Crim": 0.232142857142857,
      "Female Non-Crim": 0.562499999999999,
      "ICE Threat Level 1": 2.53869047619048,
      "ICE Threat Level 2": 5.33928571428574,
      "ICE Threat Level 3": 33.0624999999998,
      "No ICE Threat Level": 349.241071428607,
      "latitude": 33.0630048,
      "longitude": -111.3790857
    },
    {
      "Name": "FLOYD COUNTY JAIL",
      "Address": "2526 NEW CALHOUN HWY",
      "City": "ROME",
      "State": "GA",
      "Zip": "30161",
      "Male Crim": 0.735119047619047,
      "Male Non-Crim": 1.58035714285714,
      "Female Crim": 0.068452380952381,
      "Female Non-Crim": 0.226190476190476,
      "ICE Threat Level 1": 0.0,
      "ICE Threat Level 2": 0.00595238095238095,
      "ICE Threat Level 3": 0.0,
      "No ICE Threat Level": 2.60416666666667,
      "latitude": 34.2803637,
      "longitude": -85.1428696
    },
    {
      "Name": "FREEBORN COUNTY ADULT DETENTION CENTER",
      "Address": "411 SOUTH BROADWAY AVENUE",
      "City": "ALBERT LEA",
      "State": "MN",
      "Zip": "56007",
      "Male Crim": 44.9642857142857,
      "Male Non-Crim": 36.4791666666667,
      "Female Crim": 0.0,
      "Female Non-Crim": 0.0,
      "ICE Threat Level 1": 10.5267857142857,
      "ICE Threat Level 2": 4.10416666666667,
      "ICE Threat Level 3": 3.07738095238095,
      "No ICE Threat Level": 63.7351190476191,
      "latitude": 43.6461475,
      "longitude": -93.3680658
    },
    {
      "Name": "PRINCE EDWARD COUNTY (FARMVILLE)",
      "Address": "508 WATERWORKS ROAD",
      "City": "FARMVILLE",
      "State": "VA",
      "Zip": "23901",
      "Male Crim": 288.946428571429,
      "Male Non-Crim": 296.107142857145,
      "Female Crim": 0.0476190476190476,
      "Female Non-Crim": 0.244047619047619,
      "ICE Threat Level 1": 45.7589285714286,
      "ICE Threat Level 2": 17.797619047619,
      "ICE Threat Level 3": 25.9553571428571,
      "No ICE Threat Level": 495.833333333339,
      "latitude": 37.3193665,
      "longitude": -78.4382314
    },
    {
      "Name": "FLORENCE STAGING FACILITY",
      "Address": "3250 NORTH PINAL PARKWAY",
      "City": "FLORENCE",
      "State": "AZ",
      "Zip": "85232",
      "Male Crim": 75.4761904761852,
      "Male Non-Crim": 112.428571428562,
      "Female Crim": 3.64583333333336,
      "Female Non-Crim": 5.52380952380962,
      "ICE Threat Level 1": 4.86904761904771,
      "ICE Threat Level 2": 3.55059523809527,
      "ICE Threat Level 3": 5.47023809523819,
      "No ICE Threat Level": 183.184523809549,
      "latitude": 33.0640298,
      "longitude": -111.3825565
    },
    {
      "Name": "GEAUGA COUNTY JAIL",
      "Address": "12450 MERRITT DR",
      "City": "CHARDON",
      "State": "OH",
      "Zip": "44024",
      "Male Crim": 12.3958333333333,
      "Male Non-Crim": 20.4077380952381,
      "Female Crim": 1.0,
      "Female Non-Crim": 7.88690476190476,
      "ICE Threat Level 1": 1.69940476190476,
      "ICE Threat Level 2": 1.875,
      "ICE Threat Level 3": 0.976190476190476,
      "No ICE Threat Level": 37.139880952381,
      "latitude": 41.504827833000164,
      "longitude": -81.19154084443294
    },
    {
      "Name": "GRAND FORKS COUNTY CORRECTIONAL FACILITY",
      "Address": "1701 NORTH WASHINGTON ST",
      "City": "GRAND FORKS",
      "State": "ND",
      "Zip": "58203",
      "Male Crim": 3.35119047619048,
      "Male Non-Crim": 4.20833333333334,
      "Female Crim": 0.0327380952380952,
      "Female Non-Crim": 0.157738095238095,
      "ICE Threat Level 1": 0.440476190476191,
      "ICE Threat Level 2": 0.244047619047619,
      "ICE Threat Level 3": 0.461309523809524,
      "No ICE Threat Level": 6.60416666666668,
      "latitude": 47.935792,
      "longitude": -97.055851
    },
    {
      "Name": "GLADES COUNTY DETENTION CENTER",
      "Address": "1297 EAST SR 78",
      "City": "MOORE HAVEN",
      "State": "FL",
      "Zip": "33471",
      "Male Crim": 51.9583333333333,
      "Male Non-Crim": 68.6726190476189,
      "Female Crim": 0.220238095238095,
      "Female Non-Crim": 0.0386904761904762,
      "ICE Threat Level 1": 9.30357142857143,
      "ICE Threat Level 2": 6.58035714285714,
      "ICE Threat Level 3": 4.48214285714286,
      "No ICE Threat Level": 100.523809523809,
      "latitude": 26.83880034675664,
      "longitude": -81.12392113131328
    },
    {
      "Name": "GOLDEN STATE ANNEX",
      "Address": "611 FRONTAGE RD",
      "City": "MCFARLAND",
      "State": "CA",
      "Zip": "93250",
      "Male Crim": 301.136904761904,
      "Male Non-Crim": 299.392857142857,
      "Female Crim": 0.0,
      "Female Non-Crim": 0.119047619047619,
      "ICE Threat Level 1": 122.958333333333,
      "ICE Threat Level 2": 20.5833333333333,
      "ICE Threat Level 3": 15.6190476190476,
      "No ICE Threat Level": 441.488095238095,
      "latitude": 35.667329,
      "longitude": -119.225036
    },
    {
      "Name": "GRAYSON COUNTY JAIL",
      "Address": "320 SHAW STATION ROAD",
      "City": "LEITCHFIELD",
      "State": "KY",
      "Zip": "42754",
      "Male Crim": 5.02678571428573,
      "Male Non-Crim": 3.11309523809524,
      "Female Crim": 20.3869047619048,
      "Female Non-Crim": 39.9613095238095,
      "ICE Threat Level 1": 6.74404761904762,
      "ICE Threat Level 2": 3.27678571428571,
      "ICE Threat Level 3": 4.125,
      "No ICE Threat Level": 54.3422619047616,
      "latitude": 37.4890391,
      "longitude": -86.2702303
    },
    {
      "Name": "GREENE COUNTY JAIL",
      "Address": "1199 N HASELTINE RD",
      "City": "SPRINGFIELD",
      "State": "MO",
      "Zip": "65802",
      "Male Crim": 55.6160714285714,
      "Male Non-Crim": 68.5654761904759,
      "Female Crim": 3.93154761904762,
      "Female Non-Crim": 10.6160714285714,
      "ICE Threat Level 1": 7.84523809523809,
      "ICE Threat Level 2": 3.13690476190476,
      "ICE Threat Level 3": 5.11607142857143,
      "No ICE Threat Level": 122.630952380952,
      "latitude": 37.2227197,
      "longitude": -93.385532
    },
    {
      "Name": "JTF CAMP SIX",
      "Address": "AVENUE C PSC 1005 BOX 55",
      "City": "FPO",
      "State": "FL",
      "Zip": "34009",
      "Male Crim": 12.0297619047619,
      "Male Non-Crim": 5.29761904761905,
      "Female Crim": 0.0,
      "Female Non-Crim": 0.0,
      "ICE Threat Level 1": 8.47023809523809,
      "ICE Threat Level 2": 1.70238095238095,
      "ICE Threat Level 3": 0.997023809523809,
      "No ICE Threat Level": 6.1577380952381,
      "latitude": 28.944465,
      "longitude": -82.03363
    },
    {
      "Name": "DEPARTMENT OF CORRECTIONS HAGATNA",
      "Address": "203 ASPINAL AVE. PO BOX 3236",
      "City": "HAGATNA",
      "State": "GU",
      "Zip": "96910",
      "Male Crim": 4.4077380952381,
      "Male Non-Crim": 3.66666666666667,
      "Female Crim": 0.00297619047619048,
      "Female Non-Crim": 0.211309523809524,
      "ICE Threat Level 1": 3.25297619047619,
      "ICE Threat Level 2": 0.654761904761905,
      "ICE Threat Level 3": 0.422619047619048,
      "No ICE Threat Level": 3.95833333333333,
      "latitude": 13.474342702816681,
      "longitude": 144.75024740290328
    },
    {
      "Name": "HARDIN COUNTY JAIL",
      "Address": "1116 14TH AVENUE",
      "City": "ELDORA",
      "State": "IA",
      "Zip": "50627",
      "Male Crim": 4.54761904761905,
      "Male Non-Crim": 4.10416666666667,
      "Female Crim": 0.342261904761905,
      "Female Non-Crim": 0.818452380952381,
      "ICE Threat Level 1": 1.04464285714286,
      "ICE Threat Level 2": 0.654761904761905,
      "ICE Threat Level 3": 0.324404761904762,
      "No ICE Threat Level": 7.78869047619048,
      "latitude": 42.3598449,
      "longitude": -93.0973711
    },
    {
      "Name": "HALL COUNTY DEPARTMENT OF CORRECTIONS",
      "Address": "110 PUBLIC SAFETY DRIVE",
      "City": "GRAND ISLAND",
      "State": "NE",
      "Zip": "68801",
      "Male Crim": 0.62797619047619,
      "Male Non-Crim": 0.476190476190476,
      "Female Crim": 0.0178571428571429,
      "Female Non-Crim": 0.0,
      "ICE Threat Level 1": 0.0119047619047619,
      "ICE Threat Level 2": 0.0357142857142857,
      "ICE Threat Level 3": 0.0773809523809524,
      "No ICE Threat Level": 0.99702380952381,
      "latitude": null,
      "longitude": null
    },
    {
      "Name": "HANCOCK COUNTY PUBLIC SAFETY COMPLEX",
      "Address": "8450 HIGHWAY 90",
      "City": "BAY ST. LOUIS",
      "State": "MS",
      "Zip": "39520",
      "Male Crim": 5.28869047619053,
      "Male Non-Crim": 15.6130952380952,
      "Female Crim": 0.330357142857143,
      "Female Non-Crim": 2.22321428571429,
      "ICE Threat Level 1": 0.0744047619047619,
      "ICE Threat Level 2": 0.145833333333333,
      "ICE Threat Level 3": 0.113095238095238,
      "No ICE Threat Level": 23.1220238095231,
      "latitude": 30.303815869350622,
      "longitude": -89.4759421177441
    },
    {
      "Name": "HENDERSON DETENTION",
      "Address": "18 E BASIC ROAD",
      "City": "HENDERSON",
      "State": "NV",
      "Zip": "89015",
      "Male Crim": 33.782738095238,
      "Male Non-Crim": 25.8898809523809,
      "Female Crim": 9.30654761904762,
      "Female Non-Crim": 8.22916666666667,
      "ICE Threat Level 1": 9.60416666666667,
      "ICE Threat Level 2": 6.56547619047619,
      "ICE Threat Level 3": 5.04464285714286,
      "No ICE Threat Level": 55.9940476190472,
      "latitude": 36.0308679,
      "longitude": -114.9780973
    },
    {
      "Name": "HOUSTON CONTRACT DETENTION FACILITY",
      "Address": "15850 EXPORT PLAZA DRIVE",
      "City": "HOUSTON",
      "State": "TX",
      "Zip": "77032",
      "Male Crim": 73.0595238095238,
      "Male Non-Crim": 427.526785714285,
      "Female Crim": 36.6101190476191,
      "Female Non-Crim": 308.464285714285,
      "ICE Threat Level 1": 32.8125,
      "ICE Threat Level 2": 28.7321428571429,
      "ICE Threat Level 3": 35.3839285714286,
      "No ICE Threat Level": 748.732142857143,
      "latitude": 29.9508332,
      "longitude": -95.3121699
    },
    {
      "Name": "HOPKINS COUNTY JAIL",
      "Address": "2250 LAFOON TRAIL",
      "City": "MADISONVILLE",
      "State": "KY",
      "Zip": "42431",
      "Male Crim": 17.8779761904762,
      "Male Non-Crim": 24.9880952380953,
      "Female Crim": 0.467261904761905,
      "Female Non-Crim": 3.88392857142857,
      "ICE Threat Level 1": 5.63690476190476,
      "ICE Threat Level 2": 2.41071428571429,
      "ICE Threat Level 3": 3.38988095238095,
      "No ICE Threat Level": 35.7797619047619,
      "latitude": 37.337886976243404,
      "longitude": -87.54013518688257
    },
    {
      "Name": "IMPERIAL REGIONAL DETENTION FACILITY",
      "Address": "1572 GATEWAY",
      "City": "CALEXICO",
      "State": "CA",
      "Zip": "92231",
      "Male Crim": 98.9613095238093,
      "Male Non-Crim": 506.907738095239,
      "Female Crim": 2.04761904761905,
      "Female Non-Crim": 57.7440476190477,
      "ICE Threat Level 1": 33.4047619047619,
      "ICE Threat Level 2": 15.0922619047619,
      "ICE Threat Level 3": 14.3720238095238,
      "No ICE Threat Level": 602.791666666668,
      "latitude": 32.69032325025824,
      "longitude": -115.39756848885183
    },
    {
      "Name": "JOE CORLEY PROCESSING CTR",
      "Address": "500 HILBIG RD",
      "City": "CONROE",
      "State": "TX",
      "Zip": "77301",
      "Male Crim": 117.369047619047,
      "Male Non-Crim": 743.523809523814,
      "Female Crim": 0.0,
      "Female Non-Crim": 0.244047619047619,
      "ICE Threat Level 1": 31.4285714285714,
      "ICE Threat Level 2": 24.4821428571429,
      "ICE Threat Level 3": 44.389880952381,
      "No ICE Threat Level": 760.836309523814,
      "latitude": 30.3359939,
      "longitude": -95.4481982
    },
    {
      "Name": "JEFFERSON COUNTY JAIL",
      "Address": "219 EAST FREMONT AVENUE",
      "City": "RIGBY",
      "State": "ID",
      "Zip": "83442",
      "Male Crim": 3.65178571428573,
      "Male Non-Crim": 1.33333333333333,
      "Female Crim": 0.0297619047619048,
      "Female Non-Crim": 0.0238095238095238,
      "ICE Threat Level 1": 0.0654761904761905,
      "ICE Threat Level 2": 0.178571428571429,
      "ICE Threat Level 3": 0.223214285714286,
      "No ICE Threat Level": 4.57142857142861,
      "latitude": 43.6733525,
      "longitude": -111.9115662
    },
    {
      "Name": "CENTRAL LOUISIANA ICE PROCESSING CENTER (CLIPC)",
      "Address": "830 PINEHILL ROAD",
      "City": "JENA",
      "State": "LA",
      "Zip": "71342",
      "Male Crim": 482.116071428576,
      "Male Non-Crim": 696.407738095236,
      "Female Crim": 0.56547619047619,
      "Female Non-Crim": 0.946428571428571,
      "ICE Threat Level 1": 98.8958333333332,
      "ICE Threat Level 2": 54.9375,
      "ICE Threat Level 3": 68.6517857142857,
      "No ICE Threat Level": 957.55059523809,
      "latitude": 31.7088575,
      "longitude": -92.1529335
    },
    {
      "Name": "ALEXANDRIA STAGING FACILI",
      "Address": "96 GEORGE THOMPSON DR.",
      "City": "ALEXANDRIA",
      "State": "LA",
      "Zip": "71303",
      "Male Crim": 138.86011904761,
      "Male Non-Crim": 196.636904761956,
      "Female Crim": 0.12797619047619,
      "Female Non-Crim": 0.211309523809524,
      "ICE Threat Level 1": 46.4017857142829,
      "ICE Threat Level 2": 27.6726190476186,
      "ICE Threat Level 3": 36.7351190476177,
      "No ICE Threat Level": 225.026785714366,
      "latitude": 31.317855,
      "longitude": -92.536606
    },
    {
      "Name": "JACKSON PARISH CORRECTIONAL CENTER",
      "Address": "327 INDUSTRIAL DRIVE",
      "City": "JONESBORO",
      "State": "LA",
      "Zip": "71251",
      "Male Crim": 57.3928571428571,
      "Male Non-Crim": 993.934523809521,
      "Female Crim": 0.889880952380952,
      "Female Non-Crim": 3.56845238095239,
      "ICE Threat Level 1": 8.33928571428572,
      "ICE Threat Level 2": 6.52976190476191,
      "ICE Threat Level 3": 21.889880952381,
      "No ICE Threat Level": 1019.02678571428,
      "latitude": 32.2158449,
      "longitude": -92.7178317
    },
    {
      "Name": "KANDIYOHI COUNTY JAIL",
      "Address": "2201 23RD ST NE",
      "City": "WILLMAR",
      "State": "MN",
      "Zip": "56201",
      "Male Crim": 69.0238095238096,
      "Male Non-Crim": 62.5684523809523,
      "Female Crim": 7.25595238095238,
      "Female Non-Crim": 4.91666666666667,
      "ICE Threat Level 1": 19.9940476190476,
      "ICE Threat Level 2": 9.91964285714286,
      "ICE Threat Level 3": 7.37202380952381,
      "No ICE Threat Level": 106.479166666666,
      "latitude": 45.1458557,
      "longitude": -95.0144842
    },
    {
      "Name": "KAY CO JUSTICE FACILITY",
      "Address": "1101 WEST DRY ROAD",
      "City": "NEWKIRK",
      "State": "OK",
      "Zip": "74647",
      "Male Crim": 57.0416666666666,
      "Male Non-Crim": 59.2261904761905,
      "Female Crim": 0.0,
      "Female Non-Crim": 0.056547619047619,
      "ICE Threat Level 1": 9.83035714285714,
      "ICE Threat Level 2": 4.33333333333333,
      "ICE Threat Level 3": 7.66071428571429,
      "No ICE Threat Level": 94.4999999999998,
      "latitude": 36.86806507097945,
      "longitude": -97.06923720408514
    },
    {
      "Name": "KENTON COUNTY JAIL",
      "Address": "3000 DECKER CRANE LANE",
      "City": "COVINGTON",
      "State": "KY",
      "Zip": "41017",
      "Male Crim": 9.7172619047619,
      "Male Non-Crim": 11.8452380952381,
      "Female Crim": 0.37202380952381,
      "Female Non-Crim": 0.00297619047619048,
      "ICE Threat Level 1": 0.895833333333333,
      "ICE Threat Level 2": 1.49107142857143,
      "ICE Threat Level 3": 3.52678571428571,
      "No ICE Threat Level": 16.0238095238095,
      "latitude": 39.002731,
      "longitude": -84.531531
    },
    {
      "Name": "KNOX COUNTY DETENTION FACILITY",
      "Address": "5001 MALONEYVILLE RD",
      "City": "KNOXVILLE",
      "State": "TN",
      "Zip": "37918",
      "Male Crim": 13.4970238095239,
      "Male Non-Crim": 12.9851190476191,
      "Female Crim": 0.720238095238095,
      "Female Non-Crim": 1.41964285714285,
      "ICE Threat Level 1": 0.196428571428571,
      "ICE Threat Level 2": 0.0476190476190476,
      "ICE Threat Level 3": 0.339285714285714,
      "No ICE Threat Level": 28.0386904761906,
      "latitude": 36.0850476,
      "longitude": -83.841532
    },
    {
      "Name": "KARNES COUNTY IMMIGRATION PROCESSING CENTER",
      "Address": "409 FM 1144",
      "City": "KARNES CITY",
      "State": "TX",
      "Zip": "78118",
      "Male Crim": 56.4553571428572,
      "Male Non-Crim": 622.586309523808,
      "Female Crim": 20.4434523809524,
      "Female Non-Crim": 258.038690476191,
      "ICE Threat Level 1": 1.38988095238095,
      "ICE Threat Level 2": 7.22321428571429,
      "ICE Threat Level 3": 43.7708333333333,
      "No ICE Threat Level": 905.139880952385,
      "latitude": 28.8849121,
      "longitude": -97.8977348
    },
    {
      "Name": "KROME NORTH SERVICE PROCESSING CENTER",
      "Address": "18201 SW 12TH ST",
      "City": "MIAMI",
      "State": "FL",
      "Zip": "33194",
      "Male Crim": 447.991071428586,
      "Male Non-Crim": 459.187500000024,
      "Female Crim": 0.633928571428571,
      "Female Non-Crim": 0.964285714285714,
      "ICE Threat Level 1": 86.2589285714283,
      "ICE Threat Level 2": 27.6875,
      "ICE Threat Level 3": 22.8214285714286,
      "No ICE Threat Level": 772.00892857144,
      "latitude": 25.7547717,
      "longitude": -80.4908502
    },
    {
      "Name": "LAKE COUNTY JAIL",
      "Address": "551 W. MAIN ST.",
      "City": "TAVARES",
      "State": "FL",
      "Zip": "32778",
      "Male Crim": 0.244047619047619,
      "Male Non-Crim": 0.979166666666666,
      "Female Crim": 0.0119047619047619,
      "Female Non-Crim": 0.0148809523809524,
      "ICE Threat Level 1": 0.110119047619048,
      "ICE Threat Level 2": 0.0,
      "ICE Threat Level 3": 0.0,
      "No ICE Threat Level": 1.13988095238095,
      "latitude": 28.8018772,
      "longitude": -81.7329614
    },
    {
      "Name": "LAUREL COUNTY CORRECTIONAL CENTER",
      "Address": "440 HAMMOCK ROAD",
      "City": "LONDON",
      "State": "KY",
      "Zip": "40744",
      "Male Crim": 0.723214285714285,
      "Male Non-Crim": 0.669642857142857,
      "Female Crim": 0.202380952380952,
      "Female Non-Crim": 0.681547619047619,
      "ICE Threat Level 1": 0.0119047619047619,
      "ICE Threat Level 2": 0.0,
      "ICE Threat Level 3": 0.00892857142857143,
      "No ICE Threat Level": 2.25595238095238,
      "latitude": 37.05739,
      "longitude": -84.070965
    },
    {
      "Name": "WINN CORRECTIONAL CENTER",
      "Address": "560 GUM SPRING ROAD",
      "City": "WINNFIELD",
      "State": "LA",
      "Zip": "71483",
      "Male Crim": 370.851190476191,
      "Male Non-Crim": 1190.95535714286,
      "Female Crim": 0.547619047619048,
      "Female Non-Crim": 0.940476190476191,
      "ICE Threat Level 1": 97.3928571428571,
      "ICE Threat Level 2": 59.6309523809523,
      "ICE Threat Level 3": 62.2946428571428,
      "No ICE Threat Level": 1343.97619047618,
      "latitude": 31.8504715684334,
      "longitude": -92.78135647527058
    },
    {
      "Name": "LEXINGTON COUNTY JAIL",
      "Address": "521 GIBSON ROAD",
      "City": "LEXINGTON",
      "State": "SC",
      "Zip": "29072",
      "Male Crim": 2.22023809523809,
      "Male Non-Crim": 1.93154761904761,
      "Female Crim": 0.142857142857143,
      "Female Non-Crim": 0.642857142857142,
      "ICE Threat Level 1": 0.00892857142857143,
      "ICE Threat Level 2": 0.0,
      "ICE Threat Level 3": 0.00297619047619048,
      "No ICE Threat Level": 4.92559523809534,
      "latitude": 33.9784808,
      "longitude": -81.2508399
    },
    {
      "Name": "LIMESTONE COUNTY DETENTION CENTER",
      "Address": "910 NORTH TYUS STREET",
      "City": "GROESBECK",
      "State": "TX",
      "Zip": "76642",
      "Male Crim": 11.9672619047619,
      "Male Non-Crim": 38.1160714285714,
      "Female Crim": 0.0,
      "Female Non-Crim": 0.0,
      "ICE Threat Level 1": 0.383928571428571,
      "ICE Threat Level 2": 0.642857142857143,
      "ICE Threat Level 3": 1.5297619047619,
      "No ICE Threat Level": 47.5267857142857,
      "latitude": 31.5287835,
      "longitude": -96.512347
    },
    {
      "Name": "LINCOLN COUNTY JAIL",
      "Address": "3020 N JEFFERS",
      "City": "NORTH PLATTE",
      "State": "NE",
      "Zip": "69101",
      "Male Crim": 6.25595238095238,
      "Male Non-Crim": 5.4077380952381,
      "Female Crim": 0.398809523809524,
      "Female Non-Crim": 5.47619047619047,
      "ICE Threat Level 1": 1.20535714285714,
      "ICE Threat Level 2": 0.87202380952381,
      "ICE Threat Level 3": 1.02380952380952,
      "No ICE Threat Level": 14.4375,
      "latitude": 41.1065398,
      "longitude": -100.7640382
    },
    {
      "Name": "LINN COUNTY JAIL",
      "Address": "53 3RD AVENUE BRIDGE",
      "City": "CEDAR RAPIDS",
      "State": "IA",
      "Zip": "52401",
      "Male Crim": 4.86607142857143,
      "Male Non-Crim": 3.3125,
      "Female Crim": 0.178571428571429,
      "Female Non-Crim": 0.413690476190476,
      "ICE Threat Level 1": 0.830357142857143,
      "ICE Threat Level 2": 0.68452380952381,
      "ICE Threat Level 3": 1.44642857142857,
      "No ICE Threat Level": 5.80952380952381,
      "latitude": 41.9746012,
      "longitude": -91.6692502
    },
    {
      "Name": "LOGAN COUNTY JAIL",
      "Address": "216 S BROAD ST",
      "City": "GUTHRIE",
      "State": "OK",
      "Zip": "73044",
      "Male Crim": 0.663690476190476,
      "Male Non-Crim": 1.58928571428571,
      "Female Crim": 0.0476190476190476,
      "Female Non-Crim": 0.163690476190476,
      "ICE Threat Level 1": 0.0178571428571429,
      "ICE Threat Level 2": 0.0119047619047619,
      "ICE Threat Level 3": 0.0148809523809524,
      "No ICE Threat Level": 2.41964285714286,
      "latitude": 35.8763635,
      "longitude": -97.4223562
    },
    {
      "Name": "LAREDO PROCESSING CENTER",
      "Address": "4702 EAST SAUNDERS STREET",
      "City": "LAREDO",
      "State": "TX",
      "Zip": "78041",
      "Male Crim": 0.625,
      "Male Non-Crim": 4.31547619047619,
      "Female Crim": 26.4047619047619,
      "Female Non-Crim": 336.178571428572,
      "ICE Threat Level 1": 6.05357142857143,
      "ICE Threat Level 2": 5.58630952380952,
      "ICE Threat Level 3": 12.2440476190476,
      "No ICE Threat Level": 343.639880952382,
      "latitude": 27.5294764,
      "longitude": -99.4477731
    },
    {
      "Name": "LA SALLE COUNTY REGIONAL DETENTION CENTER",
      "Address": "832 EAST TEXAS STATE HIGHWAY 44",
      "City": "ENCINAL",
      "State": "TX",
      "Zip": "78019",
      "Male Crim": 9.4375,
      "Male Non-Crim": 83.5059523809524,
      "Female Crim": 0.392857142857143,
      "Female Non-Crim": 2.39880952380952,
      "ICE Threat Level 1": 0.18452380952381,
      "ICE Threat Level 2": 0.363095238095238,
      "ICE Threat Level 3": 0.994047619047619,
      "No ICE Threat Level": 94.1934523809523,
      "latitude": 28.045392301310212,
      "longitude": -99.33614721779425
    },
    {
      "Name": "MADISON COUNTY JAIL",
      "Address": "2935 HIGHWAY 51",
      "City": "CANTON",
      "State": "MS",
      "Zip": "39046",
      "Male Crim": 2.40476190476191,
      "Male Non-Crim": 4.8005952380953,
      "Female Crim": 0.056547619047619,
      "Female Non-Crim": 0.520833333333333,
      "ICE Threat Level 1": 0.247023809523809,
      "ICE Threat Level 2": 0.0654761904761905,
      "ICE Threat Level 3": 0.0416666666666667,
      "No ICE Threat Level": 7.42857142857155,
      "latitude": 32.58677735093389,
      "longitude": -90.04526320050026
    },
    {
      "Name": "MAHONING COUNTY JAIL",
      "Address": "110 FIFTH AVENUE",
      "City": "YOUNGSTOWN",
      "State": "OH",
      "Zip": "44503",
      "Male Crim": 5.89285714285715,
      "Male Non-Crim": 25.8422619047619,
      "Female Crim": 1.13392857142857,
      "Female Non-Crim": 8.45238095238096,
      "ICE Threat Level 1": 1.51190476190476,
      "ICE Threat Level 2": 1.67261904761905,
      "ICE Threat Level 3": 0.922619047619048,
      "No ICE Threat Level": 37.2142857142856,
      "latitude": 41.103708,
      "longitude": -80.6545051
    },
    {
      "Name": "MARION COUNTY JAIL",
      "Address": "695 JUSTICE WAY",
      "City": "INDIANAPOLIS",
      "State": "IN",
      "Zip": "46203",
      "Male Crim": 23.6041666666667,
      "Male Non-Crim": 28.0654761904762,
      "Female Crim": 0.318452380952381,
      "Female Non-Crim": 0.235119047619048,
      "ICE Threat Level 1": 3.38988095238095,
      "ICE Threat Level 2": 2.13095238095238,
      "ICE Threat Level 3": 2.04761904761905,
      "No ICE Threat Level": 44.6547619047619,
      "latitude": 39.7550409,
      "longitude": -86.1144189
    },
    {
      "Name": "MILLER COUNTY JAIL",
      "Address": "2300 EAST STREET",
      "City": "TEXARKANA",
      "State": "AR",
      "Zip": "71854",
      "Male Crim": 0.985119047619046,
      "Male Non-Crim": 0.88392857142857,
      "Female Crim": 0.0148809523809524,
      "Female Non-Crim": 0.0625,
      "ICE Threat Level 1": 0.0238095238095238,
      "ICE Threat Level 2": 0.00595238095238095,
      "ICE Threat Level 3": 0.0416666666666667,
      "No ICE Threat Level": 1.875,
      "latitude": 33.401201,
      "longitude": -94.0225542
    },
    {
      "Name": "MINNEHAHA COUNTY JAIL",
      "Address": "500 NORTH MINNESOTA AVENUE",
      "City": "SIOUX FALLS",
      "State": "SD",
      "Zip": "57104",
      "Male Crim": 0.482142857142857,
      "Male Non-Crim": 1.50297619047619,
      "Female Crim": 0.0,
      "Female Non-Crim": 0.12202380952381,
      "ICE Threat Level 1": 0.0,
      "ICE Threat Level 2": 0.0,
      "ICE Threat Level 3": 0.00595238095238095,
      "No ICE Threat Level": 2.10119047619047,
      "latitude": 43.5524104,
      "longitude": -96.731237
    },
    {
      "Name": "MONROE COUNTY DETENTION-DORM",
      "Address": "7000 EAST DUNBAR ROAD",
      "City": "MONROE",
      "State": "MI",
      "Zip": "48161",
      "Male Crim": 16.047619047619,
      "Male Non-Crim": 90.7678571428571,
      "Female Crim": 0.0,
      "Female Non-Crim": 0.229166666666667,
      "ICE Threat Level 1": 2.32142857142857,
      "ICE Threat Level 2": 2.4672619047619,
      "ICE Threat Level 3": 5.47619047619048,
      "No ICE Threat Level": 96.7797619047619,
      "latitude": 41.89347,
      "longitude": -83.396328
    },
    {
      "Name": "MONTGOMERY COUNTY JAIL",
      "Address": "PARK STREET",
      "City": "FONDA",
      "State": "NY",
      "Zip": "12068",
      "Male Crim": 0.30952380952381,
      "Male Non-Crim": 1.14285714285714,
      "Female Crim": 0.0,
      "Female Non-Crim": 0.0684523809523809,
      "ICE Threat Level 1": 0.00595238095238095,
      "ICE Threat Level 2": 0.0119047619047619,
      "ICE Threat Level 3": 0.0297619047619048,
      "No ICE Threat Level": 1.47321428571428,
      "latitude": 42.9531059,
      "longitude": -74.3729461
    },
    {
      "Name": "SAIPAN DEPARTMENT OF CORRECTIONS (SUSUPE)",
      "Address": "VICENTE T. SEMAN BLDG, CIVIC CENTER",
      "City": "SAIPAN",
      "State": "MP",
      "Zip": "96950",
      "Male Crim": 3.61309523809524,
      "Male Non-Crim": 3.94642857142857,
      "Female Crim": 0.12797619047619,
      "Female Non-Crim": 0.895833333333333,
      "ICE Threat Level 1": 2.52678571428571,
      "ICE Threat Level 2": 0.735119047619048,
      "ICE Threat Level 3": 0.0,
      "No ICE Threat Level": 5.32142857142857,
      "latitude": 15.158907917922077,
      "longitude": 145.70544921267373
    },
    {
      "Name": "MOSHANNON VALLEY PROCESSING CENTER",
      "Address": "555 GEO DRIVE",
      "City": "PHILIPSBURG",
      "State": "PA",
      "Zip": "16866",
      "Male Crim": 696.252976190479,
      "Male Non-Crim": 650.223214285716,
      "Female Crim": 25.4940476190476,
      "Female Non-Crim": 23.1279761904762,
      "ICE Threat Level 1": 187.080357142857,
      "ICE Threat Level 2": 63.6279761904762,
      "ICE Threat Level 3": 74.3363095238095,
      "No ICE Threat Level": 1070.05357142857,
      "latitude": 40.921386200722395,
      "longitude": -78.24213641561506
    },
    {
      "Name": "MONTGOMERY ICE PROCESSING CENTER",
      "Address": "806 HILBIG RD",
      "City": "CONROE",
      "State": "TX",
      "Zip": "77301",
      "Male Crim": 604.202380952396,
      "Male Non-Crim": 496.145833333346,
      "Female Crim": 44.3363095238095,
      "Female Non-Crim": 73.4047619047616,
      "ICE Threat Level 1": 203.270833333333,
      "ICE Threat Level 2": 134.907738095238,
      "ICE Threat Level 3": 155.910714285714,
      "No ICE Threat Level": 724.000000000026,
      "latitude": 30.3368088,
      "longitude": -95.4431046
    },
    {
      "Name": "MUSCATINE COUNTY JAIL",
      "Address": "400 WALNUT STREET",
      "City": "MUSCATINE",
      "State": "IA",
      "Zip": "52761",
      "Male Crim": 5.57440476190476,
      "Male Non-Crim": 4.30654761904762,
      "Female Crim": 0.214285714285714,
      "Female Non-Crim": 1.2172619047619,
      "ICE Threat Level 1": 1.66369047619048,
      "ICE Threat Level 2": 0.601190476190476,
      "ICE Threat Level 3": 0.514880952380952,
      "No ICE Threat Level": 8.53273809523809,
      "latitude": 41.4243549,
      "longitude": -91.0446662
    },
    {
      "Name": "NASSAU COUNTY CORRECTIONAL CENTER",
      "Address": "100 CARMAN AVENUE",
      "City": "EAST MEADOW",
      "State": "NY",
      "Zip": "11554",
      "Male Crim": 3.30952380952383,
      "Male Non-Crim": 9.4583333333334,
      "Female Crim": 0.0178571428571429,
      "Female Non-Crim": 0.00892857142857143,
      "ICE Threat Level 1": 0.0297619047619048,
      "ICE Threat Level 2": 0.0208333333333333,
      "ICE Threat Level 3": 0.0297619047619048,
      "No ICE Threat Level": 12.7142857142857,
      "latitude": 40.727807,
      "longitude": -73.5561653
    },
    {
      "Name": "NATRONA COUNTY JAIL",
      "Address": "1100 BRUCE LANE",
      "City": "CASPER",
      "State": "WY",
      "Zip": "82601",
      "Male Crim": 1.69642857142857,
      "Male Non-Crim": 4.30654761904763,
      "Female Crim": 0.339285714285714,
      "Female Non-Crim": 0.18452380952381,
      "ICE Threat Level 1": 0.547619047619048,
      "ICE Threat Level 2": 0.410714285714286,
      "ICE Threat Level 3": 0.136904761904762,
      "No ICE Threat Level": 5.43154761904763,
      "latitude": 42.862486,
      "longitude": -106.344705
    },
    {
      "Name": "NIAGARA COUNTY JAIL",
      "Address": "5526 NIAGARA STREET EXTENTION",
      "City": "LOCKPORT",
      "State": "NY",
      "Zip": "14094",
      "Male Crim": 0.0,
      "Male Non-Crim": 0.0267857142857143,
      "Female Crim": 0.0744047619047619,
      "Female Non-Crim": 2.38988095238095,
      "ICE Threat Level 1": 0.0,
      "ICE Threat Level 2": 0.0119047619047619,
      "ICE Threat Level 3": 0.0,
      "No ICE Threat Level": 2.47916666666667,
      "latitude": 43.18023,
      "longitude": -78.73694
    },
    {
      "Name": "NORTH LAKE CORRECTIONAL F",
      "Address": "1805 W 32ND ST",
      "City": "BALDWIN",
      "State": "MI",
      "Zip": "49304",
      "Male Crim": 15.3571428571429,
      "Male Non-Crim": 77.1994047619046,
      "Female Crim": 0.133928571428571,
      "Female Non-Crim": 0.068452380952381,
      "ICE Threat Level 1": 3.64880952380953,
      "ICE Threat Level 2": 2.10714285714286,
      "ICE Threat Level 3": 4.35416666666667,
      "No ICE Threat Level": 82.6488095238094,
      "latitude": 43.926459,
      "longitude": -85.836552
    },
    {
      "Name": "NEVADA SOUTHERN DETENTION CENTER",
      "Address": "2190 EAST MESQUITE AVENUE",
      "City": "PAHRUMP",
      "State": "NV",
      "Zip": "89060",
      "Male Crim": 216.809523809525,
      "Male Non-Crim": 143.181547619048,
      "Female Crim": 0.303571428571429,
      "Female Non-Crim": 0.255952380952381,
      "ICE Threat Level 1": 50.7232142857142,
      "ICE Threat Level 2": 24.6279761904762,
      "ICE Threat Level 3": 28.8869047619048,
      "No ICE Threat Level": 256.312500000003,
      "latitude": 36.2520145,
      "longitude": -115.9770311
    },
    {
      "Name": "NEW HANOVER COUNTY JAIL",
      "Address": "3950 JUVENILE RD",
      "City": "CASTLE HAYNE",
      "State": "NC",
      "Zip": "28429",
      "Male Crim": 1.05357142857143,
      "Male Non-Crim": 0.830357142857142,
      "Female Crim": 0.00892857142857143,
      "Female Non-Crim": 0.0208333333333333,
      "ICE Threat Level 1": 0.00297619047619048,
      "ICE Threat Level 2": 0.0178571428571429,
      "ICE Threat Level 3": 0.00892857142857143,
      "No ICE Threat Level": 1.88392857142857,
      "latitude": 34.325340041511325,
      "longitude": -77.89457245997536
    },
    {
      "Name": "NORTHWEST REGIONAL CORRECTIONS CENTER",
      "Address": "816 MARIN AVE., SUITE 110",
      "City": "CROOKSTON",
      "State": "MN",
      "Zip": "56716",
      "Male Crim": 0.607142857142857,
      "Male Non-Crim": 2.45535714285714,
      "Female Crim": 0.0892857142857143,
      "Female Non-Crim": 0.547619047619048,
      "ICE Threat Level 1": 0.0863095238095238,
      "ICE Threat Level 2": 0.0505952380952381,
      "ICE Threat Level 3": 0.0505952380952381,
      "No ICE Threat Level": 3.51190476190476,
      "latitude": 47.76885,
      "longitude": -96.62851
    },
    {
      "Name": "CORR. CTR OF NORTHWEST OHIO",
      "Address": "3151 ROAD 24.25, ROUTE 1",
      "City": "STRYKER",
      "State": "OH",
      "Zip": "43557",
      "Male Crim": 7.23214285714286,
      "Male Non-Crim": 17.2619047619048,
      "Female Crim": 1.30654761904762,
      "Female Non-Crim": 10.672619047619,
      "ICE Threat Level 1": 2.5327380952381,
      "ICE Threat Level 2": 0.979166666666667,
      "ICE Threat Level 3": 0.979166666666667,
      "No ICE Threat Level": 31.9821428571428,
      "latitude": 41.46614644488944,
      "longitude": -84.35637935792789
    },
    {
      "Name": "CIMMARRON CORR FACILITY",
      "Address": "3700 S. KINGS HWY",
      "City": "CUSHING",
      "State": "OK",
      "Zip": "74023",
      "Male Crim": 44.8839285714285,
      "Male Non-Crim": 103.401785714285,
      "Female Crim": 0.0,
      "Female Non-Crim": 0.125,
      "ICE Threat Level 1": 8.41964285714286,
      "ICE Threat Level 2": 2.5922619047619,
      "ICE Threat Level 3": 4.125,
      "No ICE Threat Level": 133.273809523809,
      "latitude": 35.961173,
      "longitude": -96.7848408
    },
    {
      "Name": "OLDHAM COUNTY DETENTION CENTER",
      "Address": "3405 W HWY 146",
      "City": "LA GRANGE",
      "State": "KY",
      "Zip": "40031",
      "Male Crim": 29.7648809523809,
      "Male Non-Crim": 24.5267857142857,
      "Female Crim": 0.116071428571429,
      "Female Non-Crim": 1.47916666666667,
      "ICE Threat Level 1": 5.08630952380953,
      "ICE Threat Level 2": 3.70833333333333,
      "ICE Threat Level 3": 3.80952380952381,
      "No ICE Threat Level": 43.282738095238,
      "latitude": 38.389361,
      "longitude": -85.423255
    },
    {
      "Name": "ORANGE COUNTY JAIL (FL)",
      "Address": "3855 SOUTH JOHN YOUNG PARKWAY",
      "City": "ORLANDO",
      "State": "FL",
      "Zip": "32839",
      "Male Crim": 5.72023809523814,
      "Male Non-Crim": 11.9047619047619,
      "Female Crim": 0.75297619047619,
      "Female Non-Crim": 2.18154761904762,
      "ICE Threat Level 1": 0.151785714285714,
      "ICE Threat Level 2": 0.0476190476190476,
      "ICE Threat Level 3": 0.0952380952380952,
      "No ICE Threat Level": 20.2648809523812,
      "latitude": 28.50402318562143,
      "longitude": -81.41636787360717
    },
    {
      "Name": "ORANGE COUNTY JAIL (NY)",
      "Address": "110 WELLS FARM ROAD",
      "City": "GOSHEN",
      "State": "NY",
      "Zip": "10924",
      "Male Crim": 77.547619047619,
      "Male Non-Crim": 48.4464285714285,
      "Female Crim": 0.0,
      "Female Non-Crim": 0.0,
      "ICE Threat Level 1": 13.9285714285714,
      "ICE Threat Level 2": 14.2172619047619,
      "ICE Threat Level 3": 9.01190476190476,
      "No ICE Threat Level": 88.8363095238094,
      "latitude": 41.4042394,
      "longitude": -74.3606249
    },
    {
      "Name": "OTERO COUNTY PROCESSING CENTER",
      "Address": "26 MCGREGOR RANGE ROAD",
      "City": "CHAPARRAL",
      "State": "NM",
      "Zip": "88081",
      "Male Crim": 179.452380952381,
      "Male Non-Crim": 537.095238095239,
      "Female Crim": 11.9464285714286,
      "Female Non-Crim": 148.181547619046,
      "ICE Threat Level 1": 25.8303571428571,
      "ICE Threat Level 2": 25.5416666666667,
      "ICE Threat Level 3": 45.8720238095238,
      "No ICE Threat Level": 779.431547619056,
      "latitude": 32.0786798,
      "longitude": -106.2779169
    },
    {
      "Name": "OZARK COUNTY SHERIFF'S OFFICE",
      "Address": "1818 COUNTY ROAD 806",
      "City": "GAINESVILLE",
      "State": "MO",
      "Zip": "65655",
      "Male Crim": 2.39583333333334,
      "Male Non-Crim": 2.15476190476191,
      "Female Crim": 0.0119047619047619,
      "Female Non-Crim": 0.00595238095238095,
      "ICE Threat Level 1": 0.324404761904762,
      "ICE Threat Level 2": 0.538690476190476,
      "ICE Threat Level 3": 0.574404761904762,
      "No ICE Threat Level": 3.13095238095242,
      "latitude": 36.6014034,
      "longitude": -92.4516834
    },
    {
      "Name": "PICKENS COUNTY DET CTR",
      "Address": "188 CEMETERY ST",
      "City": "CARROLLTON",
      "State": "AL",
      "Zip": "35447",
      "Male Crim": 13.7470238095239,
      "Male Non-Crim": 20.1488095238097,
      "Female Crim": 2.48511904761905,
      "Female Non-Crim": 2.24404761904762,
      "ICE Threat Level 1": 0.449404761904762,
      "ICE Threat Level 2": 0.797619047619047,
      "ICE Threat Level 3": 0.681547619047619,
      "No ICE Threat Level": 36.6964285714281,
      "latitude": 33.2603007,
      "longitude": -88.0959216
    },
    {
      "Name": "PENNINGTON COUNTY JAIL (SOUTH DAKOTA)",
      "Address": "300 KANSAS CITY STREET NONE",
      "City": "RAPID CITY",
      "State": "SD",
      "Zip": "57701",
      "Male Crim": 0.845238095238095,
      "Male Non-Crim": 1.70535714285714,
      "Female Crim": 0.0,
      "Female Non-Crim": 0.0267857142857143,
      "ICE Threat Level 1": 0.0654761904761905,
      "ICE Threat Level 2": 0.0952380952380952,
      "ICE Threat Level 3": 0.0238095238095238,
      "No ICE Threat Level": 2.39285714285714,
      "latitude": 44.07844295797259,
      "longitude": -103.22212620387216
    },
    {
      "Name": "PHELPS COUNTY JAIL (MO)",
      "Address": "301 W. 2ND",
      "City": "ROLLA",
      "State": "MO",
      "Zip": "65401",
      "Male Crim": 6.99107142857143,
      "Male Non-Crim": 13.1785714285714,
      "Female Crim": 0.43452380952381,
      "Female Non-Crim": 1.89880952380952,
      "ICE Threat Level 1": 0.139880952380952,
      "ICE Threat Level 2": 0.517857142857143,
      "ICE Threat Level 3": 1.10416666666667,
      "No ICE Threat Level": 20.7410714285714,
      "latitude": 37.9454138,
      "longitude": -91.7739843
    },
    {
      "Name": "PHELPS COUNTY JAIL (NE)",
      "Address": "715 5TH AVENUE",
      "City": "HOLDREGE",
      "State": "NE",
      "Zip": "68949",
      "Male Crim": 23.4791666666667,
      "Male Non-Crim": 6.00297619047619,
      "Female Crim": 1.27678571428571,
      "Female Non-Crim": 0.342261904761905,
      "ICE Threat Level 1": 2.05952380952381,
      "ICE Threat Level 2": 2.0327380952381,
      "ICE Threat Level 3": 1.22916666666667,
      "No ICE Threat Level": 25.7797619047619,
      "latitude": 40.4390467,
      "longitude": -99.3704014
    },
    {
      "Name": "PORT ISABEL SPC",
      "Address": "27991 BUENA VISTA BOULEVARD",
      "City": "LOS FRESNOS",
      "State": "TX",
      "Zip": "78566",
      "Male Crim": 175.255952380955,
      "Male Non-Crim": 908.34226190475,
      "Female Crim": 0.788690476190475,
      "Female Non-Crim": 2.39880952380952,
      "ICE Threat Level 1": 32.7232142857141,
      "ICE Threat Level 2": 39.7678571428569,
      "ICE Threat Level 3": 73.6845238095231,
      "No ICE Threat Level": 940.610119047607,
      "latitude": 26.1563622,
      "longitude": -97.337839
    },
    {
      "Name": "PIKE COUNTY JAIL",
      "Address": "175 PIKE COUNTY BOULEVARD",
      "City": "LORDS VALLEY",
      "State": "PA",
      "Zip": "18428",
      "Male Crim": 74.3779761904762,
      "Male Non-Crim": 116.529761904762,
      "Female Crim": 0.0,
      "Female Non-Crim": 0.0446428571428571,
      "ICE Threat Level 1": 13.7470238095238,
      "ICE Threat Level 2": 8.33035714285714,
      "ICE Threat Level 3": 10.8541666666667,
      "No ICE Threat Level": 158.020833333334,
      "latitude": 41.3892641952419,
      "longitude": -75.071309115601
    },
    {
      "Name": "PINELLAS COUNTY JAIL",
      "Address": "14400 49TH STREET NORTH",
      "City": "CLEARWATER",
      "State": "FL",
      "Zip": "33762",
      "Male Crim": 5.58630952380962,
      "Male Non-Crim": 8.64285714285733,
      "Female Crim": 0.273809523809524,
      "Female Non-Crim": 0.901785714285713,
      "ICE Threat Level 1": 0.0208333333333333,
      "ICE Threat Level 2": 0.0297619047619048,
      "ICE Threat Level 3": 0.0416666666666667,
      "No ICE Threat Level": 15.3124999999998,
      "latitude": 27.903511036240065,
      "longitude": -82.70346139830698
    },
    {
      "Name": "PINE PRAIRIE ICE PROCESSING CENTER",
      "Address": "1133 HAMPTON DUPRE ROAD",
      "City": "PINE PRAIRIE",
      "State": "LA",
      "Zip": "70576",
      "Male Crim": 289.997023809532,
      "Male Non-Crim": 491.803571428599,
      "Female Crim": 0.25297619047619,
      "Female Non-Crim": 1.23809523809524,
      "ICE Threat Level 1": 54.5952380952378,
      "ICE Threat Level 2": 33.3571428571428,
      "ICE Threat Level 3": 36.9940476190475,
      "No ICE Threat Level": 658.345238095278,
      "latitude": 30.7884208,
      "longitude": -92.4227559
    },
    {
      "Name": "PLATTE COUNTY JAIL",
      "Address": "850 MAPLE STREET",
      "City": "WHEATLAND",
      "State": "WY",
      "Zip": "82201",
      "Male Crim": 0.925595238095236,
      "Male Non-Crim": 1.03869047619047,
      "Female Crim": 0.0238095238095238,
      "Female Non-Crim": 0.0595238095238095,
      "ICE Threat Level 1": 0.107142857142857,
      "ICE Threat Level 2": 0.0357142857142857,
      "ICE Threat Level 3": 0.0327380952380952,
      "No ICE Threat Level": 1.8720238095238,
      "latitude": 42.0555979,
      "longitude": -104.9522457
    },
    {
      "Name": "PLYMOUTH COUNTY CORRECTIONAL FACILITY",
      "Address": "26 LONG POND ROAD",
      "City": "PLYMOUTH",
      "State": "MA",
      "Zip": "02360",
      "Male Crim": 146.136904761905,
      "Male Non-Crim": 300.738095238096,
      "Female Crim": 0.345238095238095,
      "Female Non-Crim": 1.01488095238095,
      "ICE Threat Level 1": 33.0833333333333,
      "ICE Threat Level 2": 12.9970238095238,
      "ICE Threat Level 3": 11.7678571428571,
      "No ICE Threat Level": 390.386904761907,
      "latitude": 41.9318079,
      "longitude": -70.6512992
    },
    {
      "Name": "IAH SECURE ADULT DETENTION FACILITY (POLK)",
      "Address": "3400 FM 350 SOUTH",
      "City": "LIVINGSTON",
      "State": "TX",
      "Zip": "77351",
      "Male Crim": 146.241071428572,
      "Male Non-Crim": 674.568452380954,
      "Female Crim": 0.0,
      "Female Non-Crim": 0.324404761904762,
      "ICE Threat Level 1": 39.7827380952381,
      "ICE Threat Level 2": 32.3720238095238,
      "ICE Threat Level 3": 56.610119047619,
      "No ICE Threat Level": 692.369047619049,
      "latitude": 30.6981513,
      "longitude": -95.0057915
    },
    {
      "Name": "POLK COUNTY JAIL",
      "Address": "1985 NE 51ST PLACE",
      "City": "DES MOINES",
      "State": "IA",
      "Zip": "50313",
      "Male Crim": 31.0863095238096,
      "Male Non-Crim": 11.0744047619048,
      "Female Crim": 0.485119047619048,
      "Female Non-Crim": 0.598214285714286,
      "ICE Threat Level 1": 2.63392857142857,
      "ICE Threat Level 2": 1.75892857142857,
      "ICE Threat Level 3": 1.7827380952381,
      "No ICE Threat Level": 37.0684523809524,
      "latitude": 41.6534505,
      "longitude": -93.5877727
    },
    {
      "Name": "POTTAWATTAMIE COUNTY JAIL",
      "Address": "1400 BIG LAKE ROAD",
      "City": "COUNCIL BLUFFS",
      "State": "IA",
      "Zip": "51501",
      "Male Crim": 29.5744047619048,
      "Male Non-Crim": 5.49107142857143,
      "Female Crim": 0.87797619047619,
      "Female Non-Crim": 0.895833333333333,
      "ICE Threat Level 1": 7.24107142857143,
      "ICE Threat Level 2": 1.65773809523809,
      "ICE Threat Level 3": 1.35714285714286,
      "No ICE Threat Level": 26.5833333333334,
      "latitude": 41.284196,
      "longitude": -95.864127
    },
    {
      "Name": "PRAIRIELAND DETENTION CENTER",
      "Address": "1209 SUNFLOWER LN",
      "City": "ALVARADO",
      "State": "TX",
      "Zip": "76009",
      "Male Crim": 280.982142857147,
      "Male Non-Crim": 467.666666666683,
      "Female Crim": 26.6577380952381,
      "Female Non-Crim": 48.5565476190474,
      "ICE Threat Level 1": 72.3214285714283,
      "ICE Threat Level 2": 45.1696428571427,
      "ICE Threat Level 3": 37.6904761904761,
      "No ICE Threat Level": 668.681547619059,
      "latitude": 32.4217035,
      "longitude": -97.1958971
    },
    {
      "Name": "PUTNAM COUNTY SHERIFF",
      "Address": "421 E SPRING ST.",
      "City": "COOKEVILLE",
      "State": "TN",
      "Zip": "38501",
      "Male Crim": 3.12202380952382,
      "Male Non-Crim": 2.58333333333333,
      "Female Crim": 0.0267857142857143,
      "Female Non-Crim": 0.00297619047619048,
      "ICE Threat Level 1": 0.0238095238095238,
      "ICE Threat Level 2": 0.0238095238095238,
      "ICE Threat Level 3": 0.0148809523809524,
      "No ICE Threat Level": 5.6726190476191,
      "latitude": 36.1617449,
      "longitude": -85.4983817
    },
    {
      "Name": "ROBERT A DEYTON DETENTION FACILITY",
      "Address": "11866 HASTINGS BRIDGE ROAD P.O. BOX 429",
      "City": "LOVEJOY",
      "State": "GA",
      "Zip": "30250",
      "Male Crim": 3.56250000000001,
      "Male Non-Crim": 3.13095238095239,
      "Female Crim": 0.0119047619047619,
      "Female Non-Crim": 0.0,
      "ICE Threat Level 1": 0.0297619047619048,
      "ICE Threat Level 2": 0.0416666666666667,
      "ICE Threat Level 3": 0.0,
      "No ICE Threat Level": 6.63392857142865,
      "latitude": null,
      "longitude": null
    },
    {
      "Name": "RIO GRANDE DETENTION CENTER",
      "Address": "1001 SAN RIO BOULEVARD",
      "City": "LAREDO",
      "State": "TX",
      "Zip": "78046",
      "Male Crim": 49.2886904761905,
      "Male Non-Crim": 581.41071428571,
      "Female Crim": 0.25297619047619,
      "Female Non-Crim": 0.255952380952381,
      "ICE Threat Level 1": 3.68452380952381,
      "ICE Threat Level 2": 11.1547619047619,
      "ICE Threat Level 3": 30.8988095238095,
      "No ICE Threat Level": 585.470238095234,
      "latitude": 27.379978,
      "longitude": -99.486229
    },
    {
      "Name": "RIVERSIDE REGIONAL JAIL",
      "Address": "1000 RIVER ROAD",
      "City": "HOPEWELL",
      "State": "VA",
      "Zip": "23860",
      "Male Crim": 0.479166666666667,
      "Male Non-Crim": 2.52976190476191,
      "Female Crim": 0.0327380952380952,
      "Female Non-Crim": 0.0446428571428571,
      "ICE Threat Level 1": 0.0238095238095238,
      "ICE Threat Level 2": 0.0,
      "ICE Threat Level 3": 0.0416666666666667,
      "No ICE Threat Level": 3.02083333333334,
      "latitude": 37.2950331,
      "longitude": -77.321649
    },
    {
      "Name": "RIVER CORRECTIONAL CENTER",
      "Address": "26362 HIGHWAY 15",
      "City": "FERRIDAY",
      "State": "LA",
      "Zip": "71334",
      "Male Crim": 31.3541666666667,
      "Male Non-Crim": 524.080357142859,
      "Female Crim": 0.0,
      "Female Non-Crim": 0.610119047619048,
      "ICE Threat Level 1": 3.62202380952381,
      "ICE Threat Level 2": 5.78869047619048,
      "ICE Threat Level 3": 12.7410714285714,
      "No ICE Threat Level": 533.892857142859,
      "latitude": 31.597253400688896,
      "longitude": -91.55806052381577
    },
    {
      "Name": "RICHWOOD CORRECTIONAL CENTER",
      "Address": "180 PINE BAYOU CIRCLE",
      "City": "MONROE",
      "State": "LA",
      "Zip": "71202",
      "Male Crim": 65.7619047619047,
      "Male Non-Crim": 121.779761904762,
      "Female Crim": 25.1130952380953,
      "Female Non-Crim": 724.889880952384,
      "ICE Threat Level 1": 30.5744047619048,
      "ICE Threat Level 2": 15.8184523809524,
      "ICE Threat Level 3": 26.3541666666667,
      "No ICE Threat Level": 864.797619047621,
      "latitude": 32.45717553802827,
      "longitude": -92.079859671668
    },
    {
      "Name": "SARPY COUNTY JAIL",
      "Address": "1208 GOLDEN GATE DRIVE",
      "City": "PAPILLION",
      "State": "NE",
      "Zip": "68046",
      "Male Crim": 4.16071428571429,
      "Male Non-Crim": 0.217261904761905,
      "Female Crim": 0.154761904761905,
      "Female Non-Crim": 0.00892857142857143,
      "ICE Threat Level 1": 1.0952380952381,
      "ICE Threat Level 2": 1.08333333333333,
      "ICE Threat Level 3": 0.613095238095238,
      "No ICE Threat Level": 1.75,
      "latitude": 41.1434535,
      "longitude": -96.0419407
    },
    {
      "Name": "SAUK COUNTY SHERIFF",
      "Address": "1300 LANGE CT.",
      "City": "BARABOO",
      "State": "WI",
      "Zip": "53913",
      "Male Crim": 0.842261904761905,
      "Male Non-Crim": 1.06845238095238,
      "Female Crim": 0.0,
      "Female Non-Crim": 0.00595238095238095,
      "ICE Threat Level 1": 0.0,
      "ICE Threat Level 2": 0.136904761904762,
      "ICE Threat Level 3": 0.0267857142857143,
      "No ICE Threat Level": 1.75297619047619,
      "latitude": 43.4615055,
      "longitude": -89.7672991
    },
    {
      "Name": "SENECA COUNTY JAIL",
      "Address": "3040 SOUTH STATE HIGHWAY 100",
      "City": "TIFFIN",
      "State": "OH",
      "Zip": "44883",
      "Male Crim": 29.3869047619048,
      "Male Non-Crim": 26.2589285714286,
      "Female Crim": 1.90476190476191,
      "Female Non-Crim": 2.15178571428571,
      "ICE Threat Level 1": 6.57738095238095,
      "ICE Threat Level 2": 2.4077380952381,
      "ICE Threat Level 3": 3.83333333333333,
      "No ICE Threat Level": 46.8839285714286,
      "latitude": 41.079506331622774,
      "longitude": -83.15386397328119
    },
    {
      "Name": "SHERBURNE COUNTY JAIL",
      "Address": "13880 BUSINESS CENTER DRIVE",
      "City": "ELK RIVER",
      "State": "MN",
      "Zip": "55330",
      "Male Crim": 29.452380952381,
      "Male Non-Crim": 28.1904761904762,
      "Female Crim": 2.38392857142857,
      "Female Non-Crim": 1.30952380952381,
      "ICE Threat Level 1": 8.62202380952381,
      "ICE Threat Level 2": 3.61607142857143,
      "ICE Threat Level 3": 2.78571428571429,
      "No ICE Threat Level": 46.3125,
      "latitude": 45.3037535,
      "longitude": -93.6200234
    },
    {
      "Name": "SAN JUAN STAGING",
      "Address": "651 FEDERAL DRIVE, SUITE 104",
      "City": "GUAYNABO",
      "State": "PR",
      "Zip": "00965",
      "Male Crim": 3.46130952380953,
      "Male Non-Crim": 8.41071428571434,
      "Female Crim": 0.1875,
      "Female Non-Crim": 0.982142857142856,
      "ICE Threat Level 1": 0.0892857142857143,
      "ICE Threat Level 2": 0.0744047619047619,
      "ICE Threat Level 3": 0.0714285714285714,
      "No ICE Threat Level": 12.8065476190477,
      "latitude": 18.423606,
      "longitude": -66.113134
    },
    {
      "Name": "SAN LUIS REGIONAL DETENTION CENTER",
      "Address": "406 NORTH AVENUE D",
      "City": "SAN LUIS",
      "State": "AZ",
      "Zip": "85349",
      "Male Crim": 33.7113095238095,
      "Male Non-Crim": 144.699404761904,
      "Female Crim": 2.45833333333333,
      "Female Non-Crim": 41.5327380952381,
      "ICE Threat Level 1": 13.8095238095238,
      "ICE Threat Level 2": 3.2202380952381,
      "ICE Threat Level 3": 2.81845238095238,
      "No ICE Threat Level": 202.553571428571,
      "latitude": 32.483025880176186,
      "longitude": -114.68349442933823
    },
    {
      "Name": "SALT LAKE COUNTY METRO JAIL",
      "Address": "3415 SOUTH 900 WEST",
      "City": "SALT LAKE CITY",
      "State": "UT",
      "Zip": "84119",
      "Male Crim": 4.37500000000005,
      "Male Non-Crim": 2.32738095238095,
      "Female Crim": 0.264880952380952,
      "Female Non-Crim": 0.3125,
      "ICE Threat Level 1": 0.550595238095238,
      "ICE Threat Level 2": 0.223214285714286,
      "ICE Threat Level 3": 0.148809523809524,
      "No ICE Threat Level": 6.35714285714295,
      "latitude": 40.7259591,
      "longitude": -111.9169442
    },
    {
      "Name": "SOUTH TEXAS ICE PROCESSING CENTER",
      "Address": "566 VETERANS DRIVE",
      "City": "PEARSALL",
      "State": "TX",
      "Zip": "78061",
      "Male Crim": 447.375000000002,
      "Male Non-Crim": 1179.84523809523,
      "Female Crim": 32.7142857142857,
      "Female Non-Crim": 32.4107142857142,
      "ICE Threat Level 1": 108.547619047619,
      "ICE Threat Level 2": 89.202380952381,
      "ICE Threat Level 3": 213.059523809524,
      "No ICE Threat Level": 1281.5357142857,
      "latitude": 28.8946514,
      "longitude": -99.1219428
    },
    {
      "Name": "ST. CLAIR COUNTY JAIL",
      "Address": "1170 MICHIGAN ROAD",
      "City": "PORT HURON",
      "State": "MI",
      "Zip": "48060",
      "Male Crim": 20.2767857142857,
      "Male Non-Crim": 45.9613095238095,
      "Female Crim": 0.0,
      "Female Non-Crim": 0.0,
      "ICE Threat Level 1": 4.80059523809524,
      "ICE Threat Level 2": 3.5327380952381,
      "ICE Threat Level 3": 3.21130952380952,
      "No ICE Threat Level": 54.6934523809524,
      "latitude": 42.9426053,
      "longitude": -82.4799303
    },
    {
      "Name": "DILLEY IMMIGRATION PROCESSING CENTER",
      "Address": "300 EL RANCHO WAY",
      "City": "DILLEY",
      "State": "TX",
      "Zip": "78017",
      "Male Crim": 0.633928571428571,
      "Male Non-Crim": 67.0089285714284,
      "Female Crim": 0.422619047619048,
      "Female Non-Crim": 83.4851190476186,
      "ICE Threat Level 1": 0.0,
      "ICE Threat Level 2": 0.136904761904762,
      "ICE Threat Level 3": 0.413690476190476,
      "No ICE Threat Level": 151.0,
      "latitude": 28.658091009808814,
      "longitude": -99.20042911778089
    },
    {
      "Name": "STE. GENEVIEVE COUNTY SHERIFF/JAIL",
      "Address": "5 BASLER DR.",
      "City": "STE. GENEVIEVE",
      "State": "MO",
      "Zip": "63670",
      "Male Crim": 12.6666666666667,
      "Male Non-Crim": 21.3660714285714,
      "Female Crim": 0.49702380952381,
      "Female Non-Crim": 2.61904761904762,
      "ICE Threat Level 1": 0.80952380952381,
      "ICE Threat Level 2": 0.410714285714286,
      "ICE Threat Level 3": 1.73809523809524,
      "No ICE Threat Level": 34.1904761904762,
      "latitude": 37.965677,
      "longitude": -90.0551125
    },
    {
      "Name": "STRAFFORD COUNTY CORRECTIONS",
      "Address": "266 COUNTY FARM ROAD",
      "City": "DOVER",
      "State": "NH",
      "Zip": "03820",
      "Male Crim": 44.5684523809524,
      "Male Non-Crim": 51.8869047619048,
      "Female Crim": 5.57738095238095,
      "Female Non-Crim": 9.75,
      "ICE Threat Level 1": 9.44345238095238,
      "ICE Threat Level 2": 3.91071428571429,
      "ICE Threat Level 3": 4.64285714285714,
      "No ICE Threat Level": 93.7857142857142,
      "latitude": 43.2192302,
      "longitude": -70.9386083
    },
    {
      "Name": "STEWART DETENTION CENTER",
      "Address": "146 CCA ROAD",
      "City": "LUMPKIN",
      "State": "GA",
      "Zip": "31815",
      "Male Crim": 746.860119047621,
      "Male Non-Crim": 928.624999999999,
      "Female Crim": 50.6309523809524,
      "Female Non-Crim": 185.848214285714,
      "ICE Threat Level 1": 175.071428571429,
      "ICE Threat Level 2": 111.541666666667,
      "ICE Threat Level 3": 97.3720238095236,
      "No ICE Threat Level": 1527.97916666667,
      "latitude": 32.036729905551354,
      "longitude": -84.77148464340088
    },
    {
      "Name": "SWEETWATER COUNTY JAIL",
      "Address": "50140 UNITED STATES HIGHWAY 191 SOUTH",
      "City": "ROCK SPRINGS",
      "State": "WY",
      "Zip": "82935",
      "Male Crim": 2.74702380952381,
      "Male Non-Crim": 1.64583333333333,
      "Female Crim": 0.056547619047619,
      "Female Non-Crim": 0.113095238095238,
      "ICE Threat Level 1": 0.580357142857143,
      "ICE Threat Level 2": 0.0119047619047619,
      "ICE Threat Level 3": 0.392857142857143,
      "No ICE Threat Level": 3.57738095238096,
      "latitude": 41.5371934874891,
      "longitude": -109.30126553093841
    },
    {
      "Name": "TWO BRIDGES REGIONAL JAIL",
      "Address": "522 BATH RD",
      "City": "WISCASSET",
      "State": "ME",
      "Zip": "04578",
      "Male Crim": 4.86309523809524,
      "Male Non-Crim": 6.08035714285714,
      "Female Crim": 0.0,
      "Female Non-Crim": 0.0,
      "ICE Threat Level 1": 1.89285714285714,
      "ICE Threat Level 2": 0.31547619047619,
      "ICE Threat Level 3": 0.556547619047619,
      "No ICE Threat Level": 8.17857142857143,
      "latitude": 43.9781192,
      "longitude": -69.6989264
    },
    {
      "Name": "TURNER GUILFORD KNIGHT (TGK) JAIL",
      "Address": "7000 NW 41ST ST.",
      "City": "MIAMI",
      "State": "FL",
      "Zip": "33166",
      "Male Crim": 0.226190476190476,
      "Male Non-Crim": 1.10416666666666,
      "Female Crim": 0.0178571428571429,
      "Female Non-Crim": 0.107142857142857,
      "ICE Threat Level 1": 0.00595238095238095,
      "ICE Threat Level 2": 0.0,
      "ICE Threat Level 3": 0.0,
      "No ICE Threat Level": 1.44940476190476,
      "latitude": 25.8111329,
      "longitude": -80.3108541
    },
    {
      "Name": "TOOELE COUNTY JAIL",
      "Address": "47 SOUTH MAIN STREET",
      "City": "TOOELE",
      "State": "UT",
      "Zip": "84074",
      "Male Crim": 1.16071428571428,
      "Male Non-Crim": 1.16964285714285,
      "Female Crim": 0.113095238095238,
      "Female Non-Crim": 0.133928571428571,
      "ICE Threat Level 1": 0.0446428571428571,
      "ICE Threat Level 2": 0.0416666666666667,
      "ICE Threat Level 3": 0.00892857142857143,
      "No ICE Threat Level": 2.48214285714286,
      "latitude": 40.529621,
      "longitude": -112.297725
    },
    {
      "Name": "TORRANCE/ESTANCIA, NM",
      "Address": "209 COUNTY ROAD 49",
      "City": "ESTANCIA",
      "State": "NM",
      "Zip": "87016",
      "Male Crim": 67.2738095238093,
      "Male Non-Crim": 386.800595238095,
      "Female Crim": 0.0,
      "Female Non-Crim": 0.30952380952381,
      "ICE Threat Level 1": 3.20833333333333,
      "ICE Threat Level 2": 3.625,
      "ICE Threat Level 3": 19.5416666666667,
      "No ICE Threat Level": 428.008928571428,
      "latitude": 34.76832244015224,
      "longitude": -106.01873793112864
    },
    {
      "Name": "TULSA COUNTY JAIL (DAVID L. MOSS JUSTICE CTR)",
      "Address": "300 NORTH DENVER AVENUE",
      "City": "TULSA",
      "State": "OK",
      "Zip": "74103",
      "Male Crim": 18.2946428571429,
      "Male Non-Crim": 35.2142857142859,
      "Female Crim": 0.970238095238095,
      "Female Non-Crim": 3.4702380952381,
      "ICE Threat Level 1": 0.973214285714285,
      "ICE Threat Level 2": 0.904761904761905,
      "ICE Threat Level 3": 1.00297619047619,
      "No ICE Threat Level": 55.0684523809517,
      "latitude": 36.1572816,
      "longitude": -95.9990129
    },
    {
      "Name": "UINTA COUNTY JAIL",
      "Address": "77 COUNTY ROAD 109",
      "City": "EVANSTON",
      "State": "WY",
      "Zip": "82930",
      "Male Crim": 2.04761904761904,
      "Male Non-Crim": 2.12202380952381,
      "Female Crim": 0.0744047619047619,
      "Female Non-Crim": 0.136904761904762,
      "ICE Threat Level 1": 0.0208333333333333,
      "ICE Threat Level 2": 0.00595238095238095,
      "ICE Threat Level 3": 0.0148809523809524,
      "No ICE Threat Level": 4.33928571428573,
      "latitude": 41.269064,
      "longitude": -110.921015
    },
    {
      "Name": "VICTORIA COUNTY JAIL",
      "Address": "101 NORTH GLASS STREET",
      "City": "VICTORIA",
      "State": "TX",
      "Zip": "77901",
      "Male Crim": 0.12202380952381,
      "Male Non-Crim": 1.18154761904762,
      "Female Crim": 0.0,
      "Female Non-Crim": 0.0267857142857143,
      "ICE Threat Level 1": 0.0148809523809524,
      "ICE Threat Level 2": 0.0,
      "ICE Threat Level 3": 0.0327380952380952,
      "No ICE Threat Level": 1.2827380952381,
      "latitude": 28.8005407,
      "longitude": -97.0085472
    },
    {
      "Name": "CHITTENDEN REGIONAL CORRECTIONAL FACILITY",
      "Address": "7 FARRELL STREET",
      "City": "SOUTH BURLINGTON",
      "State": "VT",
      "Zip": "05403",
      "Male Crim": 0.0,
      "Male Non-Crim": 0.0535714285714286,
      "Female Crim": 0.267857142857143,
      "Female Non-Crim": 3.52083333333334,
      "ICE Threat Level 1": 0.0,
      "ICE Threat Level 2": 0.0,
      "ICE Threat Level 3": 0.00892857142857143,
      "No ICE Threat Level": 3.83333333333334,
      "latitude": 44.4464191,
      "longitude": -73.2054841
    },
    {
      "Name": "NORTHWEST STATE CORRECTIONAL CENTER",
      "Address": "3649 LOWER NEWTON ROAD",
      "City": "SWANTON",
      "State": "VT",
      "Zip": "05488",
      "Male Crim": 1.04761904761905,
      "Male Non-Crim": 8.20833333333336,
      "Female Crim": 0.0,
      "Female Non-Crim": 0.0238095238095238,
      "ICE Threat Level 1": 0.0327380952380952,
      "ICE Threat Level 2": 0.00297619047619048,
      "ICE Threat Level 3": 0.00595238095238095,
      "No ICE Threat Level": 9.23809523809527,
      "latitude": 44.850448,
      "longitude": -73.13328
    },
    {
      "Name": "WARD COUNTY JAIL",
      "Address": "P.O. BOX 907",
      "City": "MINOT",
      "State": "ND",
      "Zip": "58702",
      "Male Crim": 0.380952380952381,
      "Male Non-Crim": 0.604166666666667,
      "Female Crim": 0.0178571428571429,
      "Female Non-Crim": 0.0535714285714286,
      "ICE Threat Level 1": 0.00595238095238095,
      "ICE Threat Level 2": 0.0416666666666667,
      "ICE Threat Level 3": 0.0,
      "No ICE Threat Level": 1.00892857142857,
      "latitude": null,
      "longitude": null
    },
    {
      "Name": "WASHINGTON COUNTY JAIL (PURGATORY CORRECTIONAL FAC",
      "Address": "750 SOUTH 5300 WEST",
      "City": "HURRICANE",
      "State": "UT",
      "Zip": "84737",
      "Male Crim": 1.33333333333333,
      "Male Non-Crim": 1.36904761904762,
      "Female Crim": 0.0327380952380952,
      "Female Non-Crim": 0.110119047619048,
      "ICE Threat Level 1": 0.139880952380952,
      "ICE Threat Level 2": 0.104166666666667,
      "ICE Threat Level 3": 0.139880952380952,
      "No ICE Threat Level": 2.46130952380952,
      "latitude": 37.159618,
      "longitude": -113.4122002
    },
    {
      "Name": "WASHINGTON COUNTY DETENTION CENTER",
      "Address": "1155 WEST CLYDESDALE DRIVE",
      "City": "FAYETTEVILLE",
      "State": "AR",
      "Zip": "72701",
      "Male Crim": 1.66369047619047,
      "Male Non-Crim": 2.71130952380954,
      "Female Crim": 0.110119047619048,
      "Female Non-Crim": 0.205357142857143,
      "ICE Threat Level 1": 0.0327380952380952,
      "ICE Threat Level 2": 0.0178571428571429,
      "ICE Threat Level 3": 0.0178571428571429,
      "No ICE Threat Level": 4.62202380952389,
      "latitude": 36.0340715,
      "longitude": -94.175948
    },
    {
      "Name": "WASHOE COUNTY JAIL",
      "Address": "911 PARR BLVD 775 328 3308",
      "City": "RENO",
      "State": "NV",
      "Zip": "89506",
      "Male Crim": 10.2708333333333,
      "Male Non-Crim": 3.55952380952381,
      "Female Crim": 0.416666666666667,
      "Female Non-Crim": 0.398809523809524,
      "ICE Threat Level 1": 2.81845238095238,
      "ICE Threat Level 2": 0.470238095238095,
      "ICE Threat Level 3": 1.17261904761905,
      "No ICE Threat Level": 10.1845238095238,
      "latitude": 39.57445694817889,
      "longitude": -119.81272011554243
    },
    {
      "Name": "WAUKESHA COUNTY JAIL",
      "Address": "515 WEST MORELAND",
      "City": "WAUKESHA",
      "State": "WI",
      "Zip": "53186",
      "Male Crim": 0.839285714285713,
      "Male Non-Crim": 0.815476190476189,
      "Female Crim": 0.0505952380952381,
      "Female Non-Crim": 0.223214285714286,
      "ICE Threat Level 1": 0.0178571428571429,
      "ICE Threat Level 2": 0.00892857142857143,
      "ICE Threat Level 3": 0.0238095238095238,
      "No ICE Threat Level": 1.87797619047619,
      "latitude": 43.0236491,
      "longitude": -88.228229
    },
    {
      "Name": "BROWARD TRANSITIONAL CENTER",
      "Address": "3900 NORTH POWERLINE ROAD",
      "City": "POMPANO BEACH",
      "State": "FL",
      "Zip": "33073",
      "Male Crim": 111.97619047619,
      "Male Non-Crim": 439.610119047622,
      "Female Crim": 16.422619047619,
      "Female Non-Crim": 80.5119047619039,
      "ICE Threat Level 1": 9.46130952380953,
      "ICE Threat Level 2": 13.639880952381,
      "ICE Threat Level 3": 23.6369047619048,
      "No ICE Threat Level": 601.782738095256,
      "latitude": 26.2759099,
      "longitude": -80.15197
    },
    {
      "Name": "WEBB COUNTY DETENTION CENTER (CCA)",
      "Address": "9998 SOUTH HIGHWAY 83",
      "City": "LAREDO",
      "State": "TX",
      "Zip": "78041",
      "Male Crim": 56.6726190476191,
      "Male Non-Crim": 301.229166666666,
      "Female Crim": 5.19345238095238,
      "Female Non-Crim": 25.2291666666667,
      "ICE Threat Level 1": 21.2648809523809,
      "ICE Threat Level 2": 14.2559523809524,
      "ICE Threat Level 3": 20.1934523809524,
      "No ICE Threat Level": 332.610119047619,
      "latitude": 27.377731,
      "longitude": -99.471644
    },
    {
      "Name": "WALTON COUNTY JAIL",
      "Address": "40 SHERIFF CIR",
      "City": "DEFUNIAK SPRINGS",
      "State": "FL",
      "Zip": "32433",
      "Male Crim": 2.18452380952381,
      "Male Non-Crim": 5.52976190476199,
      "Female Crim": 0.0148809523809524,
      "Female Non-Crim": 0.0416666666666667,
      "ICE Threat Level 1": 0.0744047619047619,
      "ICE Threat Level 2": 0.056547619047619,
      "ICE Threat Level 3": 0.0892857142857143,
      "No ICE Threat Level": 7.55059523809537,
      "latitude": 30.78363619823702,
      "longitude": -86.1039227599523
    },
    {
      "Name": "WOODBURY COUNTY JAIL",
      "Address": "407 7TH STREET",
      "City": "SIOUX CITY",
      "State": "IA",
      "Zip": "51101",
      "Male Crim": 13.8244047619048,
      "Male Non-Crim": 11.1220238095238,
      "Female Crim": 0.464285714285714,
      "Female Non-Crim": 2.08630952380952,
      "ICE Threat Level 1": 2.95535714285714,
      "ICE Threat Level 2": 1.14880952380952,
      "ICE Threat Level 3": 2.34821428571429,
      "No ICE Threat Level": 21.0446428571429,
      "latitude": 42.4975021,
      "longitude": -96.4062738
    },
    {
      "Name": "NORTHERN REGIONAL JAIL",
      "Address": "RD. 2, BOX 1",
      "City": "MOUNDSVILLE",
      "State": "WV",
      "Zip": "26041",
      "Male Crim": 1.25,
      "Male Non-Crim": 5.12500000000001,
      "Female Crim": 0.0297619047619048,
      "Female Non-Crim": 0.19047619047619,
      "ICE Threat Level 1": 0.0297619047619048,
      "ICE Threat Level 2": 0.0892857142857143,
      "ICE Threat Level 3": 0.0119047619047619,
      "No ICE Threat Level": 6.46428571428573,
      "latitude": 39.92221,
      "longitude": -80.74378
    },
    {
      "Name": "SOUTH CENTRAL REGIONAL JAIL",
      "Address": "1001 CENTER WAY",
      "City": "CHARLESTON",
      "State": "WV",
      "Zip": "25309",
      "Male Crim": 4.75595238095238,
      "Male Non-Crim": 7.67857142857143,
      "Female Crim": 0.0148809523809524,
      "Female Non-Crim": 0.199404761904762,
      "ICE Threat Level 1": 0.107142857142857,
      "ICE Threat Level 2": 0.755952380952381,
      "ICE Threat Level 3": 0.770833333333333,
      "No ICE Threat Level": 11.014880952381,
      "latitude": 38.31113857008232,
      "longitude": -81.71099978870323
    },
    {
      "Name": "WYATT DETENTION CENTER",
      "Address": "950 HIGH STREET",
      "City": "CENTRAL FALLS",
      "State": "RI",
      "Zip": "02863",
      "Male Crim": 51.0982142857143,
      "Male Non-Crim": 57.0267857142857,
      "Female Crim": 1.99702380952381,
      "Female Non-Crim": 1.86904761904762,
      "ICE Threat Level 1": 9.76190476190476,
      "ICE Threat Level 2": 1.94940476190476,
      "ICE Threat Level 3": 1.19047619047619,
      "No ICE Threat Level": 99.0892857142856,
      "latitude": 41.8928106,
      "longitude": -71.3831998
    }
  ]
}