{
  "metadata": {
    "source_file": "data/FY25_detentionStats09252025.xlsx",
    "extraction_date": "2025-09-25",
    "last_checked_date": "2025-10-17T10:21:10.242209",
    "total_facilities": 189,
    "source_date": "2025-09-25"
  },
  "facilities": [
    {
      "Name": "ALAMANCE COUNTY DETENTION FACILITY",
      "Address": "109 SOUTH MAPLE STREET",
      "City": "GRAHAM",
      "State": "NC",
      "Zip": "27253",
      "Male Crim": 13.2120343839542,
      "Male Non-Crim": 10.2206303724929,
      "Female Crim": 0.160458452722063,
      "Female Non-Crim": 0.607449856733524,
      "ICE Threat Level 1": 0.532951289398281,
      "ICE Threat Level 2": 0.154727793696275,
      "ICE Threat Level 3": 0.120343839541547,
      "No ICE Threat Level": 23.392550143266,
      "latitude": 36.0684989,
      "longitude": -79.4030356
    },
    {
      "Name": "FCI ATLANTA",
      "Address": "601 MCDONOUGH BOULEVARD, SE",
      "City": "ATLANTA",
      "State": "GA",
      "Zip": "30315",
      "Male Crim": 31.756446991404,
      "Male Non-Crim": 56.375358166189,
      "Female Crim": 0.0229226361031519,
      "Female Non-Crim": 0.0401146131805158,
      "ICE Threat Level 1": 0.871060171919771,
      "ICE Threat Level 2": 0.988538681948424,
      "ICE Threat Level 3": 0.805157593123209,
      "No ICE Threat Level": 85.5300859598854,
      "latitude": 33.71204679097549,
      "longitude": -84.37111710232016
    },
    {
      "Name": "FOLKSTON ANNEX IPC",
      "Address": "3424 HIGHWAY 252 EAST",
      "City": "FOLKSTON",
      "State": "GA",
      "Zip": "31537",
      "Male Crim": 75.2177650429799,
      "Male Non-Crim": 210.570200573067,
      "Female Crim": 0.0,
      "Female Non-Crim": 0.206303724928367,
      "ICE Threat Level 1": 6.22063037249284,
      "ICE Threat Level 2": 6.13467048710602,
      "ICE Threat Level 3": 7.97994269340974,
      "No ICE Threat Level": 265.659025787966,
      "latitude": 30.875036792616953,
      "longitude": -81.98072458889538
    },
    {
      "Name": "FOLKSTON D RAY ICE PROCESSING CTR",
      "Address": "3262 HIGHWAY 252",
      "City": "FOLKSTON",
      "State": "GA",
      "Zip": "31537",
      "Male Crim": 5.48997134670487,
      "Male Non-Crim": 40.0000000000001,
      "Female Crim": 0.0,
      "Female Non-Crim": 0.272206303724928,
      "ICE Threat Level 1": 0.246418338108883,
      "ICE Threat Level 2": 1.16332378223496,
      "ICE Threat Level 3": 2.89398280802292,
      "No ICE Threat Level": 41.4584527220632,
      "latitude": 30.874568,
      "longitude": -81.978308
    },
    {
      "Name": "FOLKSTON MAIN IPC",
      "Address": "3026 HWY 252 EAST",
      "City": "FOLKSTON",
      "State": "GA",
      "Zip": "31537",
      "Male Crim": 196.67335243553,
      "Male Non-Crim": 474.865329512896,
      "Female Crim": 0.406876790830946,
      "Female Non-Crim": 0.512893982808023,
      "ICE Threat Level 1": 13.621776504298,
      "ICE Threat Level 2": 15.6647564469914,
      "ICE Threat Level 3": 23.3724928366762,
      "No ICE Threat Level": 619.7994269341,
      "latitude": 30.876482215607357,
      "longitude": -81.9779839158829
    },
    {
      "Name": "FLOYD COUNTY JAIL",
      "Address": "2526 NEW CALHOUN HWY",
      "City": "ROME",
      "State": "GA",
      "Zip": "30161",
      "Male Crim": 0.713467048710601,
      "Male Non-Crim": 1.56733524355301,
      "Female Crim": 0.0659025787965616,
      "Female Non-Crim": 0.217765042979943,
      "ICE Threat Level 1": 0.0,
      "ICE Threat Level 2": 0.0,
      "ICE Threat Level 3": 0.00286532951289398,
      "No ICE Threat Level": 2.56160458452722,
      "latitude": 34.2803637,
      "longitude": -85.1428696
    },
    {
      "Name": "LEXINGTON COUNTY JAIL",
      "Address": "521 GIBSON ROAD",
      "City": "LEXINGTON",
      "State": "SC",
      "Zip": "29072",
      "Male Crim": 2.20343839541547,
      "Male Non-Crim": 1.96275071633237,
      "Female Crim": 0.143266475644699,
      "Female Non-Crim": 0.673352435530085,
      "ICE Threat Level 1": 0.0229226361031519,
      "ICE Threat Level 2": 0.0114613180515759,
      "ICE Threat Level 3": 0.00573065902578797,
      "No ICE Threat Level": 4.94269340974224,
      "latitude": 33.9784808,
      "longitude": -81.2508399
    },
    {
      "Name": "ROBERT A DEYTON DETENTION FACILITY",
      "Address": "11866 HASTINGS BRIDGE ROAD P.O. BOX 429",
      "City": "LOVEJOY",
      "State": "GA",
      "Zip": "30250",
      "Male Crim": 3.49856733524357,
      "Male Non-Crim": 3.03438395415474,
      "Female Crim": 0.0,
      "Female Non-Crim": 0.0,
      "ICE Threat Level 1": 0.0171919770773639,
      "ICE Threat Level 2": 0.0315186246418338,
      "ICE Threat Level 3": 0.0,
      "No ICE Threat Level": 6.48424068767917,
      "latitude": 33.434847,
      "longitude": -84.305968
    },
    {
      "Name": "STEWART DETENTION CENTER",
      "Address": "146 CCA ROAD",
      "City": "LUMPKIN",
      "State": "GA",
      "Zip": "31815",
      "Male Crim": 748.323782234956,
      "Male Non-Crim": 932.567335243545,
      "Female Crim": 51.5386819484241,
      "Female Non-Crim": 188.318051575931,
      "ICE Threat Level 1": 174.702005730659,
      "ICE Threat Level 2": 111.481375358166,
      "ICE Threat Level 3": 98.7621776504297,
      "No ICE Threat Level": 1535.80229226359,
      "latitude": 32.036729905551354,
      "longitude": -84.77148464340088
    },
    {
      "Name": "ALLEGANY COUNTY JAIL",
      "Address": "4884 STATE ROUTE 19",
      "City": "BELMONT",
      "State": "NY",
      "Zip": "14813",
      "Male Crim": 0.0,
      "Male Non-Crim": 0.922636103151863,
      "Female Crim": 0.498567335243553,
      "Female Non-Crim": 4.39255014326648,
      "ICE Threat Level 1": 0.0,
      "ICE Threat Level 2": 0.0,
      "ICE Threat Level 3": 0.0,
      "No ICE Threat Level": 5.8137535816619,
      "latitude": 42.212952098118315,
      "longitude": -78.01655374441145
    },
    {
      "Name": "BERLIN FED. CORR. INST.",
      "Address": "1 SUCCESS LOOP DR.",
      "City": "BERLIN",
      "State": "NH",
      "Zip": "03570",
      "Male Crim": 31.7535816618911,
      "Male Non-Crim": 101.968481375358,
      "Female Crim": 0.220630372492837,
      "Female Non-Crim": 0.137535816618911,
      "ICE Threat Level 1": 6.70200573065903,
      "ICE Threat Level 2": 2.25501432664756,
      "ICE Threat Level 3": 5.8080229226361,
      "No ICE Threat Level": 119.315186246418,
      "latitude": 44.519,
      "longitude": -71.13716
    },
    {
      "Name": "BOONE COUNTY JAIL",
      "Address": "3020 CONRAD LANE",
      "City": "BURLINGTON",
      "State": "KY",
      "Zip": "41005",
      "Male Crim": 114.971346704871,
      "Male Non-Crim": 49.3008595988539,
      "Female Crim": 3.96275071633238,
      "Female Non-Crim": 0.69054441260745,
      "ICE Threat Level 1": 30.7421203438395,
      "ICE Threat Level 2": 12.9570200573066,
      "ICE Threat Level 3": 10.1289398280802,
      "No ICE Threat Level": 115.097421203438,
      "latitude": 39.0373257,
      "longitude": -84.7236669
    },
    {
      "Name": "BOURBON CO DET CENTER",
      "Address": "BOURBON CO COURTHOUSE, MAIN STREET",
      "City": "PARIS",
      "State": "KY",
      "Zip": "40361",
      "Male Crim": 0.762177650429799,
      "Male Non-Crim": 1.21489971346705,
      "Female Crim": 0.0286532951289398,
      "Female Non-Crim": 0.203438395415473,
      "ICE Threat Level 1": 0.0,
      "ICE Threat Level 2": 0.0171919770773639,
      "ICE Threat Level 3": 0.0,
      "No ICE Threat Level": 2.1919770773639,
      "latitude": 38.202541,
      "longitude": -84.261435
    },
    {
      "Name": "BROOKLYN MDC",
      "Address": "100 29TH STREET",
      "City": "BROOKLYN",
      "State": "NY",
      "Zip": "11232",
      "Male Crim": 6.0487106017192,
      "Male Non-Crim": 19.1575931232092,
      "Female Crim": 0.249283667621777,
      "Female Non-Crim": 0.0544412607449857,
      "ICE Threat Level 1": 0.444126074498567,
      "ICE Threat Level 2": 0.991404011461318,
      "ICE Threat Level 3": 1.56446991404011,
      "No ICE Threat Level": 22.5100286532951,
      "latitude": 40.6597866,
      "longitude": -74.0029582
    },
    {
      "Name": "BROOME COUNTY JAIL",
      "Address": "897 FRONT STREET",
      "City": "BINGHAMPTON",
      "State": "NY",
      "Zip": "13905",
      "Male Crim": 1.4269340974212,
      "Male Non-Crim": 8.63610315186247,
      "Female Crim": 0.0,
      "Female Non-Crim": 0.0401146131805158,
      "ICE Threat Level 1": 0.0,
      "ICE Threat Level 2": 0.498567335243553,
      "ICE Threat Level 3": 0.638968481375358,
      "No ICE Threat Level": 8.96561604584528,
      "latitude": 42.13112754376308,
      "longitude": -75.91372588859112
    },
    {
      "Name": "BUFFALO SERVICE PROCESSING CENTER",
      "Address": "4250 FEDERAL DRIVE",
      "City": "BATAVIA",
      "State": "NY",
      "Zip": "14020",
      "Male Crim": 247.54441260745,
      "Male Non-Crim": 390.100286532952,
      "Female Crim": 0.0,
      "Female Non-Crim": 0.0888252148997135,
      "ICE Threat Level 1": 80.1174785100287,
      "ICE Threat Level 2": 15.6275071633238,
      "ICE Threat Level 3": 18.1031518624642,
      "No ICE Threat Level": 523.885386819482,
      "latitude": 43.0203104,
      "longitude": -78.2024802
    },
    {
      "Name": "BUTLER COUNTY JAIL",
      "Address": "705 HANOVER STREET",
      "City": "HAMILTON",
      "State": "OH",
      "Zip": "45011",
      "Male Crim": 36.3266475644699,
      "Male Non-Crim": 106.014326647565,
      "Female Crim": 1.97421203438395,
      "Female Non-Crim": 13.4097421203438,
      "ICE Threat Level 1": 4.82808022922636,
      "ICE Threat Level 2": 6.14613180515759,
      "ICE Threat Level 3": 10.1318051575931,
      "No ICE Threat Level": 136.618911174785,
      "latitude": 39.3881265,
      "longitude": -84.55588
    },
    {
      "Name": "CALHOUN COUNTY CORRECTIONAL CENTER",
      "Address": "185 EAST MICHIGAN AVENUE",
      "City": "BATTLE CREEK",
      "State": "MI",
      "Zip": "49014",
      "Male Crim": 47.2120343839542,
      "Male Non-Crim": 93.1088825214899,
      "Female Crim": 3.79656160458453,
      "Female Non-Crim": 14.7106017191977,
      "ICE Threat Level 1": 9.75071633237822,
      "ICE Threat Level 2": 5.38681948424069,
      "ICE Threat Level 3": 11.7163323782235,
      "No ICE Threat Level": 131.974212034384,
      "latitude": 42.3166739,
      "longitude": -85.1758915
    },
    {
      "Name": "CAMPBELL CO DET CTR",
      "Address": "601 CENTRAL AVE",
      "City": "NEWPORT",
      "State": "KY",
      "Zip": "41071",
      "Male Crim": 19.3753581661891,
      "Male Non-Crim": 26.8796561604585,
      "Female Crim": 0.882521489971347,
      "Female Non-Crim": 5.24068767908309,
      "ICE Threat Level 1": 3.30085959885387,
      "ICE Threat Level 2": 3.43266475644699,
      "ICE Threat Level 3": 3.86246418338109,
      "No ICE Threat Level": 41.7822349570201,
      "latitude": 39.0887186,
      "longitude": -84.4969756
    },
    {
      "Name": "CHASE COUNTY JAIL",
      "Address": "301 SOUTH WALNUT STREET",
      "City": "COTTONWOOD FALL",
      "State": "KS",
      "Zip": "66845",
      "Male Crim": 53.7593123209169,
      "Male Non-Crim": 44.1404011461318,
      "Female Crim": 3.65616045845272,
      "Female Non-Crim": 5.12034383954155,
      "ICE Threat Level 1": 7.88538681948424,
      "ICE Threat Level 2": 4.26647564469914,
      "ICE Threat Level 3": 7.27793696275072,
      "No ICE Threat Level": 87.2464183381088,
      "latitude": 38.36801388495829,
      "longitude": -96.53868750219544
    },
    {
      "Name": "CHIPPEWA COUNTY SSM",
      "Address": "325 COURT STREET",
      "City": "SAULT STE MARIE",
      "State": "MI",
      "Zip": "49783",
      "Male Crim": 10.702005730659,
      "Male Non-Crim": 22.2263610315186,
      "Female Crim": 0.0,
      "Female Non-Crim": 0.0,
      "ICE Threat Level 1": 3.37535816618911,
      "ICE Threat Level 2": 1.1432664756447,
      "ICE Threat Level 3": 0.916905444126074,
      "No ICE Threat Level": 27.4928366762177,
      "latitude": 46.4977347,
      "longitude": -84.3459656
    },
    {
      "Name": "CHITTENDEN REGIONAL CORRECTIONAL FACILITY",
      "Address": "7 FARRELL STREET",
      "City": "SOUTH BURLINGTON",
      "State": "VT",
      "Zip": "05403",
      "Male Crim": 0.0,
      "Male Non-Crim": 0.0257879656160458,
      "Female Crim": 0.257879656160458,
      "Female Non-Crim": 3.70200573065904,
      "ICE Threat Level 1": 0.0,
      "ICE Threat Level 2": 0.0,
      "ICE Threat Level 3": 0.00859598853868195,
      "No ICE Threat Level": 3.97707736389686,
      "latitude": 44.4464191,
      "longitude": -73.2054841
    },
    {
      "Name": "CLARK COUNTY JAIL (IN)",
      "Address": "501 EAST COURT AVE.",
      "City": "JEFFERSONVILLE",
      "State": "IN",
      "Zip": "47130",
      "Male Crim": 3.28939828080229,
      "Male Non-Crim": 6.7650429799427,
      "Female Crim": 8.07163323782235,
      "Female Non-Crim": 15.8767908309456,
      "ICE Threat Level 1": 3.00286532951289,
      "ICE Threat Level 2": 1.93982808022923,
      "ICE Threat Level 3": 1.71919770773639,
      "No ICE Threat Level": 27.3409742120344,
      "latitude": 38.277682,
      "longitude": -85.7375976
    },
    {
      "Name": "CLAY COUNTY JUSTICE CENTER",
      "Address": "611 EAST JACKSON STREET",
      "City": "BRAZIL",
      "State": "IN",
      "Zip": "47834",
      "Male Crim": 134.633237822352,
      "Male Non-Crim": 109.590257879658,
      "Female Crim": 6.9111747851003,
      "Female Non-Crim": 5.67621776504302,
      "ICE Threat Level 1": 24.9627507163324,
      "ICE Threat Level 2": 8.16332378223496,
      "ICE Threat Level 3": 10.8309455587393,
      "No ICE Threat Level": 212.85386819485,
      "latitude": 39.5236693,
      "longitude": -87.1191065
    },
    {
      "Name": "CLINTON COUNTY CORRECTIONAL FACILITY",
      "Address": "58 PINE MOUNTAIN RD.",
      "City": "MCELHATTAN",
      "State": "PA",
      "Zip": "17748",
      "Male Crim": 65.9226361031519,
      "Male Non-Crim": 11.4928366762178,
      "Female Crim": 3.77650429799427,
      "Female Non-Crim": 3.21489971346705,
      "ICE Threat Level 1": 24.0630372492837,
      "ICE Threat Level 2": 5.77650429799427,
      "ICE Threat Level 3": 1.35816618911175,
      "No ICE Threat Level": 53.2091690544412,
      "latitude": 41.1511182,
      "longitude": -77.3493663
    },
    {
      "Name": "CLINTON COUNTY JAIL",
      "Address": "25 MCCARTHY DRIVE",
      "City": "PLATTSBURGH",
      "State": "NY",
      "Zip": "12901",
      "Male Crim": 0.449856733524355,
      "Male Non-Crim": 0.779369627507163,
      "Female Crim": 1.34957020057307,
      "Female Non-Crim": 2.86246418338109,
      "ICE Threat Level 1": 0.0257879656160458,
      "ICE Threat Level 2": 0.0,
      "ICE Threat Level 3": 0.931232091690544,
      "No ICE Threat Level": 4.48424068767909,
      "latitude": 44.7204627,
      "longitude": -73.467472
    },
    {
      "Name": "CLINTON COUNTY JAIL",
      "Address": "301 E WALNUT STREET",
      "City": "FRANKFORT",
      "State": "IN",
      "Zip": "46041",
      "Male Crim": 3.03151862464183,
      "Male Non-Crim": 3.75358166189112,
      "Female Crim": 0.217765042979943,
      "Female Non-Crim": 1.03724928366762,
      "ICE Threat Level 1": 0.836676217765043,
      "ICE Threat Level 2": 0.392550143266476,
      "ICE Threat Level 3": 0.0888252148997135,
      "No ICE Threat Level": 6.72206303724929,
      "latitude": 40.2791153,
      "longitude": -86.5087576
    },
    {
      "Name": "CORR. CTR OF NORTHWEST OHIO",
      "Address": "3151 ROAD 24.25, ROUTE 1",
      "City": "STRYKER",
      "State": "OH",
      "Zip": "43557",
      "Male Crim": 7.16332378223496,
      "Male Non-Crim": 17.2378223495702,
      "Female Crim": 1.40687679083095,
      "Female Non-Crim": 12.2550143266476,
      "ICE Threat Level 1": 2.56160458452722,
      "ICE Threat Level 2": 0.779369627507163,
      "ICE Threat Level 3": 0.659025787965616,
      "No ICE Threat Level": 34.0630372492836,
      "latitude": 41.46614644488944,
      "longitude": -84.35637935792789
    },
    {
      "Name": "CUMBERLAND COUNTY JAIL",
      "Address": "50 COUNTY WAY",
      "City": "PORTLAND",
      "State": "ME",
      "Zip": "04102",
      "Male Crim": 21.0859598853868,
      "Male Non-Crim": 20.4126074498567,
      "Female Crim": 4.64183381088825,
      "Female Non-Crim": 9.10888252148997,
      "ICE Threat Level 1": 7.94269340974212,
      "ICE Threat Level 2": 1.18338108882521,
      "ICE Threat Level 3": 3.94269340974212,
      "No ICE Threat Level": 42.1805157593123,
      "latitude": 43.6508623,
      "longitude": -70.2816197
    },
    {
      "Name": "DELANEY HALL DETENTION FACILITY",
      "Address": "451 DOREMUS AVENUE",
      "City": "NEWARK",
      "State": "NJ",
      "Zip": "07105",
      "Male Crim": 31.1289398280803,
      "Male Non-Crim": 183.690544412608,
      "Female Crim": 1.75071633237822,
      "Female Non-Crim": 17.6704871060172,
      "ICE Threat Level 1": 0.833810888252149,
      "ICE Threat Level 2": 2.99426934097421,
      "ICE Threat Level 3": 9.17478510028653,
      "No ICE Threat Level": 221.237822349572,
      "latitude": 40.7187782,
      "longitude": -74.126752
    },
    {
      "Name": "DODGE COUNTY JAIL",
      "Address": "215 WEST CENTRAL STREET",
      "City": "JUNEAU",
      "State": "WI",
      "Zip": "53039",
      "Male Crim": 81.1862464183381,
      "Male Non-Crim": 26.7765042979943,
      "Female Crim": 0.432664756446991,
      "Female Non-Crim": 0.805157593123209,
      "ICE Threat Level 1": 16.3323782234957,
      "ICE Threat Level 2": 7.30945558739255,
      "ICE Threat Level 3": 5.44985673352435,
      "No ICE Threat Level": 80.1088825214901,
      "latitude": 43.40855649830141,
      "longitude": -88.70504618075388
    },
    {
      "Name": "ELIZABETH CONTRACT DETENTION FACILITY",
      "Address": "625 EVANS STREET",
      "City": "ELIZABETH",
      "State": "NJ",
      "Zip": "07201",
      "Male Crim": 64.8166189111743,
      "Male Non-Crim": 213.664756446995,
      "Female Crim": 1.88538681948424,
      "Female Non-Crim": 16.7163323782235,
      "ICE Threat Level 1": 5.73065902578797,
      "ICE Threat Level 2": 7.67621776504298,
      "ICE Threat Level 3": 11.4269340974212,
      "No ICE Threat Level": 272.249283667628,
      "latitude": 40.6662036,
      "longitude": -74.1896718
    },
    {
      "Name": "ERIE COUNTY JAIL",
      "Address": "DEPARTMENT OF CORRECTIONS 1618 ASH STREET",
      "City": "ERIE",
      "State": "PA",
      "Zip": "16503",
      "Male Crim": 2.22349570200573,
      "Male Non-Crim": 10.7249283667622,
      "Female Crim": 0.0,
      "Female Non-Crim": 0.160458452722063,
      "ICE Threat Level 1": 0.0114613180515759,
      "ICE Threat Level 2": 0.0171919770773639,
      "ICE Threat Level 3": 0.00859598853868195,
      "No ICE Threat Level": 13.0716332378224,
      "latitude": 42.12425044860252,
      "longitude": -80.06653529654119
    },
    {
      "Name": "FAYETTE COUNTY DETENTION CENTER",
      "Address": "600 OLD FRANKFORD CR",
      "City": "LEXINGTON",
      "State": "KY",
      "Zip": "40510",
      "Male Crim": 0.8567335243553,
      "Male Non-Crim": 0.647564469914039,
      "Female Crim": 0.0143266475644699,
      "Female Non-Crim": 0.0343839541547278,
      "ICE Threat Level 1": 0.0200573065902579,
      "ICE Threat Level 2": 0.00859598853868195,
      "ICE Threat Level 3": 0.00286532951289398,
      "No ICE Threat Level": 1.5214899713467,
      "latitude": 38.06555828124883,
      "longitude": -84.54565987336858
    },
    {
      "Name": "FDC PHILADELPHIA",
      "Address": "700 ARCH ST.",
      "City": "PHILADELPHIA",
      "State": "PA",
      "Zip": "19106",
      "Male Crim": 22.0229226361032,
      "Male Non-Crim": 40.2234957020058,
      "Female Crim": 0.0,
      "Female Non-Crim": 0.0687679083094556,
      "ICE Threat Level 1": 2.24355300859599,
      "ICE Threat Level 2": 0.401146131805158,
      "ICE Threat Level 3": 0.217765042979943,
      "No ICE Threat Level": 59.4527220630373,
      "latitude": 39.9525541,
      "longitude": -75.1520216
    },
    {
      "Name": "GEAUGA COUNTY JAIL",
      "Address": "12450 MERRITT DR",
      "City": "CHARDON",
      "State": "OH",
      "Zip": "44024",
      "Male Crim": 11.9398280802292,
      "Male Non-Crim": 20.4269340974212,
      "Female Crim": 1.01719197707736,
      "Female Non-Crim": 7.81375358166189,
      "ICE Threat Level 1": 1.67908309455587,
      "ICE Threat Level 2": 1.80515759312321,
      "ICE Threat Level 3": 0.95702005730659,
      "No ICE Threat Level": 36.756446991404,
      "latitude": 41.504827833000164,
      "longitude": -81.19154084443294
    },
    {
      "Name": "GRAYSON COUNTY JAIL",
      "Address": "320 SHAW STATION ROAD",
      "City": "LEITCHFIELD",
      "State": "KY",
      "Zip": "42754",
      "Male Crim": 4.97707736389687,
      "Male Non-Crim": 2.65616045845272,
      "Female Crim": 20.6332378223496,
      "Female Non-Crim": 42.8338108882521,
      "ICE Threat Level 1": 5.59885386819484,
      "ICE Threat Level 2": 2.79942693409742,
      "ICE Threat Level 3": 3.76504297994269,
      "No ICE Threat Level": 58.936962750716,
      "latitude": 37.4890391,
      "longitude": -86.2702303
    },
    {
      "Name": "GREENE COUNTY JAIL",
      "Address": "1199 N HASELTINE RD",
      "City": "SPRINGFIELD",
      "State": "MO",
      "Zip": "65802",
      "Male Crim": 56.320916905444,
      "Male Non-Crim": 71.0487106017192,
      "Female Crim": 4.16618911174785,
      "Female Non-Crim": 10.9914040114613,
      "ICE Threat Level 1": 6.14899713467049,
      "ICE Threat Level 2": 3.61604584527221,
      "ICE Threat Level 3": 5.39541547277937,
      "No ICE Threat Level": 127.366762177651,
      "latitude": 37.2227197,
      "longitude": -93.385532
    },
    {
      "Name": "HOPKINS COUNTY JAIL",
      "Address": "2250 LAFOON TRAIL",
      "City": "MADISONVILLE",
      "State": "KY",
      "Zip": "42431",
      "Male Crim": 19.6876790830946,
      "Male Non-Crim": 27.4613180515759,
      "Female Crim": 0.455587392550143,
      "Female Non-Crim": 4.07449856733524,
      "ICE Threat Level 1": 5.10601719197708,
      "ICE Threat Level 2": 2.65902578796562,
      "ICE Threat Level 3": 2.9025787965616,
      "No ICE Threat Level": 41.0114613180516,
      "latitude": 37.337886976243404,
      "longitude": -87.54013518688257
    },
    {
      "Name": "KAY CO JUSTICE FACILITY",
      "Address": "1101 WEST DRY ROAD",
      "City": "NEWKIRK",
      "State": "OK",
      "Zip": "74647",
      "Male Crim": 57.7478510028653,
      "Male Non-Crim": 59.6962750716333,
      "Female Crim": 0.0,
      "Female Non-Crim": 0.0601719197707736,
      "ICE Threat Level 1": 8.50716332378224,
      "ICE Threat Level 2": 4.38968481375358,
      "ICE Threat Level 3": 7.63610315186247,
      "No ICE Threat Level": 96.9713467048717,
      "latitude": 36.86806507097945,
      "longitude": -97.06923720408514
    },
    {
      "Name": "KENTON COUNTY JAIL",
      "Address": "3000 DECKER CRANE LANE",
      "City": "COVINGTON",
      "State": "KY",
      "Zip": "41017",
      "Male Crim": 11.2722063037249,
      "Male Non-Crim": 13.3896848137536,
      "Female Crim": 0.361031518624642,
      "Female Non-Crim": 0.00286532951289398,
      "ICE Threat Level 1": 1.10601719197708,
      "ICE Threat Level 2": 1.93696275071633,
      "ICE Threat Level 3": 3.99713467048711,
      "No ICE Threat Level": 17.9856733524355,
      "latitude": 39.002731,
      "longitude": -84.531531
    },
    {
      "Name": "LAUREL COUNTY CORRECTIONAL CENTER",
      "Address": "440 HAMMOCK ROAD",
      "City": "LONDON",
      "State": "KY",
      "Zip": "40744",
      "Male Crim": 0.739255014326647,
      "Male Non-Crim": 0.673352435530086,
      "Female Crim": 0.212034383954155,
      "Female Non-Crim": 0.656160458452721,
      "ICE Threat Level 1": 0.00859598853868195,
      "ICE Threat Level 2": 0.0200573065902579,
      "ICE Threat Level 3": 0.00859598853868195,
      "No ICE Threat Level": 2.24355300859599,
      "latitude": 37.05739,
      "longitude": -84.070965
    },
    {
      "Name": "LEAVENWORTH US PENITENTIARY",
      "Address": "1300 METROPOLITAN AVE.",
      "City": "LEAVENWORTH",
      "State": "KS",
      "Zip": "66048",
      "Male Crim": 27.8424068767908,
      "Male Non-Crim": 12.6962750716332,
      "Female Crim": 0.0,
      "Female Non-Crim": 0.0,
      "ICE Threat Level 1": 11.0229226361032,
      "ICE Threat Level 2": 2.73352435530086,
      "ICE Threat Level 3": 2.41260744985673,
      "No ICE Threat Level": 24.3696275071633,
      "latitude": 39.3303867,
      "longitude": -94.9357354
    },
    {
      "Name": "MAHONING COUNTY JAIL",
      "Address": "110 FIFTH AVENUE",
      "City": "YOUNGSTOWN",
      "State": "OH",
      "Zip": "44503",
      "Male Crim": 6.17191977077364,
      "Male Non-Crim": 26.6704871060172,
      "Female Crim": 1.28080229226361,
      "Female Non-Crim": 9.10888252148998,
      "ICE Threat Level 1": 1.56733524355301,
      "ICE Threat Level 2": 1.7163323782235,
      "ICE Threat Level 3": 0.965616045845272,
      "No ICE Threat Level": 38.9828080229225,
      "latitude": 41.103708,
      "longitude": -80.6545051
    },
    {
      "Name": "MARION COUNTY JAIL",
      "Address": "695 JUSTICE WAY",
      "City": "INDIANAPOLIS",
      "State": "IN",
      "Zip": "46203",
      "Male Crim": 23.7765042979943,
      "Male Non-Crim": 28.7908309455587,
      "Female Crim": 0.343839541547278,
      "Female Non-Crim": 0.28080229226361,
      "ICE Threat Level 1": 3.2406876790831,
      "ICE Threat Level 2": 2.1919770773639,
      "ICE Threat Level 3": 2.14040114613181,
      "No ICE Threat Level": 45.618911174785,
      "latitude": 39.7550409,
      "longitude": -86.1144189
    },
    {
      "Name": "MONROE COUNTY DETENTION-DORM",
      "Address": "7000 EAST DUNBAR ROAD",
      "City": "MONROE",
      "State": "MI",
      "Zip": "48161",
      "Male Crim": 16.189111747851,
      "Male Non-Crim": 91.3581661891116,
      "Female Crim": 0.0,
      "Female Non-Crim": 0.237822349570201,
      "ICE Threat Level 1": 2.49283667621776,
      "ICE Threat Level 2": 2.08882521489971,
      "ICE Threat Level 3": 5.45845272206304,
      "No ICE Threat Level": 97.7449856733523,
      "latitude": 41.89347,
      "longitude": -83.396328
    },
    {
      "Name": "BLUEBONNET DETENTION FACILITY",
      "Address": "400 2ND STREET",
      "City": "ANSON",
      "State": "TX",
      "Zip": "79501",
      "Male Crim": 349.002865329511,
      "Male Non-Crim": 549.547277936959,
      "Female Crim": 13.4297994269341,
      "Female Non-Crim": 60.0057306590256,
      "ICE Threat Level 1": 65.0143266475643,
      "ICE Threat Level 2": 45.9770773638967,
      "ICE Threat Level 3": 68.6275071633242,
      "No ICE Threat Level": 792.366762177675,
      "latitude": 32.7667663,
      "longitude": -99.8888312
    },
    {
      "Name": "DALLAS COUNTY JAIL - LEW STERRETT JUSTICE CENTER",
      "Address": "111 WEST COMMERCE STREET",
      "City": "DALLAS",
      "State": "TX",
      "Zip": "75202",
      "Male Crim": 2.65902578796563,
      "Male Non-Crim": 3.86819484240693,
      "Female Crim": 0.146131805157593,
      "Female Non-Crim": 0.495702005730659,
      "ICE Threat Level 1": 0.0,
      "ICE Threat Level 2": 0.00859598853868195,
      "ICE Threat Level 3": 0.0,
      "No ICE Threat Level": 7.16045845272232,
      "latitude": 32.7746483,
      "longitude": -96.8243069
    },
    {
      "Name": "EDEN DETENTION CTR",
      "Address": "702 E BROADWAY ST",
      "City": "EDEN",
      "State": "TX",
      "Zip": "76837",
      "Male Crim": 19.3094555873925,
      "Male Non-Crim": 111.36676217765,
      "Female Crim": 0.0143266475644699,
      "Female Non-Crim": 0.255014326647564,
      "ICE Threat Level 1": 2.39828080229226,
      "ICE Threat Level 2": 1.31232091690544,
      "ICE Threat Level 3": 3.45272206303725,
      "No ICE Threat Level": 123.78223495702,
      "latitude": 31.2175083,
      "longitude": -99.8339599
    },
    {
      "Name": "LOGAN COUNTY JAIL",
      "Address": "216 S BROAD ST",
      "City": "GUTHRIE",
      "State": "OK",
      "Zip": "73044",
      "Male Crim": 0.88538681948424,
      "Male Non-Crim": 2.03724928366762,
      "Female Crim": 0.0458452722063037,
      "Female Non-Crim": 0.157593123209169,
      "ICE Threat Level 1": 0.108882521489971,
      "ICE Threat Level 2": 0.0573065902578797,
      "ICE Threat Level 3": 0.0200573065902579,
      "No ICE Threat Level": 2.93982808022924,
      "latitude": 35.8763635,
      "longitude": -97.4223562
    },
    {
      "Name": "LUBBOCK COUNTY DETENTION CENTER",
      "Address": "811 MAIN STREET",
      "City": "LUBBOCK",
      "State": "TX",
      "Zip": "79401",
      "Male Crim": 0.679083094555873,
      "Male Non-Crim": 1.54727793696275,
      "Female Crim": 0.0114613180515759,
      "Female Non-Crim": 0.100286532951289,
      "ICE Threat Level 1": 0.0515759312320917,
      "ICE Threat Level 2": 0.151862464183381,
      "ICE Threat Level 3": 0.0515759312320917,
      "No ICE Threat Level": 2.08309455587393,
      "latitude": 33.5854229,
      "longitude": -101.8434337
    },
    {
      "Name": "CIMMARRON CORR FACILITY",
      "Address": "3700 S. KINGS HWY",
      "City": "CUSHING",
      "State": "OK",
      "Zip": "74023",
      "Male Crim": 47.3839541547278,
      "Male Non-Crim": 106.739255014327,
      "Female Crim": 0.120343839541547,
      "Female Non-Crim": 0.120343839541547,
      "ICE Threat Level 1": 8.35243553008596,
      "ICE Threat Level 2": 2.44985673352436,
      "ICE Threat Level 3": 4.00286532951289,
      "No ICE Threat Level": 139.558739255014,
      "latitude": 35.961173,
      "longitude": -96.7848408
    },
    {
      "Name": "PRAIRIELAND DETENTION CENTER",
      "Address": "1209 SUNFLOWER LN",
      "City": "ALVARADO",
      "State": "TX",
      "Zip": "76009",
      "Male Crim": 280.974212034388,
      "Male Non-Crim": 471.08022922636,
      "Female Crim": 27.2234957020057,
      "Female Non-Crim": 49.8252148997133,
      "ICE Threat Level 1": 73.0229226361032,
      "ICE Threat Level 2": 44.6303724928366,
      "ICE Threat Level 3": 37.9598853868194,
      "No ICE Threat Level": 673.489971346707,
      "latitude": 32.4217035,
      "longitude": -97.1958971
    },
    {
      "Name": "TULSA COUNTY JAIL (DAVID L. MOSS JUSTICE CTR)",
      "Address": "300 NORTH DENVER AVENUE",
      "City": "TULSA",
      "State": "OK",
      "Zip": "74103",
      "Male Crim": 19.4297994269342,
      "Male Non-Crim": 36.8595988538684,
      "Female Crim": 0.936962750716332,
      "Female Non-Crim": 3.52148997134671,
      "ICE Threat Level 1": 1.06017191977077,
      "ICE Threat Level 2": 0.719197707736389,
      "ICE Threat Level 3": 1.18051575931232,
      "No ICE Threat Level": 57.7879656160452,
      "latitude": 36.1572816,
      "longitude": -95.9990129
    },
    {
      "Name": "DENVER CONTRACT DETENTION FACILITY",
      "Address": "3130 OAKLAND ST",
      "City": "AURORA",
      "State": "CO",
      "Zip": "80010",
      "Male Crim": 329.123209169054,
      "Male Non-Crim": 776.412607449853,
      "Female Crim": 20.4126074498567,
      "Female Non-Crim": 55.0,
      "ICE Threat Level 1": 93.595988538682,
      "ICE Threat Level 2": 41.3982808022922,
      "ICE Threat Level 3": 51.8166189111747,
      "No ICE Threat Level": 994.137535816617,
      "latitude": 39.760875,
      "longitude": -104.849087
    },
    {
      "Name": "NATRONA COUNTY JAIL",
      "Address": "1100 BRUCE LANE",
      "City": "CASPER",
      "State": "WY",
      "Zip": "82601",
      "Male Crim": 1.90830945558739,
      "Male Non-Crim": 4.87965616045847,
      "Female Crim": 0.401146131805158,
      "Female Non-Crim": 0.206303724928367,
      "ICE Threat Level 1": 0.507163323782235,
      "ICE Threat Level 2": 0.518624641833811,
      "ICE Threat Level 3": 0.191977077363897,
      "No ICE Threat Level": 6.17765042979944,
      "latitude": 42.862486,
      "longitude": -106.344705
    },
    {
      "Name": "SWEETWATER COUNTY JAIL",
      "Address": "50140 UNITED STATES HIGHWAY 191 SOUTH",
      "City": "ROCK SPRINGS",
      "State": "WY",
      "Zip": "82935",
      "Male Crim": 2.9541547277937,
      "Male Non-Crim": 1.72492836676218,
      "Female Crim": 0.0544412607449857,
      "Female Non-Crim": 0.126074498567335,
      "ICE Threat Level 1": 0.670487106017192,
      "ICE Threat Level 2": 0.0114613180515759,
      "ICE Threat Level 3": 0.530085959885387,
      "No ICE Threat Level": 3.64756446991405,
      "latitude": 41.5371934874891,
      "longitude": -109.30126553093841
    },
    {
      "Name": "MONTGOMERY COUNTY JAIL",
      "Address": "PARK STREET",
      "City": "FONDA",
      "State": "NY",
      "Zip": "12068",
      "Male Crim": 0.30945558739255,
      "Male Non-Crim": 1.24068767908309,
      "Female Crim": 0.0,
      "Female Non-Crim": 0.0659025787965616,
      "ICE Threat Level 1": 0.00573065902578797,
      "ICE Threat Level 2": 0.0114613180515759,
      "ICE Threat Level 3": 0.0286532951289398,
      "No ICE Threat Level": 1.5702005730659,
      "latitude": 42.9531059,
      "longitude": -74.3729461
    },
    {
      "Name": "MOSHANNON VALLEY PROCESSING CENTER",
      "Address": "555 GEO DRIVE",
      "City": "PHILIPSBURG",
      "State": "PA",
      "Zip": "16866",
      "Male Crim": 692.742120343839,
      "Male Non-Crim": 662.879656160454,
      "Female Crim": 25.2808022922636,
      "Female Non-Crim": 22.7449856733524,
      "ICE Threat Level 1": 181.667621776504,
      "ICE Threat Level 2": 61.4412607449857,
      "ICE Threat Level 3": 71.7793696275071,
      "No ICE Threat Level": 1088.75931232092,
      "latitude": 40.921386200722395,
      "longitude": -78.24213641561506
    },
    {
      "Name": "NASSAU COUNTY CORRECTIONAL CENTER",
      "Address": "100 CARMAN AVENUE",
      "City": "EAST MEADOW",
      "State": "NY",
      "Zip": "11554",
      "Male Crim": 3.51002865329515,
      "Male Non-Crim": 9.32664756447003,
      "Female Crim": 0.0257879656160458,
      "Female Non-Crim": 0.00859598853868195,
      "ICE Threat Level 1": 0.00286532951289398,
      "ICE Threat Level 2": 0.0143266475644699,
      "ICE Threat Level 3": 0.0716332378223496,
      "No ICE Threat Level": 12.7822349570201,
      "latitude": 40.727807,
      "longitude": -73.5561653
    },
    {
      "Name": "NIAGARA COUNTY JAIL",
      "Address": "5526 NIAGARA STREET EXTENTION",
      "City": "LOCKPORT",
      "State": "NY",
      "Zip": "14094",
      "Male Crim": 0.0,
      "Male Non-Crim": 0.0401146131805158,
      "Female Crim": 0.0830945558739255,
      "Female Non-Crim": 2.60171919770774,
      "ICE Threat Level 1": 0.0,
      "ICE Threat Level 2": 0.0,
      "ICE Threat Level 3": 0.0,
      "No ICE Threat Level": 2.72492836676218,
      "latitude": 43.18023,
      "longitude": -78.73694
    },
    {
      "Name": "NORTH LAKE CORRECTIONAL F",
      "Address": "1805 W 32ND ST",
      "City": "BALDWIN",
      "State": "MI",
      "Zip": "49304",
      "Male Crim": 19.4240687679083,
      "Male Non-Crim": 95.1747851002865,
      "Female Crim": 0.212034383954155,
      "Female Non-Crim": 1.17478510028653,
      "ICE Threat Level 1": 5.15472779369627,
      "ICE Threat Level 2": 2.87392550143267,
      "ICE Threat Level 3": 5.31232091690544,
      "No ICE Threat Level": 102.644699140401,
      "latitude": 43.926459,
      "longitude": -85.836552
    },
    {
      "Name": "NORTHEAST OHIO CORRECTIONAL CENTER",
      "Address": "2240 HUBBARD ROAD",
      "City": "YOUNGSTOWN",
      "State": "OH",
      "Zip": "44505",
      "Male Crim": 33.6103151862464,
      "Male Non-Crim": 89.401146131805,
      "Female Crim": 0.0,
      "Female Non-Crim": 0.0114613180515759,
      "ICE Threat Level 1": 7.43839541547278,
      "ICE Threat Level 2": 3.63610315186247,
      "ICE Threat Level 3": 4.58452722063037,
      "No ICE Threat Level": 107.363896848137,
      "latitude": 41.1288515,
      "longitude": -80.6267877
    },
    {
      "Name": "NORTHERN REGIONAL JAIL",
      "Address": "RD. 2, BOX 1",
      "City": "MOUNDSVILLE",
      "State": "WV",
      "Zip": "26041",
      "Male Crim": 1.32664756446991,
      "Male Non-Crim": 5.56446991404013,
      "Female Crim": 0.0802292263610315,
      "Female Non-Crim": 0.212034383954155,
      "ICE Threat Level 1": 0.0286532951289398,
      "ICE Threat Level 2": 0.0601719197707736,
      "ICE Threat Level 3": 0.0286532951289398,
      "No ICE Threat Level": 7.06590257879659,
      "latitude": 39.92221,
      "longitude": -80.74378
    },
    {
      "Name": "NORTHWEST STATE CORRECTIONAL CENTER",
      "Address": "3649 LOWER NEWTON ROAD",
      "City": "SWANTON",
      "State": "VT",
      "Zip": "05488",
      "Male Crim": 1.08309455587393,
      "Male Non-Crim": 8.1575931232092,
      "Female Crim": 0.0,
      "Female Non-Crim": 0.0229226361031519,
      "ICE Threat Level 1": 0.0773638968481375,
      "ICE Threat Level 2": 0.00286532951289398,
      "ICE Threat Level 3": 0.0200573065902579,
      "No ICE Threat Level": 9.16332378223499,
      "latitude": 44.850448,
      "longitude": -73.13328
    },
    {
      "Name": "OLDHAM COUNTY DETENTION CENTER",
      "Address": "3405 W HWY 146",
      "City": "LA GRANGE",
      "State": "KY",
      "Zip": "40031",
      "Male Crim": 31.3266475644699,
      "Male Non-Crim": 26.3467048710602,
      "Female Crim": 0.111747851002865,
      "Female Non-Crim": 1.5214899713467,
      "ICE Threat Level 1": 5.43553008595989,
      "ICE Threat Level 2": 4.36103151862464,
      "ICE Threat Level 3": 3.63896848137536,
      "No ICE Threat Level": 45.8710601719197,
      "latitude": 38.389361,
      "longitude": -85.423255
    },
    {
      "Name": "ORANGE COUNTY JAIL (NY)",
      "Address": "110 WELLS FARM ROAD",
      "City": "GOSHEN",
      "State": "NY",
      "Zip": "10924",
      "Male Crim": 78.3868194842406,
      "Male Non-Crim": 49.1117478510028,
      "Female Crim": 0.0,
      "Female Non-Crim": 0.0,
      "ICE Threat Level 1": 12.3553008595989,
      "ICE Threat Level 2": 13.2922636103152,
      "ICE Threat Level 3": 9.26074498567336,
      "No ICE Threat Level": 92.5902578796562,
      "latitude": 41.4042394,
      "longitude": -74.3606249
    },
    {
      "Name": "OZARK COUNTY SHERIFF'S OFFICE",
      "Address": "1818 COUNTY ROAD 806",
      "City": "GAINESVILLE",
      "State": "MO",
      "Zip": "65655",
      "Male Crim": 2.60171919770774,
      "Male Non-Crim": 2.2922636103152,
      "Female Crim": 0.0114613180515759,
      "Female Non-Crim": 0.00573065902578797,
      "ICE Threat Level 1": 0.372492836676218,
      "ICE Threat Level 2": 0.237822349570201,
      "ICE Threat Level 3": 0.272206303724928,
      "No ICE Threat Level": 4.02865329512899,
      "latitude": 36.6014034,
      "longitude": -92.4516834
    },
    {
      "Name": "CIBOLA COUNTY CORRECTIONAL CENTER",
      "Address": "2000 CIBOLA LOOP",
      "City": "MILAN",
      "State": "NM",
      "Zip": "87021",
      "Male Crim": 37.5587392550143,
      "Male Non-Crim": 182.856733524355,
      "Female Crim": 0.0515759312320917,
      "Female Non-Crim": 0.0315186246418338,
      "ICE Threat Level 1": 5.5702005730659,
      "ICE Threat Level 2": 2.70200573065903,
      "ICE Threat Level 3": 5.08882521489971,
      "No ICE Threat Level": 207.137535816619,
      "latitude": 35.18004057943829,
      "longitude": -107.9072294599532
    },
    {
      "Name": "EL PASO SERVICE PROCESSING CENTER",
      "Address": "8915 MONTANA AVE.",
      "City": "EL PASO",
      "State": "TX",
      "Zip": "79925",
      "Male Crim": 294.521489971329,
      "Male Non-Crim": 303.532951289391,
      "Female Crim": 69.848137535817,
      "Female Non-Crim": 159.289398280803,
      "ICE Threat Level 1": 85.54441260745,
      "ICE Threat Level 2": 64.3925501432661,
      "ICE Threat Level 3": 91.3954154727848,
      "No ICE Threat Level": 585.859598853883,
      "latitude": 31.7934217,
      "longitude": -106.3691494
    },
    {
      "Name": "DOD DETENTION FACILITY AT FORT BLISS",
      "Address": "6920 DIGITAL RD",
      "City": "EL PASO",
      "State": "TX",
      "Zip": "79936",
      "Male Crim": 29.7793696275071,
      "Male Non-Crim": 74.3467048710599,
      "Female Crim": 0.429799426934097,
      "Female Non-Crim": 2.09742120343839,
      "ICE Threat Level 1": 9.26361031518627,
      "ICE Threat Level 2": 5.46131805157594,
      "ICE Threat Level 3": 9.10888252148998,
      "No ICE Threat Level": 82.8194842406873,
      "latitude": 31.769428,
      "longitude": -106.303596
    },
    {
      "Name": "OTERO COUNTY PROCESSING CENTER",
      "Address": "26 MCGREGOR RANGE ROAD",
      "City": "CHAPARRAL",
      "State": "NM",
      "Zip": "88081",
      "Male Crim": 180.41547277937,
      "Male Non-Crim": 541.220630372503,
      "Female Crim": 12.6790830945559,
      "Female Non-Crim": 147.650429799427,
      "ICE Threat Level 1": 27.3209169054441,
      "ICE Threat Level 2": 26.9656160458453,
      "ICE Threat Level 3": 44.2550143266476,
      "No ICE Threat Level": 783.424068767919,
      "latitude": 32.0786798,
      "longitude": -106.2779169
    },
    {
      "Name": "TORRANCE/ESTANCIA, NM",
      "Address": "209 COUNTY ROAD 49",
      "City": "ESTANCIA",
      "State": "NM",
      "Zip": "87016",
      "Male Crim": 67.7077363896848,
      "Male Non-Crim": 390.140401146132,
      "Female Crim": 0.0,
      "Female Non-Crim": 0.111747851002865,
      "ICE Threat Level 1": 3.63896848137536,
      "ICE Threat Level 2": 3.97421203438395,
      "ICE Threat Level 3": 20.1719197707736,
      "No ICE Threat Level": 430.174785100287,
      "latitude": 34.76832244015224,
      "longitude": -106.01873793112864
    },
    {
      "Name": "COASTAL BEND DETENTION FACILITY",
      "Address": "4909 FM 2826",
      "City": "ROBSTOWN",
      "State": "TX",
      "Zip": "78380",
      "Male Crim": 8.18624641833815,
      "Male Non-Crim": 24.3008595988537,
      "Female Crim": 0.833810888252149,
      "Female Non-Crim": 3.33524355300861,
      "ICE Threat Level 1": 1.49856733524355,
      "ICE Threat Level 2": 1.56160458452722,
      "ICE Threat Level 3": 2.13180515759312,
      "No ICE Threat Level": 31.4641833810886,
      "latitude": 27.737232588266924,
      "longitude": -97.75467600061113
    },
    {
      "Name": "EAST HIDALGO DETENTION CENTER",
      "Address": "1330 HIGHWAY 107",
      "City": "LA VILLA",
      "State": "TX",
      "Zip": "78562",
      "Male Crim": 4.71633237822352,
      "Male Non-Crim": 4.08882521489974,
      "Female Crim": 0.406876790830946,
      "Female Non-Crim": 0.558739255014326,
      "ICE Threat Level 1": 2.41260744985674,
      "ICE Threat Level 2": 0.601719197707736,
      "ICE Threat Level 3": 0.830945558739254,
      "No ICE Threat Level": 5.92550143266481,
      "latitude": 26.295748678577546,
      "longitude": -97.91819101612627
    },
    {
      "Name": "EL VALLE DETENTION FACILITY",
      "Address": "1800 INDUSTRIAL DRIVE",
      "City": "RAYMONDVILLE",
      "State": "TX",
      "Zip": "78580",
      "Male Crim": 153.263610315186,
      "Male Non-Crim": 298.853868194843,
      "Female Crim": 26.4785100286533,
      "Female Non-Crim": 374.252148997136,
      "ICE Threat Level 1": 37.5042979942693,
      "ICE Threat Level 2": 23.6704871060172,
      "ICE Threat Level 3": 27.7449856733525,
      "No ICE Threat Level": 763.928366762171,
      "latitude": 26.467581958871495,
      "longitude": -97.76228788899171
    },
    {
      "Name": "LAREDO PROCESSING CENTER",
      "Address": "4702 EAST SAUNDERS STREET",
      "City": "LAREDO",
      "State": "TX",
      "Zip": "78041",
      "Male Crim": 0.73352435530086,
      "Male Non-Crim": 5.07736389684814,
      "Female Crim": 26.5157593123209,
      "Female Non-Crim": 335.249283667621,
      "ICE Threat Level 1": 6.14040114613181,
      "ICE Threat Level 2": 5.55300859598854,
      "ICE Threat Level 3": 12.2177650429799,
      "No ICE Threat Level": 343.664756446991,
      "latitude": 27.5294764,
      "longitude": -99.4477731
    },
    {
      "Name": "PORT ISABEL SPC",
      "Address": "27991 BUENA VISTA BOULEVARD",
      "City": "LOS FRESNOS",
      "State": "TX",
      "Zip": "78566",
      "Male Crim": 175.931232091698,
      "Male Non-Crim": 908.303724928388,
      "Female Crim": 0.965616045845271,
      "Female Non-Crim": 2.44126074498568,
      "ICE Threat Level 1": 32.7965616045843,
      "ICE Threat Level 2": 39.3467048710599,
      "ICE Threat Level 3": 74.2206303724927,
      "No ICE Threat Level": 941.277936962783,
      "latitude": 26.1563622,
      "longitude": -97.337839
    },
    {
      "Name": "RIO GRANDE DETENTION CENTER",
      "Address": "1001 SAN RIO BOULEVARD",
      "City": "LAREDO",
      "State": "TX",
      "Zip": "78046",
      "Male Crim": 50.1919770773639,
      "Male Non-Crim": 580.988538681947,
      "Female Crim": 0.28080229226361,
      "Female Non-Crim": 0.246418338108883,
      "ICE Threat Level 1": 3.77363896848138,
      "ICE Threat Level 2": 11.4183381088825,
      "ICE Threat Level 3": 31.5873925501433,
      "No ICE Threat Level": 584.928366762176,
      "latitude": 27.379978,
      "longitude": -99.486229
    },
    {
      "Name": "WEBB COUNTY DETENTION CENTER (CCA)",
      "Address": "9998 SOUTH HIGHWAY 83",
      "City": "LAREDO",
      "State": "TX",
      "Zip": "78041",
      "Male Crim": 56.8223495702006,
      "Male Non-Crim": 302.53581661891,
      "Female Crim": 5.08595988538682,
      "Female Non-Crim": 25.0114613180516,
      "ICE Threat Level 1": 21.1575931232092,
      "ICE Threat Level 2": 14.3123209169054,
      "ICE Threat Level 3": 20.4297994269341,
      "No ICE Threat Level": 333.5558739255,
      "latitude": 27.377731,
      "longitude": -99.471644
    },
    {
      "Name": "HOUSTON CONTRACT DETENTION FACILITY",
      "Address": "15850 EXPORT PLAZA DRIVE",
      "City": "HOUSTON",
      "State": "TX",
      "Zip": "77032",
      "Male Crim": 76.2234957020057,
      "Male Non-Crim": 426.054441260745,
      "Female Crim": 37.6418338108882,
      "Female Non-Crim": 306.724928366763,
      "ICE Threat Level 1": 34.9656160458453,
      "ICE Threat Level 2": 29.7908309455587,
      "ICE Threat Level 3": 36.8939828080229,
      "No ICE Threat Level": 744.994269340972,
      "latitude": 29.9508332,
      "longitude": -95.3121699
    },
    {
      "Name": "JOE CORLEY PROCESSING CTR",
      "Address": "500 HILBIG RD",
      "City": "CONROE",
      "State": "TX",
      "Zip": "77301",
      "Male Crim": 125.146131805158,
      "Male Non-Crim": 738.157593123204,
      "Female Crim": 0.0114613180515759,
      "Female Non-Crim": 0.220630372492837,
      "ICE Threat Level 1": 32.1805157593123,
      "ICE Threat Level 2": 25.0,
      "ICE Threat Level 3": 49.6532951289398,
      "No ICE Threat Level": 756.702005730654,
      "latitude": 30.3359939,
      "longitude": -95.4481982
    },
    {
      "Name": "LIMESTONE COUNTY DETENTION CENTER",
      "Address": "910 NORTH TYUS STREET",
      "City": "GROESBECK",
      "State": "TX",
      "Zip": "76642",
      "Male Crim": 13.2349570200573,
      "Male Non-Crim": 42.7077363896848,
      "Female Crim": 0.0,
      "Female Non-Crim": 0.0,
      "ICE Threat Level 1": 0.575931232091691,
      "ICE Threat Level 2": 0.730659025787966,
      "ICE Threat Level 3": 2.20057306590258,
      "No ICE Threat Level": 52.4355300859598,
      "latitude": 31.5287835,
      "longitude": -96.512347
    },
    {
      "Name": "MONTGOMERY ICE PROCESSING CENTER",
      "Address": "806 HILBIG RD",
      "City": "CONROE",
      "State": "TX",
      "Zip": "77301",
      "Male Crim": 603.957020057304,
      "Male Non-Crim": 493.128939828081,
      "Female Crim": 44.10888252149,
      "Female Non-Crim": 75.5444126074498,
      "ICE Threat Level 1": 197.922636103153,
      "ICE Threat Level 2": 134.851002865329,
      "ICE Threat Level 3": 155.808022922637,
      "No ICE Threat Level": 728.157593123197,
      "latitude": 30.3368088,
      "longitude": -95.4431046
    },
    {
      "Name": "IAH SECURE ADULT DETENTION FACILITY (POLK)",
      "Address": "3400 FM 350 SOUTH",
      "City": "LIVINGSTON",
      "State": "TX",
      "Zip": "77351",
      "Male Crim": 151.131805157593,
      "Male Non-Crim": 671.644699140404,
      "Female Crim": 0.117478510028653,
      "Female Non-Crim": 0.315186246418338,
      "ICE Threat Level 1": 40.5472779369628,
      "ICE Threat Level 2": 33.5272206303725,
      "ICE Threat Level 3": 58.1318051575931,
      "No ICE Threat Level": 691.002865329516,
      "latitude": 30.6981513,
      "longitude": -95.0057915
    },
    {
      "Name": "VICTORIA COUNTY JAIL",
      "Address": "101 NORTH GLASS STREET",
      "City": "VICTORIA",
      "State": "TX",
      "Zip": "77901",
      "Male Crim": 0.154727793696275,
      "Male Non-Crim": 1.65902578796562,
      "Female Crim": 0.0,
      "Female Non-Crim": 0.0257879656160458,
      "ICE Threat Level 1": 0.0143266475644699,
      "ICE Threat Level 2": 0.0,
      "ICE Threat Level 3": 0.0687679083094556,
      "No ICE Threat Level": 1.75644699140401,
      "latitude": 28.8005407,
      "longitude": -97.0085472
    },
    {
      "Name": "ADELANTO ICE PROCESSING CENTER",
      "Address": "10250 RANCHO ROAD",
      "City": "ADELANTO",
      "State": "CA",
      "Zip": "92301",
      "Male Crim": 303.550143266476,
      "Male Non-Crim": 219.446991404012,
      "Female Crim": 8.08309455587393,
      "Female Non-Crim": 44.4641833810888,
      "ICE Threat Level 1": 139.644699140401,
      "ICE Threat Level 2": 52.3065902578796,
      "ICE Threat Level 3": 35.3094555873925,
      "No ICE Threat Level": 348.283667621777,
      "latitude": 34.5599467,
      "longitude": -117.4421505
    },
    {
      "Name": "DESERT VIEW ANNEX",
      "Address": "10450 RANCHO ROAD",
      "City": "ADELANTO",
      "State": "CA",
      "Zip": "92301",
      "Male Crim": 126.283667621776,
      "Male Non-Crim": 296.779369627508,
      "Female Crim": 0.0744985673352436,
      "Female Non-Crim": 0.166189111747851,
      "ICE Threat Level 1": 11.7249283667622,
      "ICE Threat Level 2": 8.25787965616046,
      "ICE Threat Level 3": 11.6790830945559,
      "No ICE Threat Level": 391.641833810889,
      "latitude": 34.5599404,
      "longitude": -117.4372813
    },
    {
      "Name": "BAKER COUNTY SHERIFF DEPT.",
      "Address": "1 SHERIFF OFFICE DRIVE",
      "City": "MACCLENNY",
      "State": "FL",
      "Zip": "32063",
      "Male Crim": 141.962750716332,
      "Male Non-Crim": 59.9971346704868,
      "Female Crim": 26.8739255014327,
      "Female Non-Crim": 33.7421203438395,
      "ICE Threat Level 1": 18.2034383954155,
      "ICE Threat Level 2": 11.134670487106,
      "ICE Threat Level 3": 12.7535816618911,
      "No ICE Threat Level": 220.48424068768,
      "latitude": 30.296199564670268,
      "longitude": -82.12165470055466
    },
    {
      "Name": "MIAMI FEDERAL DETENTION",
      "Address": "33 NE 4 STREET",
      "City": "MIAMI",
      "State": "FL",
      "Zip": "33132",
      "Male Crim": 126.464183381089,
      "Male Non-Crim": 108.848137535816,
      "Female Crim": 0.475644699140401,
      "Female Non-Crim": 0.0229226361031519,
      "ICE Threat Level 1": 23.0830945558739,
      "ICE Threat Level 2": 10.6446991404011,
      "ICE Threat Level 3": 6.40401146131805,
      "No ICE Threat Level": 195.679083094557,
      "latitude": 25.778835871616227,
      "longitude": -80.19334441968891
    },
    {
      "Name": "COLLIER COUNTY NAPLES JAIL CENTER",
      "Address": "3347 TAMIAMI TRAIL E",
      "City": "NAPLES",
      "State": "FL",
      "Zip": "34112",
      "Male Crim": 8.76504297994278,
      "Male Non-Crim": 7.6618911174786,
      "Female Crim": 0.449856733524355,
      "Female Non-Crim": 0.690544412607449,
      "ICE Threat Level 1": 0.186246418338109,
      "ICE Threat Level 2": 0.275071633237822,
      "ICE Threat Level 3": 0.283667621776504,
      "No ICE Threat Level": 16.8223495702006,
      "latitude": 26.1257654,
      "longitude": -81.7651214
    },
    {
      "Name": "GLADES COUNTY DETENTION CENTER",
      "Address": "1297 EAST SR 78",
      "City": "MOORE HAVEN",
      "State": "FL",
      "Zip": "33471",
      "Male Crim": 53.0257879656161,
      "Male Non-Crim": 79.2693409742121,
      "Female Crim": 0.212034383954155,
      "Female Non-Crim": 0.0744985673352436,
      "ICE Threat Level 1": 3.32091690544413,
      "ICE Threat Level 2": 2.58452722063037,
      "ICE Threat Level 3": 2.16332378223496,
      "No ICE Threat Level": 124.512893982808,
      "latitude": 26.83880034675664,
      "longitude": -81.12392113131328
    },
    {
      "Name": "JTF CAMP SIX",
      "Address": "AVENUE C PSC 1005 BOX 55",
      "City": "FPO",
      "State": "FL",
      "Zip": "34009",
      "Male Crim": 12.3323782234957,
      "Male Non-Crim": 5.21203438395416,
      "Female Crim": 0.0,
      "Female Non-Crim": 0.0,
      "ICE Threat Level 1": 8.64469914040115,
      "ICE Threat Level 2": 1.65902578796562,
      "ICE Threat Level 3": 0.959885386819484,
      "No ICE Threat Level": 6.28080229226362,
      "latitude": 28.944465,
      "longitude": -82.03363
    },
    {
      "Name": "KROME NORTH SERVICE PROCESSING CENTER",
      "Address": "18201 SW 12TH ST",
      "City": "MIAMI",
      "State": "FL",
      "Zip": "33194",
      "Male Crim": 444.664756446988,
      "Male Non-Crim": 460.386819484239,
      "Female Crim": 0.63323782234957,
      "Female Non-Crim": 0.853868194842407,
      "ICE Threat Level 1": 70.7879656160459,
      "ICE Threat Level 2": 23.4899713467049,
      "ICE Threat Level 3": 22.7163323782235,
      "No ICE Threat Level": 789.54441260745,
      "latitude": 25.7547717,
      "longitude": -80.4908502
    },
    {
      "Name": "LAKE COUNTY JAIL",
      "Address": "551 W. MAIN ST.",
      "City": "TAVARES",
      "State": "FL",
      "Zip": "32778",
      "Male Crim": 0.272206303724928,
      "Male Non-Crim": 0.979942693409742,
      "Female Crim": 0.0114613180515759,
      "Female Non-Crim": 0.0143266475644699,
      "ICE Threat Level 1": 0.143266475644699,
      "ICE Threat Level 2": 0.0,
      "ICE Threat Level 3": 0.0,
      "No ICE Threat Level": 1.13467048710602,
      "latitude": 28.8018772,
      "longitude": -81.7329614
    },
    {
      "Name": "ORANGE COUNTY JAIL (FL)",
      "Address": "3855 SOUTH JOHN YOUNG PARKWAY",
      "City": "ORLANDO",
      "State": "FL",
      "Zip": "32839",
      "Male Crim": 6.03724928366768,
      "Male Non-Crim": 12.3123209169054,
      "Female Crim": 0.805157593123208,
      "Female Non-Crim": 2.56446991404012,
      "ICE Threat Level 1": 0.126074498567335,
      "ICE Threat Level 2": 0.0401146131805158,
      "ICE Threat Level 3": 0.100286532951289,
      "No ICE Threat Level": 21.4527220630376,
      "latitude": 28.50402318562143,
      "longitude": -81.41636787360717
    },
    {
      "Name": "PINELLAS COUNTY JAIL",
      "Address": "14400 49TH STREET NORTH",
      "City": "CLEARWATER",
      "State": "FL",
      "Zip": "33762",
      "Male Crim": 5.72206303724939,
      "Male Non-Crim": 9.01719197707756,
      "Female Crim": 0.277936962750716,
      "Female Non-Crim": 1.13467048710602,
      "ICE Threat Level 1": 0.00573065902578797,
      "ICE Threat Level 2": 0.0200573065902579,
      "ICE Threat Level 3": 0.0372492836676218,
      "No ICE Threat Level": 16.0888252148995,
      "latitude": 27.903511036240065,
      "longitude": -82.70346139830698
    },
    {
      "Name": "SAN JUAN STAGING",
      "Address": "651 FEDERAL DRIVE, SUITE 104",
      "City": "GUAYNABO",
      "State": "PR",
      "Zip": "00965",
      "Male Crim": 3.50143266475646,
      "Male Non-Crim": 8.75358166189119,
      "Female Crim": 0.180515759312321,
      "Female Non-Crim": 1.00286532951289,
      "ICE Threat Level 1": 0.0830945558739255,
      "ICE Threat Level 2": 0.0859598853868195,
      "ICE Threat Level 3": 0.0630372492836676,
      "No ICE Threat Level": 13.2063037249284,
      "latitude": 18.423606,
      "longitude": -66.113134
    },
    {
      "Name": "BROWARD TRANSITIONAL CENTER",
      "Address": "3900 NORTH POWERLINE ROAD",
      "City": "POMPANO BEACH",
      "State": "FL",
      "Zip": "33073",
      "Male Crim": 111.787965616046,
      "Male Non-Crim": 440.785100286537,
      "Female Crim": 15.9971346704871,
      "Female Non-Crim": 80.6647564469916,
      "ICE Threat Level 1": 8.54441260744986,
      "ICE Threat Level 2": 13.4899713467049,
      "ICE Threat Level 3": 23.5501432664757,
      "No ICE Threat Level": 603.650429799425,
      "latitude": 26.2759099,
      "longitude": -80.15197
    },
    {
      "Name": "WALTON COUNTY JAIL",
      "Address": "40 SHERIFF CIR",
      "City": "DEFUNIAK SPRINGS",
      "State": "FL",
      "Zip": "32433",
      "Male Crim": 2.36389684813754,
      "Male Non-Crim": 6.05730659025798,
      "Female Crim": 0.00286532951289398,
      "Female Non-Crim": 0.0257879656160458,
      "ICE Threat Level 1": 0.0343839541547278,
      "ICE Threat Level 2": 0.0286532951289398,
      "ICE Threat Level 3": 0.0601719197707736,
      "No ICE Threat Level": 8.32664756447006,
      "latitude": 30.78363619823702,
      "longitude": -86.1039227599523
    },
    {
      "Name": "PHELPS COUNTY JAIL (MO)",
      "Address": "301 W. 2ND",
      "City": "ROLLA",
      "State": "MO",
      "Zip": "65401",
      "Male Crim": 7.13467048710602,
      "Male Non-Crim": 13.5530085959885,
      "Female Crim": 0.464183381088825,
      "Female Non-Crim": 1.84813753581662,
      "ICE Threat Level 1": 0.0401146131805158,
      "ICE Threat Level 2": 0.573065902578797,
      "ICE Threat Level 3": 1.03151862464183,
      "No ICE Threat Level": 21.3553008595989,
      "latitude": 37.9454138,
      "longitude": -91.7739843
    },
    {
      "Name": "PIKE COUNTY JAIL",
      "Address": "175 PIKE COUNTY BOULEVARD",
      "City": "LORDS VALLEY",
      "State": "PA",
      "Zip": "18428",
      "Male Crim": 74.570200573066,
      "Male Non-Crim": 117.461318051576,
      "Female Crim": 0.0,
      "Female Non-Crim": 0.0429799426934097,
      "ICE Threat Level 1": 13.0487106017192,
      "ICE Threat Level 2": 7.56446991404012,
      "ICE Threat Level 3": 10.9598853868195,
      "No ICE Threat Level": 160.501432664757,
      "latitude": 41.3892641952419,
      "longitude": -75.071309115601
    },
    {
      "Name": "ADAMS COUNTY DET CENTER",
      "Address": "20 HOBO FORK RD.",
      "City": "NATCHEZ",
      "State": "MS",
      "Zip": "39120",
      "Male Crim": 58.9140401146133,
      "Male Non-Crim": 2111.4011461318,
      "Female Crim": 0.283667621776504,
      "Female Non-Crim": 0.194842406876791,
      "ICE Threat Level 1": 8.22636103151862,
      "ICE Threat Level 2": 12.8481375358166,
      "ICE Threat Level 3": 22.4412607449857,
      "No ICE Threat Level": 2127.27793696274,
      "latitude": 31.5576266,
      "longitude": -91.221126
    },
    {
      "Name": "ALLEN PARISH PUBLIC SAFETY COMPLEX",
      "Address": "7340 HIGHWAY 26 WEST",
      "City": "OBERLIN",
      "State": "LA",
      "Zip": "70655",
      "Male Crim": 52.4441260744986,
      "Male Non-Crim": 119.275071633238,
      "Female Crim": 0.0,
      "Female Non-Crim": 0.0,
      "ICE Threat Level 1": 15.6017191977077,
      "ICE Threat Level 2": 10.1002865329513,
      "ICE Threat Level 3": 3.72492836676218,
      "No ICE Threat Level": 142.292263610315,
      "latitude": 30.624697320076855,
      "longitude": -92.78388873123045
    },
    {
      "Name": "SOUTH LOUISIANA ICE PROCESSING CENTER",
      "Address": "3843 STAGG AVENUE",
      "City": "BASILE",
      "State": "LA",
      "Zip": "70515",
      "Male Crim": 4.4297994269341,
      "Male Non-Crim": 6.29226361031519,
      "Female Crim": 138.352435530087,
      "Female Non-Crim": 740.515759312316,
      "ICE Threat Level 1": 56.2578796561604,
      "ICE Threat Level 2": 28.621776504298,
      "ICE Threat Level 3": 29.8567335243553,
      "No ICE Threat Level": 774.853868194837,
      "latitude": 30.4866896,
      "longitude": -92.5818666
    },
    {
      "Name": "ETOWAH COUNTY JAIL",
      "Address": "827 FORREST AVENUE",
      "City": "GADSDEN",
      "State": "AL",
      "Zip": "35901",
      "Male Crim": 15.9226361031519,
      "Male Non-Crim": 22.8882521489972,
      "Female Crim": 1.41260744985673,
      "Female Non-Crim": 3.57020057306591,
      "ICE Threat Level 1": 0.361031518624642,
      "ICE Threat Level 2": 0.286532951289398,
      "ICE Threat Level 3": 0.240687679083095,
      "No ICE Threat Level": 42.9054441260747,
      "latitude": 34.0161208,
      "longitude": -86.012499
    },
    {
      "Name": "HANCOCK COUNTY PUBLIC SAFETY COMPLEX",
      "Address": "8450 HIGHWAY 90",
      "City": "BAY ST. LOUIS",
      "State": "MS",
      "Zip": "39520",
      "Male Crim": 5.35530085959892,
      "Male Non-Crim": 15.7249283667622,
      "Female Crim": 0.329512893982808,
      "Female Non-Crim": 2.26647564469914,
      "ICE Threat Level 1": 0.0716332378223496,
      "ICE Threat Level 2": 0.191977077363897,
      "ICE Threat Level 3": 0.0687679083094556,
      "No ICE Threat Level": 23.3438395415466,
      "latitude": 30.303815869350622,
      "longitude": -89.4759421177441
    },
    {
      "Name": "CENTRAL LOUISIANA ICE PROCESSING CENTER (CLIPC)",
      "Address": "830 PINEHILL ROAD",
      "City": "JENA",
      "State": "LA",
      "Zip": "71342",
      "Male Crim": 481.042979942695,
      "Male Non-Crim": 698.873925501432,
      "Female Crim": 1.20343839541547,
      "Female Non-Crim": 0.66189111747851,
      "ICE Threat Level 1": 84.5759312320916,
      "ICE Threat Level 2": 51.9942693409742,
      "ICE Threat Level 3": 70.1604584527221,
      "No ICE Threat Level": 975.051575931237,
      "latitude": 31.7088575,
      "longitude": -92.1529335
    },
    {
      "Name": "ALEXANDRIA STAGING FACILI",
      "Address": "96 GEORGE THOMPSON DR.",
      "City": "ALEXANDRIA",
      "State": "LA",
      "Zip": "71303",
      "Male Crim": 137.659025787993,
      "Male Non-Crim": 199.564469914104,
      "Female Crim": 0.0974212034383954,
      "Female Non-Crim": 0.26647564469914,
      "ICE Threat Level 1": 45.3123209169027,
      "ICE Threat Level 2": 27.2349570200569,
      "ICE Threat Level 3": 36.1518624641821,
      "No ICE Threat Level": 228.888252149079,
      "latitude": 31.317855,
      "longitude": -92.536606
    },
    {
      "Name": "JACKSON PARISH CORRECTIONAL CENTER",
      "Address": "327 INDUSTRIAL DRIVE",
      "City": "JONESBORO",
      "State": "LA",
      "Zip": "71251",
      "Male Crim": 60.9856733524355,
      "Male Non-Crim": 990.363896848141,
      "Female Crim": 0.891117478510029,
      "Female Non-Crim": 3.55873925501433,
      "ICE Threat Level 1": 9.69054441260745,
      "ICE Threat Level 2": 7.11747851002866,
      "ICE Threat Level 3": 23.7650429799427,
      "No ICE Threat Level": 1015.22636103152,
      "latitude": 32.2158449,
      "longitude": -92.7178317
    },
    {
      "Name": "KNOX COUNTY DETENTION FACILITY",
      "Address": "5001 MALONEYVILLE RD",
      "City": "KNOXVILLE",
      "State": "TN",
      "Zip": "37918",
      "Male Crim": 13.7765042979944,
      "Male Non-Crim": 13.6017191977079,
      "Female Crim": 0.750716332378223,
      "Female Non-Crim": 1.63037249283667,
      "ICE Threat Level 1": 0.32378223495702,
      "ICE Threat Level 2": 0.114613180515759,
      "ICE Threat Level 3": 0.186246418338109,
      "No ICE Threat Level": 29.1346704871062,
      "latitude": 36.0850476,
      "longitude": -83.841532
    },
    {
      "Name": "WINN CORRECTIONAL CENTER",
      "Address": "560 GUM SPRING ROAD",
      "City": "WINNFIELD",
      "State": "LA",
      "Zip": "71483",
      "Male Crim": 376.100286532952,
      "Male Non-Crim": 1187.81948424068,
      "Female Crim": 0.521489971346705,
      "Female Non-Crim": 0.521489971346705,
      "ICE Threat Level 1": 91.9656160458453,
      "ICE Threat Level 2": 59.8280802292263,
      "ICE Threat Level 3": 63.3925501432664,
      "No ICE Threat Level": 1349.77650429799,
      "latitude": 31.8504715684334,
      "longitude": -92.78135647527058
    },
    {
      "Name": "LOUISIANA ICE PROCESSING",
      "Address": "18198 TUNICA TRACE BLDG E",
      "City": "ANGOLA",
      "State": "LA",
      "Zip": "70712",
      "Male Crim": 4.37249283667622,
      "Male Non-Crim": 0.283667621776504,
      "Female Crim": 0.0,
      "Female Non-Crim": 0.0,
      "ICE Threat Level 1": 3.97421203438395,
      "ICE Threat Level 2": 0.28080229226361,
      "ICE Threat Level 3": 0.103151862464183,
      "No ICE Threat Level": 0.297994269340974,
      "latitude": 30.940215,
      "longitude": -91.568424
    },
    {
      "Name": "MADISON COUNTY JAIL",
      "Address": "2935 HIGHWAY 51",
      "City": "CANTON",
      "State": "MS",
      "Zip": "39046",
      "Male Crim": 2.46131805157594,
      "Male Non-Crim": 4.87679083094563,
      "Female Crim": 0.0458452722063037,
      "Female Non-Crim": 0.53295128939828,
      "ICE Threat Level 1": 0.0257879656160458,
      "ICE Threat Level 2": 0.0143266475644699,
      "ICE Threat Level 3": 0.0114613180515759,
      "No ICE Threat Level": 7.86532951289413,
      "latitude": 32.58677735093389,
      "longitude": -90.04526320050026
    },
    {
      "Name": "MILLER COUNTY JAIL",
      "Address": "2300 EAST STREET",
      "City": "TEXARKANA",
      "State": "AR",
      "Zip": "71854",
      "Male Crim": 1.03724928366762,
      "Male Non-Crim": 1.01719197707736,
      "Female Crim": 0.0257879656160458,
      "Female Non-Crim": 0.0773638968481375,
      "ICE Threat Level 1": 0.0200573065902579,
      "ICE Threat Level 2": 0.0229226361031519,
      "ICE Threat Level 3": 0.0286532951289398,
      "No ICE Threat Level": 2.08595988538682,
      "latitude": 33.401201,
      "longitude": -94.0225542
    },
    {
      "Name": "NELSON COLEMAN CORRECTION",
      "Address": "5061 HIGHWAY 3127",
      "City": "KILLONA",
      "State": "LA",
      "Zip": "70057",
      "Male Crim": 0.275071633237822,
      "Male Non-Crim": 0.836676217765042,
      "Female Crim": 0.0,
      "Female Non-Crim": 0.0,
      "ICE Threat Level 1": 0.00573065902578797,
      "ICE Threat Level 2": 0.00573065902578797,
      "ICE Threat Level 3": 0.0,
      "No ICE Threat Level": 1.10028653295129,
      "latitude": 29.99255,
      "longitude": -90.50223
    },
    {
      "Name": "PICKENS COUNTY DETENTION CENTER",
      "Address": "188 CEMETERY ST",
      "City": "CARROLLTON",
      "State": "AL",
      "Zip": "35447",
      "Male Crim": 13.6762177650431,
      "Male Non-Crim": 20.6217765042982,
      "Female Crim": 2.50143266475645,
      "Female Non-Crim": 2.28080229226361,
      "ICE Threat Level 1": 0.455587392550143,
      "ICE Threat Level 2": 0.833810888252149,
      "ICE Threat Level 3": 0.659025787965616,
      "No ICE Threat Level": 37.1318051575927,
      "latitude": 33.2603007,
      "longitude": -88.0959216
    },
    {
      "Name": "PINE PRAIRIE ICE PROCESSING CENTER",
      "Address": "1133 HAMPTON DUPRE ROAD",
      "City": "PINE PRAIRIE",
      "State": "LA",
      "Zip": "70576",
      "Male Crim": 290.275071633243,
      "Male Non-Crim": 496.478510028664,
      "Female Crim": 0.128939828080229,
      "Female Non-Crim": 1.18338108882521,
      "ICE Threat Level 1": 51.2435530085957,
      "ICE Threat Level 2": 31.3065902578797,
      "ICE Threat Level 3": 37.0573065902578,
      "No ICE Threat Level": 668.45845272205,
      "latitude": 30.7884208,
      "longitude": -92.4227559
    },
    {
      "Name": "PUTNAM COUNTY SHERIFF",
      "Address": "421 E SPRING ST.",
      "City": "COOKEVILLE",
      "State": "TN",
      "Zip": "38501",
      "Male Crim": 3.27793696275073,
      "Male Non-Crim": 2.60171919770774,
      "Female Crim": 0.0143266475644699,
      "Female Non-Crim": 0.0,
      "ICE Threat Level 1": 0.0716332378223496,
      "ICE Threat Level 2": 0.0114613180515759,
      "ICE Threat Level 3": 0.0401146131805158,
      "No ICE Threat Level": 5.77077363896855,
      "latitude": 36.1617449,
      "longitude": -85.4983817
    },
    {
      "Name": "RIVER CORRECTIONAL CENTER",
      "Address": "26362 HIGHWAY 15",
      "City": "FERRIDAY",
      "State": "LA",
      "Zip": "71334",
      "Male Crim": 32.0945558739255,
      "Male Non-Crim": 522.558739255016,
      "Female Crim": 0.0515759312320917,
      "Female Non-Crim": 0.684813753581662,
      "ICE Threat Level 1": 3.7163323782235,
      "ICE Threat Level 2": 5.83667621776504,
      "ICE Threat Level 3": 12.7363896848138,
      "No ICE Threat Level": 533.100286532953,
      "latitude": 31.597253400688896,
      "longitude": -91.55806052381577
    },
    {
      "Name": "RICHWOOD CORRECTIONAL CENTER",
      "Address": "180 PINE BAYOU CIRCLE",
      "City": "MONROE",
      "State": "LA",
      "Zip": "71202",
      "Male Crim": 67.7736389684814,
      "Male Non-Crim": 126.051575931232,
      "Female Crim": 25.5644699140401,
      "Female Non-Crim": 723.080229226365,
      "ICE Threat Level 1": 31.4985673352435,
      "ICE Threat Level 2": 15.6532951289398,
      "ICE Threat Level 3": 27.3638968481375,
      "No ICE Threat Level": 867.954154727797,
      "latitude": 32.45717553802827,
      "longitude": -92.079859671668
    },
    {
      "Name": "SEBASTIAN COUNTY DETENTION CENTER",
      "Address": "801 SOUTH A STREET",
      "City": "FORT SMITH",
      "State": "AR",
      "Zip": "72901",
      "Male Crim": 0.713467048710601,
      "Male Non-Crim": 0.773638968481374,
      "Female Crim": 0.0630372492836676,
      "Female Non-Crim": 0.0372492836676218,
      "ICE Threat Level 1": 0.00286532951289398,
      "ICE Threat Level 2": 0.0,
      "ICE Threat Level 3": 0.00859598853868195,
      "No ICE Threat Level": 1.57593123209169,
      "latitude": 35.3822229,
      "longitude": -94.422565
    },
    {
      "Name": "WASHINGTON COUNTY DETENTION CENTER",
      "Address": "1155 WEST CLYDESDALE DRIVE",
      "City": "FAYETTEVILLE",
      "State": "AR",
      "Zip": "72701",
      "Male Crim": 1.68481375358166,
      "Male Non-Crim": 2.75931232091692,
      "Female Crim": 0.106017191977077,
      "Female Non-Crim": 0.203438395415473,
      "ICE Threat Level 1": 0.00286532951289398,
      "ICE Threat Level 2": 0.00286532951289398,
      "ICE Threat Level 3": 0.0200573065902579,
      "No ICE Threat Level": 4.72779369627517,
      "latitude": 36.0340715,
      "longitude": -94.175948
    },
    {
      "Name": "PLYMOUTH COUNTY CORRECTIONAL FACILITY",
      "Address": "26 LONG POND ROAD",
      "City": "PLYMOUTH",
      "State": "MA",
      "Zip": "02360",
      "Male Crim": 146.171919770774,
      "Male Non-Crim": 301.739255014326,
      "Female Crim": 0.332378223495702,
      "Female Non-Crim": 1.00859598853868,
      "ICE Threat Level 1": 33.7449856733524,
      "ICE Threat Level 2": 12.5816618911175,
      "ICE Threat Level 3": 11.0773638968481,
      "No ICE Threat Level": 391.848137535816,
      "latitude": 41.9318079,
      "longitude": -70.6512992
    },
    {
      "Name": "SAUK COUNTY SHERIFF",
      "Address": "1300 LANGE CT.",
      "City": "BARABOO",
      "State": "WI",
      "Zip": "53913",
      "Male Crim": 0.891117478510029,
      "Male Non-Crim": 1.16905444126074,
      "Female Crim": 0.0,
      "Female Non-Crim": 0.00573065902578797,
      "ICE Threat Level 1": 0.00573065902578797,
      "ICE Threat Level 2": 0.0945558739255014,
      "ICE Threat Level 3": 0.00573065902578797,
      "No ICE Threat Level": 1.95988538681948,
      "latitude": 43.4615055,
      "longitude": -89.7672991
    },
    {
      "Name": "SENECA COUNTY JAIL",
      "Address": "3040 SOUTH STATE HIGHWAY 100",
      "City": "TIFFIN",
      "State": "OH",
      "Zip": "44883",
      "Male Crim": 29.2292263610315,
      "Male Non-Crim": 26.7535816618911,
      "Female Crim": 1.83381088825215,
      "Female Non-Crim": 2.02578796561605,
      "ICE Threat Level 1": 5.55873925501433,
      "ICE Threat Level 2": 2.30945558739255,
      "ICE Threat Level 3": 3.39828080229226,
      "No ICE Threat Level": 48.5759312320917,
      "latitude": 41.079506331622774,
      "longitude": -83.15386397328119
    },
    {
      "Name": "SOUTH CENTRAL REGIONAL JAIL",
      "Address": "1001 CENTER WAY",
      "City": "CHARLESTON",
      "State": "WV",
      "Zip": "25309",
      "Male Crim": 4.90830945558739,
      "Male Non-Crim": 7.78796561604585,
      "Female Crim": 0.0200573065902579,
      "Female Non-Crim": 0.217765042979943,
      "ICE Threat Level 1": 0.189111747851003,
      "ICE Threat Level 2": 0.69054441260745,
      "ICE Threat Level 3": 0.776504297994269,
      "No ICE Threat Level": 11.2779369627507,
      "latitude": 38.31113857008232,
      "longitude": -81.71099978870323
    },
    {
      "Name": "ST. CLAIR COUNTY JAIL",
      "Address": "1170 MICHIGAN ROAD",
      "City": "PORT HURON",
      "State": "MI",
      "Zip": "48060",
      "Male Crim": 20.4555873925502,
      "Male Non-Crim": 44.9770773638968,
      "Female Crim": 0.0,
      "Female Non-Crim": 0.0,
      "ICE Threat Level 1": 4.35530085959885,
      "ICE Threat Level 2": 3.67908309455587,
      "ICE Threat Level 3": 3.0458452722063,
      "No ICE Threat Level": 54.3524355300859,
      "latitude": 42.9426053,
      "longitude": -82.4799303
    },
    {
      "Name": "STE. GENEVIEVE COUNTY SHERIFF/JAIL",
      "Address": "5 BASLER DR.",
      "City": "STE. GENEVIEVE",
      "State": "MO",
      "Zip": "63670",
      "Male Crim": 13.1948424068768,
      "Male Non-Crim": 23.1289398280802,
      "Female Crim": 0.481375358166189,
      "Female Non-Crim": 3.0974212034384,
      "ICE Threat Level 1": 1.12034383954155,
      "ICE Threat Level 2": 0.461318051575931,
      "ICE Threat Level 3": 1.69627507163324,
      "No ICE Threat Level": 36.6246418338108,
      "latitude": 37.965677,
      "longitude": -90.0551125
    },
    {
      "Name": "STRAFFORD COUNTY CORRECTIONS",
      "Address": "266 COUNTY FARM ROAD",
      "City": "DOVER",
      "State": "NH",
      "Zip": "03820",
      "Male Crim": 44.1977077363897,
      "Male Non-Crim": 52.7679083094556,
      "Female Crim": 5.44412607449857,
      "Female Non-Crim": 10.0315186246418,
      "ICE Threat Level 1": 9.67621776504297,
      "ICE Threat Level 2": 3.86819484240688,
      "ICE Threat Level 3": 4.80229226361032,
      "No ICE Threat Level": 94.0945558739257,
      "latitude": 43.2192302,
      "longitude": -70.9386083
    },
    {
      "Name": "TWO BRIDGES REGIONAL JAIL",
      "Address": "522 BATH RD",
      "City": "WISCASSET",
      "State": "ME",
      "Zip": "04578",
      "Male Crim": 4.86819484240688,
      "Male Non-Crim": 6.11461318051576,
      "Female Crim": 0.0,
      "Female Non-Crim": 0.0,
      "ICE Threat Level 1": 1.93409742120344,
      "ICE Threat Level 2": 0.340974212034384,
      "ICE Threat Level 3": 0.573065902578797,
      "No ICE Threat Level": 8.13467048710602,
      "latitude": 43.9781192,
      "longitude": -69.6989264
    },
    {
      "Name": "WAUKESHA COUNTY JAIL",
      "Address": "515 WEST MORELAND",
      "City": "WAUKESHA",
      "State": "WI",
      "Zip": "53186",
      "Male Crim": 0.845272206303724,
      "Male Non-Crim": 0.88538681948424,
      "Female Crim": 0.0487106017191977,
      "Female Non-Crim": 0.220630372492837,
      "ICE Threat Level 1": 0.0171919770773639,
      "ICE Threat Level 2": 0.0,
      "ICE Threat Level 3": 0.0200573065902579,
      "No ICE Threat Level": 1.96275071633238,
      "latitude": 43.0236491,
      "longitude": -88.228229
    },
    {
      "Name": "WYATT DETENTION CENTER",
      "Address": "950 HIGH STREET",
      "City": "CENTRAL FALLS",
      "State": "RI",
      "Zip": "02863",
      "Male Crim": 50.7335243553008,
      "Male Non-Crim": 57.3696275071633,
      "Female Crim": 1.97707736389685,
      "Female Non-Crim": 1.88252148997135,
      "ICE Threat Level 1": 9.97421203438395,
      "ICE Threat Level 2": 2.22349570200573,
      "ICE Threat Level 3": 1.28939828080229,
      "No ICE Threat Level": 98.4756446991404,
      "latitude": 41.8928106,
      "longitude": -71.3831998
    },
    {
      "Name": "CCA, FLORENCE CORRECTIONAL CENTER",
      "Address": "1100 BOWLING ROAD",
      "City": "FLORENCE",
      "State": "AZ",
      "Zip": "85232",
      "Male Crim": 285.123209169055,
      "Male Non-Crim": 186.753581661892,
      "Female Crim": 0.0,
      "Female Non-Crim": 0.0171919770773639,
      "ICE Threat Level 1": 43.4154727793696,
      "ICE Threat Level 2": 17.1604584527221,
      "ICE Threat Level 3": 21.7736389684814,
      "No ICE Threat Level": 389.544412607451,
      "latitude": 33.0438338,
      "longitude": -111.371793
    },
    {
      "Name": "ELOY FEDERAL CONTRACT FACILITY",
      "Address": "1705 EAST HANNA RD.",
      "City": "ELOY",
      "State": "AZ",
      "Zip": "85131",
      "Male Crim": 205.853868194842,
      "Male Non-Crim": 558.905444126068,
      "Female Crim": 101.647564469914,
      "Female Non-Crim": 535.212034383953,
      "ICE Threat Level 1": 118.510028653295,
      "ICE Threat Level 2": 56.7277936962751,
      "ICE Threat Level 3": 90.0343839541547,
      "No ICE Threat Level": 1136.34670487105,
      "latitude": 32.8176772,
      "longitude": -111.51927
    },
    {
      "Name": "FLORENCE SERVICE PROCESSING CENTER",
      "Address": "3250 NORTH PINAL PARKWAY",
      "City": "FLORENCE",
      "State": "AZ",
      "Zip": "85132",
      "Male Crim": 98.0573065902599,
      "Male Non-Crim": 289.813753581664,
      "Female Crim": 0.229226361031518,
      "Female Non-Crim": 0.630372492836676,
      "ICE Threat Level 1": 2.49856733524357,
      "ICE Threat Level 2": 5.28653295128943,
      "ICE Threat Level 3": 31.2234957020055,
      "No ICE Threat Level": 349.722063037244,
      "latitude": 33.0630048,
      "longitude": -111.3790857
    },
    {
      "Name": "FLORENCE STAGING FACILITY",
      "Address": "3250 NORTH PINAL PARKWAY",
      "City": "FLORENCE",
      "State": "AZ",
      "Zip": "85232",
      "Male Crim": 76.6848137535824,
      "Male Non-Crim": 112.042979942703,
      "Female Crim": 3.75358166189115,
      "Female Non-Crim": 5.84240687679094,
      "ICE Threat Level 1": 5.2893982808024,
      "ICE Threat Level 2": 3.8825214899714,
      "ICE Threat Level 3": 5.76217765042992,
      "No ICE Threat Level": 183.389684813789,
      "latitude": 33.0640298,
      "longitude": -111.3825565
    },
    {
      "Name": "LA PAZ COUNTY ADULT DETENTION FACILITY",
      "Address": "1109 ARIZONA AVE.",
      "City": "PARKER",
      "State": "AZ",
      "Zip": "85344",
      "Male Crim": 0.747851002865329,
      "Male Non-Crim": 0.272206303724928,
      "Female Crim": 0.00859598853868195,
      "Female Non-Crim": 0.0429799426934097,
      "ICE Threat Level 1": 0.0200573065902579,
      "ICE Threat Level 2": 0.0315186246418338,
      "ICE Threat Level 3": 0.143266475644699,
      "No ICE Threat Level": 0.876790830945557,
      "latitude": 34.1454944,
      "longitude": -114.2903444
    },
    {
      "Name": "NORTHWEST ICE PROCESSSING CENTER",
      "Address": "1623 E. J STREET",
      "City": "TACOMA",
      "State": "WA",
      "Zip": "98421",
      "Male Crim": 412.787965616046,
      "Male Non-Crim": 639.558739255014,
      "Female Crim": 47.4584527220631,
      "Female Non-Crim": 79.810888252149,
      "ICE Threat Level 1": 153.638968481375,
      "ICE Threat Level 2": 40.2893982808023,
      "ICE Threat Level 3": 31.1690544412607,
      "No ICE Threat Level": 954.518624641831,
      "latitude": 47.2490423,
      "longitude": -122.4223947
    },
    {
      "Name": "HONOLULU FEDERAL DETENTION CENTER",
      "Address": "351 ELLIOTT ST.",
      "City": "HONOLULU",
      "State": "HI",
      "Zip": "96819",
      "Male Crim": 21.352435530086,
      "Male Non-Crim": 19.7134670487106,
      "Female Crim": 0.550143266475645,
      "Female Non-Crim": 5.96275071633238,
      "ICE Threat Level 1": 10.974212034384,
      "ICE Threat Level 2": 5.29512893982808,
      "ICE Threat Level 3": 3.32951289398281,
      "No ICE Threat Level": 27.9799426934097,
      "latitude": 21.3332122,
      "longitude": -157.9283542
    },
    {
      "Name": "MESA VERDE ICE PROCESSING CENTER",
      "Address": "425 GOLDEN STATE AVE",
      "City": "BAKERSFIELD",
      "State": "CA",
      "Zip": "93301",
      "Male Crim": 67.5787965616046,
      "Male Non-Crim": 41.5358166189111,
      "Female Crim": 3.10028653295129,
      "Female Non-Crim": 20.3868194842407,
      "ICE Threat Level 1": 4.26074498567335,
      "ICE Threat Level 2": 1.72492836676218,
      "ICE Threat Level 3": 1.5243553008596,
      "No ICE Threat Level": 125.091690544412,
      "latitude": 35.380713,
      "longitude": -119.0060804
    },
    {
      "Name": "CALIFORNIA CITY CORRECTIONAL CENTER",
      "Address": "22844 VIRGINIA BOULEVARD",
      "City": "CALIFORNIA CITY",
      "State": "CA",
      "Zip": "93505",
      "Male Crim": 9.21489971346707,
      "Male Non-Crim": 10.025787965616,
      "Female Crim": 0.0,
      "Female Non-Crim": 0.0,
      "ICE Threat Level 1": 6.68194842406878,
      "ICE Threat Level 2": 1.00286532951289,
      "ICE Threat Level 3": 1.32664756446991,
      "No ICE Threat Level": 10.2292263610315,
      "latitude": 35.1531066,
      "longitude": -117.8591019
    },
    {
      "Name": "GOLDEN STATE ANNEX",
      "Address": "611 FRONTAGE RD",
      "City": "MCFARLAND",
      "State": "CA",
      "Zip": "93250",
      "Male Crim": 296.868194842407,
      "Male Non-Crim": 298.76217765043,
      "Female Crim": 0.0,
      "Female Non-Crim": 0.114613180515759,
      "ICE Threat Level 1": 45.0372492836676,
      "ICE Threat Level 2": 13.3352435530086,
      "ICE Threat Level 3": 9.72206303724928,
      "No ICE Threat Level": 527.650429799426,
      "latitude": 35.667329,
      "longitude": -119.225036
    },
    {
      "Name": "DEPARTMENT OF CORRECTIONS HAGATNA",
      "Address": "203 ASPINAL AVE. PO BOX 3236",
      "City": "HAGATNA",
      "State": "GU",
      "Zip": "96910",
      "Male Crim": 4.35816618911175,
      "Male Non-Crim": 3.85386819484241,
      "Female Crim": 0.00286532951289398,
      "Female Non-Crim": 0.240687679083095,
      "ICE Threat Level 1": 3.24641833810888,
      "ICE Threat Level 2": 0.630372492836676,
      "ICE Threat Level 3": 0.406876790830946,
      "No ICE Threat Level": 4.17191977077364,
      "latitude": 13.474342702816681,
      "longitude": 144.75024740290328
    },
    {
      "Name": "SAIPAN DEPARTMENT OF CORRECTIONS (SUSUPE)",
      "Address": "VICENTE T. SEMAN BLDG, CIVIC CENTER",
      "City": "SAIPAN",
      "State": "MP",
      "Zip": "96950",
      "Male Crim": 3.34097421203438,
      "Male Non-Crim": 4.22636103151862,
      "Female Crim": 0.575931232091691,
      "Female Non-Crim": 0.882521489971347,
      "ICE Threat Level 1": 2.61031518624642,
      "ICE Threat Level 2": 0.742120343839542,
      "ICE Threat Level 3": 0.0,
      "No ICE Threat Level": 5.67335243553008,
      "latitude": 15.158907917922077,
      "longitude": 145.70544921267373
    },
    {
      "Name": "ELMORE COUNTY JAIL",
      "Address": "2255 E. 8TH NORTH",
      "City": "MOUNTAIN HOME",
      "State": "ID",
      "Zip": "83647",
      "Male Crim": 1.21489971346705,
      "Male Non-Crim": 0.33810888252149,
      "Female Crim": 0.00286532951289398,
      "Female Non-Crim": 0.0143266475644699,
      "ICE Threat Level 1": 0.128939828080229,
      "ICE Threat Level 2": 0.0945558739255014,
      "ICE Threat Level 3": 0.0716332378223496,
      "No ICE Threat Level": 1.27507163323782,
      "latitude": 43.1363262,
      "longitude": -115.6730371
    },
    {
      "Name": "HENDERSON DETENTION",
      "Address": "18 E BASIC ROAD",
      "City": "HENDERSON",
      "State": "NV",
      "Zip": "89015",
      "Male Crim": 33.2435530085959,
      "Male Non-Crim": 26.8424068767908,
      "Female Crim": 9.10028653295129,
      "Female Non-Crim": 8.53295128939829,
      "ICE Threat Level 1": 8.93123209169054,
      "ICE Threat Level 2": 6.2865329512894,
      "ICE Threat Level 3": 4.92263610315186,
      "No ICE Threat Level": 57.5787965616042,
      "latitude": 36.0308679,
      "longitude": -114.9780973
    },
    {
      "Name": "JEFFERSON COUNTY JAIL",
      "Address": "219 EAST FREMONT AVENUE",
      "City": "RIGBY",
      "State": "ID",
      "Zip": "83442",
      "Male Crim": 3.63896848137538,
      "Male Non-Crim": 1.31232091690544,
      "Female Crim": 0.0286532951289398,
      "Female Non-Crim": 0.0229226361031519,
      "ICE Threat Level 1": 0.0773638968481375,
      "ICE Threat Level 2": 0.186246418338109,
      "ICE Threat Level 3": 0.220630372492837,
      "No ICE Threat Level": 4.51862464183385,
      "latitude": 43.6733525,
      "longitude": -111.9115662
    },
    {
      "Name": "NEVADA SOUTHERN DETENTION CENTER",
      "Address": "2190 EAST MESQUITE AVENUE",
      "City": "PAHRUMP",
      "State": "NV",
      "Zip": "89060",
      "Male Crim": 218.186246418338,
      "Male Non-Crim": 145.63323782235,
      "Female Crim": 0.481375358166189,
      "Female Non-Crim": 0.243553008595989,
      "ICE Threat Level 1": 50.4097421203438,
      "ICE Threat Level 2": 24.0458452722063,
      "ICE Threat Level 3": 28.5472779369628,
      "No ICE Threat Level": 261.541547277937,
      "latitude": 36.2520145,
      "longitude": -115.9770311
    },
    {
      "Name": "SALT LAKE COUNTY METRO JAIL",
      "Address": "3415 SOUTH 900 WEST",
      "City": "SALT LAKE CITY",
      "State": "UT",
      "Zip": "84119",
      "Male Crim": 4.25501432664762,
      "Male Non-Crim": 2.30945558739255,
      "Female Crim": 0.277936962750716,
      "Female Non-Crim": 0.303724928366762,
      "ICE Threat Level 1": 0.524355300859598,
      "ICE Threat Level 2": 0.197707736389685,
      "ICE Threat Level 3": 0.134670487106017,
      "No ICE Threat Level": 6.2893982808024,
      "latitude": 40.7259591,
      "longitude": -111.9169442
    },
    {
      "Name": "TOOELE COUNTY JAIL",
      "Address": "47 SOUTH MAIN STREET",
      "City": "TOOELE",
      "State": "UT",
      "Zip": "84074",
      "Male Crim": 1.31232091690544,
      "Male Non-Crim": 1.26934097421203,
      "Female Crim": 0.126074498567335,
      "Female Non-Crim": 0.148997134670487,
      "ICE Threat Level 1": 0.0544412607449857,
      "ICE Threat Level 2": 0.0200573065902579,
      "ICE Threat Level 3": 0.0200573065902579,
      "No ICE Threat Level": 2.76217765042981,
      "latitude": 40.529621,
      "longitude": -112.297725
    },
    {
      "Name": "UINTA COUNTY JAIL",
      "Address": "77 COUNTY ROAD 109",
      "City": "EVANSTON",
      "State": "WY",
      "Zip": "82930",
      "Male Crim": 2.18624641833811,
      "Male Non-Crim": 2.22636103151863,
      "Female Crim": 0.0916905444126074,
      "Female Non-Crim": 0.134670487106017,
      "ICE Threat Level 1": 0.0429799426934097,
      "ICE Threat Level 2": 0.00859598853868195,
      "ICE Threat Level 3": 0.0315186246418338,
      "No ICE Threat Level": 4.55587392550146,
      "latitude": 41.269064,
      "longitude": -110.921015
    },
    {
      "Name": "WASHINGTON COUNTY JAIL (PURGATORY CORRECTIONAL FAC",
      "Address": "750 SOUTH 5300 WEST",
      "City": "HURRICANE",
      "State": "UT",
      "Zip": "84737",
      "Male Crim": 1.50143266475645,
      "Male Non-Crim": 1.44985673352435,
      "Female Crim": 0.0372492836676218,
      "Female Non-Crim": 0.143266475644699,
      "ICE Threat Level 1": 0.143266475644699,
      "ICE Threat Level 2": 0.131805157593123,
      "ICE Threat Level 3": 0.169054441260745,
      "No ICE Threat Level": 2.68767908309456,
      "latitude": 37.159618,
      "longitude": -113.4122002
    },
    {
      "Name": "WASHOE COUNTY JAIL",
      "Address": "911 PARR BLVD 775 328 3308",
      "City": "RENO",
      "State": "NV",
      "Zip": "89506",
      "Male Crim": 11.2005730659026,
      "Male Non-Crim": 3.7650429799427,
      "Female Crim": 0.401146131805158,
      "Female Non-Crim": 0.432664756446991,
      "ICE Threat Level 1": 3.0487106017192,
      "ICE Threat Level 2": 0.67621776504298,
      "ICE Threat Level 3": 1.40974212034384,
      "No ICE Threat Level": 10.6647564469914,
      "latitude": 39.57445694817889,
      "longitude": -119.81272011554243
    },
    {
      "Name": "T DON HUTTO DETENTION CENTER",
      "Address": "1001 WELCH STREET",
      "City": "TAYLOR",
      "State": "TX",
      "Zip": "76574",
      "Male Crim": 231.833810888253,
      "Male Non-Crim": 196.21776504298,
      "Female Crim": 0.0,
      "Female Non-Crim": 0.131805157593123,
      "ICE Threat Level 1": 67.295128939828,
      "ICE Threat Level 2": 53.730659025788,
      "ICE Threat Level 3": 91.432664756447,
      "No ICE Threat Level": 215.724928366762,
      "latitude": 30.5647288,
      "longitude": -97.4194342
    },
    {
      "Name": "KARNES COUNTY IMMIGRATION PROCESSING CENTER",
      "Address": "409 FM 1144",
      "City": "KARNES CITY",
      "State": "TX",
      "Zip": "78118",
      "Male Crim": 57.6131805157593,
      "Male Non-Crim": 628.518624641839,
      "Female Crim": 21.6103151862464,
      "Female Non-Crim": 260.33524355301,
      "ICE Threat Level 1": 1.36676217765043,
      "ICE Threat Level 2": 7.17191977077364,
      "ICE Threat Level 3": 43.6303724928367,
      "No ICE Threat Level": 915.908309455588,
      "latitude": 28.8849121,
      "longitude": -97.8977348
    },
    {
      "Name": "LA SALLE COUNTY REGIONAL DETENTION CENTER",
      "Address": "832 EAST TEXAS STATE HIGHWAY 44",
      "City": "ENCINAL",
      "State": "TX",
      "Zip": "78019",
      "Male Crim": 10.1690544412608,
      "Male Non-Crim": 89.214899713467,
      "Female Crim": 0.527220630372493,
      "Female Non-Crim": 2.37249283667622,
      "ICE Threat Level 1": 0.0401146131805158,
      "ICE Threat Level 2": 0.177650429799427,
      "ICE Threat Level 3": 1.5730659025788,
      "No ICE Threat Level": 100.492836676218,
      "latitude": 28.045392301310212,
      "longitude": -99.33614721779425
    },
    {
      "Name": "SOUTH TEXAS ICE PROCESSING CENTER",
      "Address": "566 VETERANS DRIVE",
      "City": "PEARSALL",
      "State": "TX",
      "Zip": "78061",
      "Male Crim": 456.180515759314,
      "Male Non-Crim": 1172.54441260745,
      "Female Crim": 33.2034383954155,
      "Female Non-Crim": 33.3638968481375,
      "ICE Threat Level 1": 109.446991404012,
      "ICE Threat Level 2": 90.538681948424,
      "ICE Threat Level 3": 216.916905444126,
      "No ICE Threat Level": 1278.38968481375,
      "latitude": 28.8946514,
      "longitude": -99.1219428
    },
    {
      "Name": "DILLEY IMMIGRATION PROCESSING CENTER",
      "Address": "300 EL RANCHO WAY",
      "City": "DILLEY",
      "State": "TX",
      "Zip": "78017",
      "Male Crim": 0.693409742120344,
      "Male Non-Crim": 71.2636103151862,
      "Female Crim": 0.507163323782235,
      "Female Non-Crim": 89.5644699140397,
      "ICE Threat Level 1": 0.0315186246418338,
      "ICE Threat Level 2": 0.111747851002865,
      "ICE Threat Level 3": 0.535816618911175,
      "No ICE Threat Level": 161.349570200574,
      "latitude": 28.658091009808814,
      "longitude": -99.20042911778089
    },
    {
      "Name": "OTAY MESA DETENTION CENTER",
      "Address": "7488 CALZADA DE LA FUENTE",
      "City": "SAN DIEGO",
      "State": "CA",
      "Zip": "92154",
      "Male Crim": 207.965616045846,
      "Male Non-Crim": 917.369627507148,
      "Female Crim": 19.1117478510029,
      "Female Non-Crim": 245.346704871061,
      "ICE Threat Level 1": 77.2406876790831,
      "ICE Threat Level 2": 33.5873925501432,
      "ICE Threat Level 3": 41.8481375358166,
      "No ICE Threat Level": 1237.11747851,
      "latitude": 32.5765248,
      "longitude": -116.9154777
    },
    {
      "Name": "IMPERIAL REGIONAL DETENTION FACILITY",
      "Address": "1572 GATEWAY",
      "City": "CALEXICO",
      "State": "CA",
      "Zip": "92231",
      "Male Crim": 100.277936962751,
      "Male Non-Crim": 504.704871060173,
      "Female Crim": 2.10888252148997,
      "Female Non-Crim": 57.2320916905444,
      "ICE Threat Level 1": 32.2034383954155,
      "ICE Threat Level 2": 15.297994269341,
      "ICE Threat Level 3": 15.3008595988539,
      "No ICE Threat Level": 601.521489971348,
      "latitude": 32.69032325025824,
      "longitude": -115.39756848885183
    },
    {
      "Name": "SAN LUIS REGIONAL DETENTION CENTER",
      "Address": "406 NORTH AVENUE D",
      "City": "SAN LUIS",
      "State": "AZ",
      "Zip": "85349",
      "Male Crim": 35.4813753581661,
      "Male Non-Crim": 147.481375358166,
      "Female Crim": 2.5730659025788,
      "Female Non-Crim": 43.2435530085959,
      "ICE Threat Level 1": 14.6361031518625,
      "ICE Threat Level 2": 3.44699140401146,
      "ICE Threat Level 3": 3.24928366762178,
      "No ICE Threat Level": 207.446991404012,
      "latitude": 32.483025880176186,
      "longitude": -114.68349442933823
    },
    {
      "Name": "BURLEIGH COUNTY",
      "Address": "P.O. BOX 1416",
      "City": "BISMARCK",
      "State": "ND",
      "Zip": "58502",
      "Male Crim": 1.76504297994269,
      "Male Non-Crim": 3.98853868194842,
      "Female Crim": 0.0,
      "Female Non-Crim": 0.762177650429799,
      "ICE Threat Level 1": 0.0916905444126075,
      "ICE Threat Level 2": 0.716332378223496,
      "ICE Threat Level 3": 0.123209169054441,
      "No ICE Threat Level": 5.58452722063038,
      "latitude": 46.11458,
      "longitude": -100.59055
    },
    {
      "Name": "CASS COUNTY JAIL",
      "Address": "336 MAIN STREET",
      "City": "PLATTSMOUTH",
      "State": "NE",
      "Zip": "68048",
      "Male Crim": 4.77363896848138,
      "Male Non-Crim": 2.29226361031519,
      "Female Crim": 0.0114613180515759,
      "Female Non-Crim": 0.710601719197708,
      "ICE Threat Level 1": 0.541547277936963,
      "ICE Threat Level 2": 0.383954154727794,
      "ICE Threat Level 3": 0.716332378223496,
      "No ICE Threat Level": 6.1461318051576,
      "latitude": 41.0112468,
      "longitude": -95.8831012
    },
    {
      "Name": "DAKOTA COUNTY JAIL",
      "Address": "1601 BROADWAY",
      "City": "DAKOTA CITY",
      "State": "NE",
      "Zip": "68731",
      "Male Crim": 13.6991404011461,
      "Male Non-Crim": 6.4785100286533,
      "Female Crim": 0.876790830945559,
      "Female Non-Crim": 1.89684813753582,
      "ICE Threat Level 1": 0.948424068767908,
      "ICE Threat Level 2": 1.1432664756447,
      "ICE Threat Level 3": 0.616045845272206,
      "No ICE Threat Level": 20.243553008596,
      "latitude": 42.416218260076164,
      "longitude": -96.4198282400598
    },
    {
      "Name": "DOUGLAS COUNTY",
      "Address": "1409 HAMMOND AVENUE",
      "City": "SUPERIOR",
      "State": "WI",
      "Zip": "54880",
      "Male Crim": 0.667621776504298,
      "Male Non-Crim": 2.38395415472779,
      "Female Crim": 0.0401146131805158,
      "Female Non-Crim": 0.240687679083094,
      "ICE Threat Level 1": 0.0143266475644699,
      "ICE Threat Level 2": 0.0171919770773639,
      "ICE Threat Level 3": 0.174785100286533,
      "No ICE Threat Level": 3.12607449856733,
      "latitude": 46.7214838,
      "longitude": -92.0985348
    },
    {
      "Name": "FREEBORN COUNTY ADULT DETENTION CENTER",
      "Address": "411 SOUTH BROADWAY AVENUE",
      "City": "ALBERT LEA",
      "State": "MN",
      "Zip": "56007",
      "Male Crim": 44.8939828080229,
      "Male Non-Crim": 36.6790830945559,
      "Female Crim": 0.0,
      "Female Non-Crim": 0.0,
      "ICE Threat Level 1": 10.3638968481375,
      "ICE Threat Level 2": 4.28939828080229,
      "ICE Threat Level 3": 3.03724928366762,
      "No ICE Threat Level": 63.8825214899713,
      "latitude": 43.6461475,
      "longitude": -93.3680658
    },
    {
      "Name": "GRAND FORKS COUNTY CORRECTIONAL FACILITY",
      "Address": "1701 NORTH WASHINGTON ST",
      "City": "GRAND FORKS",
      "State": "ND",
      "Zip": "58203",
      "Male Crim": 3.54154727793697,
      "Male Non-Crim": 4.39255014326648,
      "Female Crim": 0.0315186246418338,
      "Female Non-Crim": 0.160458452722063,
      "ICE Threat Level 1": 0.0143266475644699,
      "ICE Threat Level 2": 0.160458452722063,
      "ICE Threat Level 3": 0.561604584527221,
      "No ICE Threat Level": 7.3896848137536,
      "latitude": 47.935792,
      "longitude": -97.055851
    },
    {
      "Name": "HARDIN COUNTY JAIL",
      "Address": "1116 14TH AVENUE",
      "City": "ELDORA",
      "State": "IA",
      "Zip": "50627",
      "Male Crim": 5.0974212034384,
      "Male Non-Crim": 4.35530085959885,
      "Female Crim": 0.36676217765043,
      "Female Non-Crim": 0.825214899713467,
      "ICE Threat Level 1": 1.10315186246418,
      "ICE Threat Level 2": 0.816618911174785,
      "ICE Threat Level 3": 0.535816618911175,
      "No ICE Threat Level": 8.18911174785101,
      "latitude": 42.3598449,
      "longitude": -93.0973711
    },
    {
      "Name": "HALL COUNTY DEPARTMENT OF CORRECTIONS",
      "Address": "110 PUBLIC SAFETY DRIVE",
      "City": "GRAND ISLAND",
      "State": "NE",
      "Zip": "68801",
      "Male Crim": 0.896848137535816,
      "Male Non-Crim": 0.641833810888252,
      "Female Crim": 0.0429799426934097,
      "Female Non-Crim": 0.0,
      "ICE Threat Level 1": 0.0286532951289398,
      "ICE Threat Level 2": 0.0343839541547278,
      "ICE Threat Level 3": 0.154727793696275,
      "No ICE Threat Level": 1.36389684813753,
      "latitude": 40.92663,
      "longitude": -98.32841
    },
    {
      "Name": "KANDIYOHI COUNTY JAIL",
      "Address": "2201 23RD ST NE",
      "City": "WILLMAR",
      "State": "MN",
      "Zip": "56201",
      "Male Crim": 68.6934097421204,
      "Male Non-Crim": 62.8911174785099,
      "Female Crim": 7.18051575931232,
      "Female Non-Crim": 4.97707736389685,
      "ICE Threat Level 1": 20.1547277936963,
      "ICE Threat Level 2": 9.36389684813753,
      "ICE Threat Level 3": 7.67908309455587,
      "No ICE Threat Level": 106.54441260745,
      "latitude": 45.1458557,
      "longitude": -95.0144842
    },
    {
      "Name": "LINCOLN COUNTY JAIL",
      "Address": "3020 N JEFFERS",
      "City": "NORTH PLATTE",
      "State": "NE",
      "Zip": "69101",
      "Male Crim": 6.68481375358166,
      "Male Non-Crim": 5.67621776504298,
      "Female Crim": 0.489971346704871,
      "Female Non-Crim": 5.55587392550143,
      "ICE Threat Level 1": 1.32091690544413,
      "ICE Threat Level 2": 0.750716332378223,
      "ICE Threat Level 3": 1.13753581661891,
      "No ICE Threat Level": 15.1977077363897,
      "latitude": 41.1065398,
      "longitude": -100.7640382
    },
    {
      "Name": "LINN COUNTY JAIL",
      "Address": "53 3RD AVENUE BRIDGE",
      "City": "CEDAR RAPIDS",
      "State": "IA",
      "Zip": "52401",
      "Male Crim": 5.31518624641834,
      "Male Non-Crim": 3.50429799426934,
      "Female Crim": 0.223495702005731,
      "Female Non-Crim": 0.467048710601719,
      "ICE Threat Level 1": 0.404011461318052,
      "ICE Threat Level 2": 0.40974212034384,
      "ICE Threat Level 3": 1.32664756446991,
      "No ICE Threat Level": 7.36962750716333,
      "latitude": 41.9746012,
      "longitude": -91.6692502
    },
    {
      "Name": "MINNEHAHA COUNTY JAIL",
      "Address": "500 NORTH MINNESOTA AVENUE",
      "City": "SIOUX FALLS",
      "State": "SD",
      "Zip": "57104",
      "Male Crim": 0.558739255014326,
      "Male Non-Crim": 1.63610315186246,
      "Female Crim": 0.0,
      "Female Non-Crim": 0.128939828080229,
      "ICE Threat Level 1": 0.0114613180515759,
      "ICE Threat Level 2": 0.0,
      "ICE Threat Level 3": 0.0401146131805158,
      "No ICE Threat Level": 2.27220630372493,
      "latitude": 43.5524104,
      "longitude": -96.731237
    },
    {
      "Name": "MUSCATINE COUNTY JAIL",
      "Address": "400 WALNUT STREET",
      "City": "MUSCATINE",
      "State": "IA",
      "Zip": "52761",
      "Male Crim": 5.79942693409742,
      "Male Non-Crim": 4.55873925501433,
      "Female Crim": 0.206303724928367,
      "Female Non-Crim": 1.25214899713467,
      "ICE Threat Level 1": 1.87392550143267,
      "ICE Threat Level 2": 0.372492836676218,
      "ICE Threat Level 3": 0.570200573065903,
      "No ICE Threat Level": 9.0,
      "latitude": 41.4243549,
      "longitude": -91.0446662
    },
    {
      "Name": "NORTHWEST REGIONAL CORRECTIONS CENTER",
      "Address": "816 MARIN AVE., SUITE 110",
      "City": "CROOKSTON",
      "State": "MN",
      "Zip": "56716",
      "Male Crim": 0.650429799426934,
      "Male Non-Crim": 2.69054441260745,
      "Female Crim": 0.123209169054441,
      "Female Non-Crim": 0.610315186246418,
      "ICE Threat Level 1": 0.0429799426934097,
      "ICE Threat Level 2": 0.0114613180515759,
      "ICE Threat Level 3": 0.0630372492836676,
      "No ICE Threat Level": 3.95702005730659,
      "latitude": 47.76885,
      "longitude": -96.62851
    },
    {
      "Name": "PENNINGTON COUNTY JAIL (SOUTH DAKOTA)",
      "Address": "300 KANSAS CITY STREET NONE",
      "City": "RAPID CITY",
      "State": "SD",
      "Zip": "57701",
      "Male Crim": 0.882521489971346,
      "Male Non-Crim": 1.74498567335243,
      "Female Crim": 0.0,
      "Female Non-Crim": 0.0515759312320917,
      "ICE Threat Level 1": 0.0859598853868195,
      "ICE Threat Level 2": 0.0573065902578797,
      "ICE Threat Level 3": 0.0229226361031519,
      "No ICE Threat Level": 2.51289398280802,
      "latitude": 44.07844295797259,
      "longitude": -103.22212620387216
    },
    {
      "Name": "PHELPS COUNTY JAIL (NE)",
      "Address": "715 5TH AVENUE",
      "City": "HOLDREGE",
      "State": "NE",
      "Zip": "68949",
      "Male Crim": 23.3094555873926,
      "Male Non-Crim": 6.21203438395415,
      "Female Crim": 1.32378223495702,
      "Female Non-Crim": 0.340974212034384,
      "ICE Threat Level 1": 2.14613180515759,
      "ICE Threat Level 2": 1.2836676217765,
      "ICE Threat Level 3": 1.40687679083095,
      "No ICE Threat Level": 26.3495702005731,
      "latitude": 40.4390467,
      "longitude": -99.3704014
    },
    {
      "Name": "POLK COUNTY JAIL",
      "Address": "1985 NE 51ST PLACE",
      "City": "DES MOINES",
      "State": "IA",
      "Zip": "50313",
      "Male Crim": 31.1547277936963,
      "Male Non-Crim": 11.2492836676218,
      "Female Crim": 0.515759312320917,
      "Female Non-Crim": 0.702005730659026,
      "ICE Threat Level 1": 2.69054441260745,
      "ICE Threat Level 2": 1.63610315186246,
      "ICE Threat Level 3": 2.0945558739255,
      "No ICE Threat Level": 37.2005730659025,
      "latitude": 41.6534505,
      "longitude": -93.5877727
    },
    {
      "Name": "POTTAWATTAMIE COUNTY JAIL",
      "Address": "1400 BIG LAKE ROAD",
      "City": "COUNCIL BLUFFS",
      "State": "IA",
      "Zip": "51501",
      "Male Crim": 29.6475644699141,
      "Male Non-Crim": 5.59598853868195,
      "Female Crim": 0.928366762177651,
      "Female Non-Crim": 0.908309455587393,
      "ICE Threat Level 1": 6.48710601719198,
      "ICE Threat Level 2": 1.69054441260745,
      "ICE Threat Level 3": 1.42406876790831,
      "No ICE Threat Level": 27.4785100286533,
      "latitude": 41.284196,
      "longitude": -95.864127
    },
    {
      "Name": "SARPY COUNTY JAIL",
      "Address": "1208 GOLDEN GATE DRIVE",
      "City": "PAPILLION",
      "State": "NE",
      "Zip": "68046",
      "Male Crim": 4.46991404011461,
      "Male Non-Crim": 0.277936962750716,
      "Female Crim": 0.171919770773639,
      "Female Non-Crim": 0.00859598853868195,
      "ICE Threat Level 1": 1.23209169054441,
      "ICE Threat Level 2": 1.15472779369628,
      "ICE Threat Level 3": 0.32378223495702,
      "No ICE Threat Level": 2.21776504297994,
      "latitude": 41.1434535,
      "longitude": -96.0419407
    },
    {
      "Name": "SHERBURNE COUNTY JAIL",
      "Address": "13880 BUSINESS CENTER DRIVE",
      "City": "ELK RIVER",
      "State": "MN",
      "Zip": "55330",
      "Male Crim": 29.3638968481375,
      "Male Non-Crim": 28.9656160458453,
      "Female Crim": 3.07449856733524,
      "Female Non-Crim": 1.3352435530086,
      "ICE Threat Level 1": 8.89684813753582,
      "ICE Threat Level 2": 3.79083094555874,
      "ICE Threat Level 3": 2.61604584527221,
      "No ICE Threat Level": 47.4355300859599,
      "latitude": 45.3037535,
      "longitude": -93.6200234
    },
    {
      "Name": "WARD COUNTY JAIL",
      "Address": "P.O. BOX 907",
      "City": "MINOT",
      "State": "ND",
      "Zip": "58702",
      "Male Crim": 0.441260744985673,
      "Male Non-Crim": 0.630372492836676,
      "Female Crim": 0.0171919770773639,
      "Female Non-Crim": 0.0515759312320917,
      "ICE Threat Level 1": 0.0,
      "ICE Threat Level 2": 0.0744985673352436,
      "ICE Threat Level 3": 0.0,
      "No ICE Threat Level": 1.06590257879656,
      "latitude": 48.23153,
      "longitude": -101.295738
    },
    {
      "Name": "WOODBURY COUNTY JAIL",
      "Address": "407 7TH STREET",
      "City": "SIOUX CITY",
      "State": "IA",
      "Zip": "51101",
      "Male Crim": 14.5157593123209,
      "Male Non-Crim": 11.8595988538682,
      "Female Crim": 0.484240687679083,
      "Female Non-Crim": 2.25214899713467,
      "ICE Threat Level 1": 1.59025787965616,
      "ICE Threat Level 2": 0.787965616045845,
      "ICE Threat Level 3": 1.92550143266476,
      "No ICE Threat Level": 24.8080229226361,
      "latitude": 42.4975021,
      "longitude": -96.4062738
    },
    {
      "Name": "CAROLINE DETENTION FACILITY",
      "Address": "11093 S.W. LEWIS MEMORIAL DRIVE",
      "City": "BOWLING GREEN",
      "State": "VA",
      "Zip": "22427",
      "Male Crim": 128.492836676218,
      "Male Non-Crim": 160.191977077364,
      "Female Crim": 8.53295128939828,
      "Female Non-Crim": 5.82521489971347,
      "ICE Threat Level 1": 32.1203438395415,
      "ICE Threat Level 2": 11.1489971346705,
      "ICE Threat Level 3": 12.4985673352436,
      "No ICE Threat Level": 247.275071633239,
      "latitude": 38.111865502490836,
      "longitude": -77.26723215987357
    },
    {
      "Name": "PRINCE EDWARD COUNTY (FARMVILLE)",
      "Address": "508 WATERWORKS ROAD",
      "City": "FARMVILLE",
      "State": "VA",
      "Zip": "23901",
      "Male Crim": 285.914040114613,
      "Male Non-Crim": 302.945558739256,
      "Female Crim": 0.0458452722063037,
      "Female Non-Crim": 0.401146131805158,
      "ICE Threat Level 1": 44.5644699140401,
      "ICE Threat Level 2": 18.1948424068768,
      "ICE Threat Level 3": 24.621776504298,
      "No ICE Threat Level": 501.925501432665,
      "latitude": 37.3193665,
      "longitude": -78.4382314
    },
    {
      "Name": "ROCKINGHAM COUNTY JAIL",
      "Address": "25 SOUTH LIBERTY STREET",
      "City": "HARRISONBURG",
      "State": "VA",
      "Zip": "22801",
      "Male Crim": 0.679083094555873,
      "Male Non-Crim": 0.312320916905444,
      "Female Crim": 0.0487106017191977,
      "Female Non-Crim": 0.0343839541547278,
      "ICE Threat Level 1": 0.0,
      "ICE Threat Level 2": 0.0,
      "ICE Threat Level 3": 0.0200573065902579,
      "No ICE Threat Level": 1.05444126074498,
      "latitude": 38.449425,
      "longitude": -78.8707201
    },
    {
      "Name": "RIVERSIDE REGIONAL JAIL",
      "Address": "1000 RIVER ROAD",
      "City": "HOPEWELL",
      "State": "VA",
      "Zip": "23860",
      "Male Crim": 0.876790830945558,
      "Male Non-Crim": 5.74212034383958,
      "Female Crim": 0.0315186246418338,
      "Female Non-Crim": 0.0515759312320917,
      "ICE Threat Level 1": 0.0343839541547278,
      "ICE Threat Level 2": 0.00859598853868195,
      "ICE Threat Level 3": 0.0429799426934097,
      "No ICE Threat Level": 6.61604584527226,
      "latitude": 37.2950331,
      "longitude": -77.321649
    },
    {
      "Name": "WESTERN VIRGINIA REGIONAL JAIL",
      "Address": "5885 W RIVER RD",
      "City": "SALEM",
      "State": "VA",
      "Zip": "24153",
      "Male Crim": 0.449856733524355,
      "Male Non-Crim": 0.997134670487105,
      "Female Crim": 0.0229226361031519,
      "Female Non-Crim": 0.0200573065902579,
      "ICE Threat Level 1": 0.0,
      "ICE Threat Level 2": 0.0,
      "ICE Threat Level 3": 0.0,
      "No ICE Threat Level": 1.48997134670487,
      "latitude": 37.250881,
      "longitude": -80.170341
    }
  ]
}